{
    "target": "198.41.0.4",
    "measurement_filepath": "datasets/measurements/campaigns/198.41.0.4_North-Central_20230410/198.41.0.4_North-Central_300_52069377.json",
    "probes_filepath": "datasets/probes_sets/North-Central_300.json",
    "alpha": 0.0,
    "threshold": -1,
    "noise": 0,
    "num_anycast_instances": 6,
    "anycast_instances": [
        {
            "marker": {
                "id": "QEF",
                "latitude": 49.9599990845,
                "longitude": 8.6458330154,
                "city": "Egelsbach",
                "country_code": "DE"
            },
            "circle": {
                "id": "1002375",
                "latitude": 50.1195,
                "longitude": 8.6805,
                "radius": 34.205060329476396
            }
        },
        {
            "marker": {
                "id": "OXF",
                "latitude": 51.8368988037,
                "longitude": -1.3200000525,
                "city": "Kidlington",
                "country_code": "GB"
            },
            "circle": {
                "id": "1003887",
                "latitude": 51.5405,
                "longitude": -0.6685,
                "radius": 63.5263816011496
            }
        },
        {
            "marker": {
                "id": "QAR",
                "latitude": 52.0606002808,
                "longitude": 5.8730602264,
                "city": "Arnhem",
                "country_code": "NL"
            },
            "circle": {
                "id": "1005311",
                "latitude": 52.3775,
                "longitude": 4.8975,
                "radius": 82.94148080765402
            }
        },
        {
            "marker": {
                "id": "NRK",
                "latitude": 58.5862998962,
                "longitude": 16.2506008148,
                "city": "Norrk\u00f6ping",
                "country_code": "SE"
            },
            "circle": {
                "id": "28417",
                "latitude": 59.3105,
                "longitude": 18.0075,
                "radius": 136.3745098913512
            }
        },
        {
            "marker": {
                "id": "NVS",
                "latitude": 47.0026016235,
                "longitude": 3.1133298874,
                "city": "Nevers/Fourchambault",
                "country_code": "FR"
            },
            "circle": {
                "id": "61735",
                "latitude": 48.9095,
                "longitude": 2.2885,
                "radius": 221.14826224380963
            }
        },
        {
            "marker": {
                "id": "ZIA",
                "latitude": 46.0214004517,
                "longitude": 11.1241998672,
                "city": "Trento",
                "country_code": "IT"
            },
            "circle": {
                "id": "30725",
                "latitude": 43.6395,
                "longitude": 6.9285,
                "radius": 426.2111001951376
            }
        }
    ]
}