{
    "target": "199.9.14.201",
    "probes_filepath": "datasets/probes_section/North-Central-section_1.json",
    "alpha": 1,
    "threshold": 20.0,
    "noise": 0,
    "results_filepath": "datasets/results/campaigns/199.9.14.201_North-Central-section_20230425_threshold_light-factor_0.18/199.9.14.201_North-Central-section_1_52639768_1_20.0_0.json",
    "gt_filepath": "datasets/ground-truth/root_servers/root_servers_B.json",
    "statistics": {
        "TP": 1,
        "FP": 8,
        "TN": 0,
        "FN": 0,
        "accuracy": 0.1111111111111111,
        "precision": 0.1111111111111111,
        "recall": 1.0,
        "f1": 0.19999999999999998,
        "OT": 0,
        "OF": 0
    },
    "instances": [
        {
            "country_code": "BE",
            "city": "Brussels",
            "latitude": 50.4592018127,
            "longitude": 4.4538202286,
            "type": "FP"
        },
        {
            "country_code": "DE",
            "city": "Cologne",
            "latitude": 50.8658981323,
            "longitude": 7.1427397728,
            "type": "FP"
        },
        {
            "country_code": "DE",
            "city": "Hamburg",
            "latitude": 53.6304016113,
            "longitude": 9.9882297516,
            "type": "FP"
        },
        {
            "country_code": "GB",
            "city": "London",
            "latitude": 51.3307991028,
            "longitude": 0.0324999988,
            "type": "FP"
        },
        {
            "country_code": "GB",
            "city": "London",
            "latitude": 51.8746986389,
            "longitude": -0.3683330119,
            "type": "FP"
        },
        {
            "country_code": "IE",
            "city": "Dublin",
            "latitude": 53.4212989807,
            "longitude": -6.270070076,
            "type": "FP"
        },
        {
            "country_code": "IT",
            "city": "Milan",
            "latitude": 45.445098877,
            "longitude": 9.2767400742,
            "type": "FP"
        },
        {
            "country_code": "NL",
            "city": "Arnhem",
            "latitude": 52.0606002808,
            "longitude": 5.8730602264,
            "type": "TP"
        },
        {
            "country_code": "SE",
            "city": "Stockholm",
            "latitude": 59.6519012451,
            "longitude": 17.9186000824,
            "type": "FP"
        }
    ]
}