{
    "count": 49,
    "countGT": 0,
    "instances": [
        {
            "circle": {
                "id": "1003894",
                "latitude": -33.8705,
                "longitude": 151.2015,
                "radius": 33.72576398153881
            },
            "marker": {
                "city": "Sydney",
                "code_country": "AU",
                "id": "BWU",
                "latitude": -33.9244003296,
                "longitude": 150.9880065918
            }
        },
        {
            "circle": {
                "id": "1004698",
                "latitude": 37.5515,
                "longitude": -121.9885,
                "radius": 39.7671737058796
            },
            "marker": {
                "city": "San Francisco",
                "code_country": "US",
                "id": "PIX",
                "latitude": 37.6189994812,
                "longitude": -122.375
            }
        },
        {
            "circle": {
                "id": "1002633",
                "latitude": 39.0385,
                "longitude": -77.4915,
                "radius": 39.85721005921974
            },
            "marker": {
                "city": "Washington",
                "code_country": "US",
                "id": "IAD",
                "latitude": 38.94449997,
                "longitude": -77.45580292
            }
        },
        {
            "circle": {
                "id": "1004208",
                "latitude": 39.2615,
                "longitude": -94.7025,
                "radius": 43.55718151701644
            },
            "marker": {
                "city": "Kansas City",
                "code_country": "US",
                "id": "MKC",
                "latitude": 39.1231994629,
                "longitude": -94.5927963257
            }
        },
        {
            "circle": {
                "id": "32626",
                "latitude": 41.3905,
                "longitude": 2.1085,
                "radius": 53.05192423288487
            },
            "marker": {
                "city": "Barcelona",
                "code_country": "ES",
                "id": "BCN",
                "latitude": 41.2971000671,
                "longitude": 2.0784599781
            }
        },
        {
            "circle": {
                "id": "12174",
                "latitude": 53.4795,
                "longitude": -2.2495,
                "radius": 55.14790742444144
            },
            "marker": {
                "city": "Liverpool",
                "code_country": "GB",
                "id": "LPL",
                "latitude": 53.3335990906,
                "longitude": -2.8497200012
            }
        },
        {
            "circle": {
                "id": "50644",
                "latitude": 47.5195,
                "longitude": 19.0595,
                "radius": 74.61528570205591
            },
            "marker": {
                "city": "Budapest",
                "code_country": "HU",
                "id": "BUD",
                "latitude": 47.4369010925,
                "longitude": 19.2555999756
            }
        },
        {
            "circle": {
                "id": "1004034",
                "latitude": 50.1195,
                "longitude": 8.6785,
                "radius": 77.04547831471842
            },
            "marker": {
                "city": "Mannheim",
                "code_country": "DE",
                "id": "MHG",
                "latitude": 49.4730567932,
                "longitude": 8.514166832
            }
        },
        {
            "circle": {
                "id": "50025",
                "latitude": 53.5495,
                "longitude": 10.0485,
                "radius": 82.58256612122632
            },
            "marker": {
                "city": "Hamburg",
                "code_country": "DE",
                "id": "XFW",
                "latitude": 53.5352783203,
                "longitude": 9.8355560303
            }
        },
        {
            "circle": {
                "id": "1001120",
                "latitude": 53.3475,
                "longitude": -6.2615,
                "radius": 87.38575410127498
            },
            "marker": {
                "city": "Dublin",
                "code_country": "IE",
                "id": "DUB",
                "latitude": 53.4212989807,
                "longitude": -6.270070076
            }
        },
        {
            "circle": {
                "id": "50387",
                "latitude": 50.0705,
                "longitude": 14.4615,
                "radius": 89.82679446735197
            },
            "marker": {
                "city": "Prague",
                "code_country": "CZ",
                "id": "PRG",
                "latitude": 50.1007995605,
                "longitude": 14.2600002289
            }
        },
        {
            "circle": {
                "id": "62626",
                "latitude": -8.6595,
                "longitude": 115.1685,
                "radius": 95.84029588063552
            },
            "marker": {
                "city": "Denpasar Bali",
                "code_country": "ID",
                "id": "DPS",
                "latitude": -8.748169899,
                "longitude": 115.1669998169
            }
        },
        {
            "circle": {
                "id": "52594",
                "latitude": -6.4405,
                "longitude": 106.9015,
                "radius": 96.38879773964736
            },
            "marker": {
                "city": "Jakarta",
                "code_country": "ID",
                "id": "CGK",
                "latitude": -6.1255698204,
                "longitude": 106.65599823
            }
        },
        {
            "circle": {
                "id": "1004792",
                "latitude": -23.5315,
                "longitude": -46.6385,
                "radius": 98.38764423017435
            },
            "marker": {
                "city": "S\u00e3o Paulo",
                "code_country": "BR",
                "id": "GRU",
                "latitude": -23.4355564117,
                "longitude": -46.4730567932
            }
        },
        {
            "circle": {
                "id": "1000745",
                "latitude": 59.8295,
                "longitude": 30.9295,
                "radius": 103.09379412513353
            },
            "marker": {
                "city": "St Petersburg",
                "code_country": "RU",
                "id": "LED",
                "latitude": 59.8003005981,
                "longitude": 30.2625007629
            }
        },
        {
            "circle": {
                "id": "1000297",
                "latitude": 34.0505,
                "longitude": -118.2385,
                "radius": 103.42662292307764
            },
            "marker": {
                "city": "Los Angeles",
                "code_country": "US",
                "id": "LAX",
                "latitude": 33.94250107,
                "longitude": -118.4079971
            }
        },
        {
            "circle": {
                "id": "1003896",
                "latitude": 43.6505,
                "longitude": -79.3585,
                "radius": 116.02194941262304
            },
            "marker": {
                "city": "Toronto",
                "code_country": "CA",
                "id": "YKZ",
                "latitude": 43.8622016907,
                "longitude": -79.3700027466
            }
        },
        {
            "circle": {
                "id": "1005028",
                "latitude": 51.5415,
                "longitude": -0.6715,
                "radius": 119.76432572467633
            },
            "marker": {
                "city": "London",
                "code_country": "GB",
                "id": "STN",
                "latitude": 51.8849983215,
                "longitude": 0.2349999994
            }
        },
        {
            "circle": {
                "id": "1005229",
                "latitude": 52.3515,
                "longitude": 4.9585,
                "radius": 139.8641280263546
            },
            "marker": {
                "city": "Antwerp",
                "code_country": "BE",
                "id": "ANR",
                "latitude": 51.1893997192,
                "longitude": 4.4602799416
            }
        },
        {
            "circle": {
                "id": "28272",
                "latitude": 52.5285,
                "longitude": 13.3805,
                "radius": 142.02549358621843
            },
            "marker": {
                "city": "Berlin",
                "code_country": "DE",
                "id": "SXF",
                "latitude": 52.3800010681,
                "longitude": 13.5225000381
            }
        },
        {
            "circle": {
                "id": "54262",
                "latitude": 56.9485,
                "longitude": 24.1105,
                "radius": 157.29242450986843
            },
            "marker": {
                "city": "Riga",
                "code_country": "LV",
                "id": "RIX",
                "latitude": 56.9235992432,
                "longitude": 23.9710998535
            }
        },
        {
            "circle": {
                "id": "1002921",
                "latitude": 45.3275,
                "longitude": 9.2085,
                "radius": 158.84897850890528
            },
            "marker": {
                "city": "Milan",
                "code_country": "IT",
                "id": "MXP",
                "latitude": 45.6305999756,
                "longitude": 8.7281103134
            }
        },
        {
            "circle": {
                "id": "11623",
                "latitude": 40.1785,
                "longitude": 44.5185,
                "radius": 161.39031128609605
            },
            "marker": {
                "city": "Yerevan",
                "code_country": "AM",
                "id": "EVN",
                "latitude": 40.1473007202,
                "longitude": 44.3959007263
            }
        },
        {
            "circle": {
                "id": "13593",
                "latitude": 46.3085,
                "longitude": 16.3415,
                "radius": 179.86699382914867
            },
            "marker": {
                "city": "Zagreb",
                "code_country": "HR",
                "id": "ZAG",
                "latitude": 45.7429008484,
                "longitude": 16.0687999725
            }
        },
        {
            "circle": {
                "id": "1004007",
                "latitude": 54.9005,
                "longitude": 23.8875,
                "radius": 179.95594540714734
            },
            "marker": {
                "city": "Vilnius",
                "code_country": "LT",
                "id": "VNO",
                "latitude": 54.6341018677,
                "longitude": 25.2858009338
            }
        },
        {
            "circle": {
                "id": "1000481",
                "latitude": 22.3175,
                "longitude": 114.1715,
                "radius": 207.68290175048224
            },
            "marker": {
                "city": "Hong Kong",
                "code_country": "HK",
                "id": "HKX",
                "latitude": 22.308889,
                "longitude": 113.914722
            }
        },
        {
            "circle": {
                "id": "1004422",
                "latitude": 48.8285,
                "longitude": 2.4085,
                "radius": 213.75005023519736
            },
            "marker": {
                "city": "Paris",
                "code_country": "FR",
                "id": "PAR",
                "latitude": 49.0127983093,
                "longitude": 2.5499999523
            }
        },
        {
            "circle": {
                "id": "1002639",
                "latitude": 1.3515,
                "longitude": 103.8185,
                "radius": 221.01271976212766
            },
            "marker": {
                "city": "Malacca",
                "code_country": "MY",
                "id": "MKZ",
                "latitude": 2.2633600235,
                "longitude": 102.251998901
            }
        },
        {
            "circle": {
                "id": "63037",
                "latitude": 19.1405,
                "longitude": 73.0085,
                "radius": 224.9845753668671
            },
            "marker": {
                "city": "Mumbai",
                "code_country": "IN",
                "id": "BOM",
                "latitude": 19.0886993408,
                "longitude": 72.8678970337
            }
        },
        {
            "circle": {
                "id": "4502",
                "latitude": 50.4585,
                "longitude": 30.6275,
                "radius": 239.63209957055062
            },
            "marker": {
                "city": "Gomel",
                "code_country": "BY",
                "id": "GME",
                "latitude": 52.5270004272,
                "longitude": 31.0167007446
            }
        },
        {
            "circle": {
                "id": "1000801",
                "latitude": 42.6975,
                "longitude": 23.3175,
                "radius": 256.42195645765264
            },
            "marker": {
                "city": "Sofia",
                "code_country": "BG",
                "id": "SOF",
                "latitude": 42.6966934204,
                "longitude": 23.4114360809
            }
        },
        {
            "circle": {
                "id": "55147",
                "latitude": 45.5505,
                "longitude": -122.8705,
                "radius": 258.0738720707967
            },
            "marker": {
                "city": "Seattle",
                "code_country": "US",
                "id": "BFI",
                "latitude": 47.5299987793,
                "longitude": -122.3020019531
            }
        },
        {
            "circle": {
                "id": "18857",
                "latitude": 42.3605,
                "longitude": -71.0605,
                "radius": 315.4915239733065
            },
            "marker": {
                "city": "New York",
                "code_country": "US",
                "id": "JFK",
                "latitude": 40.63980103,
                "longitude": -73.77890015
            }
        },
        {
            "circle": {
                "id": "50285",
                "latitude": 41.9195,
                "longitude": 12.3615,
                "radius": 319.01023933314144
            },
            "marker": {
                "city": "Rome",
                "code_country": "IT",
                "id": "ROM",
                "latitude": 41.799444,
                "longitude": 12.597222
            }
        },
        {
            "circle": {
                "id": "62264",
                "latitude": -20.8805,
                "longitude": 55.4505,
                "radius": 323.03100844418617
            },
            "marker": {
                "city": "Port Louis",
                "code_country": "MU",
                "id": "MRU",
                "latitude": -20.4302005768,
                "longitude": 57.6836013794
            }
        },
        {
            "circle": {
                "id": "55642",
                "latitude": 60.7885,
                "longitude": 11.0595,
                "radius": 339.78122172335526
            },
            "marker": {
                "city": "Gothenburg",
                "code_country": "SE",
                "id": "GSE",
                "latitude": 57.7747001648,
                "longitude": 11.8704004288
            }
        },
        {
            "circle": {
                "id": "62779",
                "latitude": 61.4515,
                "longitude": 23.9005,
                "radius": 362.8665229965769
            },
            "marker": {
                "city": "Helsinki",
                "code_country": "FI",
                "id": "FICIX",
                "latitude": 60.1733244,
                "longitude": 24.9410248
            }
        },
        {
            "circle": {
                "id": "14730",
                "latitude": 55.8475,
                "longitude": 37.5185,
                "radius": 365.9092192133967
            },
            "marker": {
                "city": "Moscow",
                "code_country": "RU",
                "id": "DME",
                "latitude": 55.4087982178,
                "longitude": 37.9062995911
            }
        },
        {
            "circle": {
                "id": "61223",
                "latitude": 33.6785,
                "longitude": 73.0485,
                "radius": 367.4407247636401
            },
            "marker": {
                "city": "Lahore",
                "code_country": "PK",
                "id": "LHE",
                "latitude": 31.5216007233,
                "longitude": 74.4036026001
            }
        },
        {
            "circle": {
                "id": "30219",
                "latitude": -37.7385,
                "longitude": 175.2575,
                "radius": 468.6905980401934
            },
            "marker": {
                "city": "Wellington",
                "code_country": "NZ",
                "id": "WEL",
                "latitude": -41.3272018433,
                "longitude": 174.804992676
            }
        },
        {
            "circle": {
                "id": "62716",
                "latitude": -34.9795,
                "longitude": -71.2425,
                "radius": 540.4024332328953
            },
            "marker": {
                "city": "Santiago",
                "code_country": "CL",
                "id": "SCL",
                "latitude": -33.3930015564,
                "longitude": -70.7857971191
            }
        },
        {
            "circle": {
                "id": "1004594",
                "latitude": 35.6095,
                "longitude": 140.1115,
                "radius": 620.6286700806178
            },
            "marker": {
                "city": "Tokyo",
                "code_country": "JP",
                "id": "TOK",
                "latitude": 35.673343,
                "longitude": 139.710388
            }
        },
        {
            "circle": {
                "id": "1001667",
                "latitude": 38.7505,
                "longitude": -9.0995,
                "radius": 866.7353992005072
            },
            "marker": {
                "city": "Madrid",
                "code_country": "ES",
                "id": "TOJ",
                "latitude": 40.4967002869,
                "longitude": -3.4458699226
            }
        },
        {
            "circle": {
                "id": "62583",
                "latitude": 30.2685,
                "longitude": -97.7285,
                "radius": 986.8692388528565
            },
            "marker": {
                "city": "Houston",
                "code_country": "US",
                "id": "HOU",
                "latitude": 29.64539909,
                "longitude": -95.27890015
            }
        },
        {
            "circle": {
                "id": "62388",
                "latitude": 26.4415,
                "longitude": 50.1115,
                "radius": 1028.997278165486
            },
            "marker": {
                "city": "Tehran",
                "code_country": "IR",
                "id": "IKA",
                "latitude": 35.4160995483,
                "longitude": 51.1521987915
            }
        },
        {
            "circle": {
                "id": "60131",
                "latitude": 36.8575,
                "longitude": 42.9885,
                "radius": 338.190645224973
            },
            "marker": {
                "city": "Tabriz",
                "code_country": "IR",
                "id": "TBZ",
                "latitude": 38.1338996887,
                "longitude": 46.2350006104
            }
        },
        {
            "circle": {
                "id": "13771",
                "latitude": -1.2925,
                "longitude": 36.8205,
                "radius": 1268.9734487511557
            },
            "marker": {
                "city": "Addis Ababa",
                "code_country": "ET",
                "id": "ADD",
                "latitude": 8.9778900147,
                "longitude": 38.7993011475
            }
        },
        {
            "circle": {
                "id": "25200",
                "latitude": -33.9525,
                "longitude": 18.8475,
                "radius": 2034.534613101191
            },
            "marker": {
                "city": "Johannesburg",
                "code_country": "ZA",
                "id": "JNB",
                "latitude": -26.1392002106,
                "longitude": 28.2460002899
            }
        },
        {
            "circle": {
                "id": "61617",
                "latitude": 10.6605,
                "longitude": -71.6225,
                "radius": 3161.366201456773
            },
            "marker": {
                "city": "Mexico City",
                "code_country": "MX",
                "id": "MEX",
                "latitude": 19.4363002777,
                "longitude": -99.0720977783
            }
        }
    ],
    "markerGT": []
}