{
    "target": "192.33.4.12",
    "measurement_filepath": "datasets/measurements/campaigns/192.33.4.12_North-Central-section_20230425/192.33.4.12_North-Central-section_1_52641149.json",
    "probes_filepath": "datasets/probes_section/North-Central-section_1.json",
    "alpha": 1,
    "threshold": 10.0,
    "noise": 0,
    "num_anycast_instances": 8,
    "anycast_instances": [
        {
            "marker": {
                "id": "DEX",
                "latitude": 50.121212,
                "longitude": 8.6365638,
                "city": "Frankfurt-am-Main",
                "country_code": "DE"
            },
            "circle": {
                "id": "6413",
                "latitude": 50.1385,
                "longitude": 8.7375,
                "radius": 33.5432235095727
            }
        },
        {
            "marker": {
                "id": "WIE",
                "latitude": 48.1102981567,
                "longitude": 16.5697002411,
                "city": "Vienna",
                "country_code": "AT"
            },
            "circle": {
                "id": "6886",
                "latitude": 48.1905,
                "longitude": 16.3515,
                "radius": 98.98659800415751
            }
        },
        {
            "marker": {
                "id": "PAR",
                "latitude": 49.0127983093,
                "longitude": 2.5499999523,
                "city": "Paris",
                "country_code": "FR"
            },
            "circle": {
                "id": "1005603",
                "latitude": 49.2285,
                "longitude": 1.3375,
                "radius": 184.04444867943963
            }
        },
        {
            "marker": {
                "id": "ECV",
                "latitude": 40.3707008362,
                "longitude": -3.7851400375,
                "city": "Madrid",
                "country_code": "ES"
            },
            "circle": {
                "id": "60374",
                "latitude": 40.0995,
                "longitude": -4.0495,
                "radius": 192.34786034715722
            }
        },
        {
            "marker": {
                "id": "TRN",
                "latitude": 45.2008018494,
                "longitude": 7.6496300697,
                "city": "Torino",
                "country_code": "IT"
            },
            "circle": {
                "id": "12015",
                "latitude": 45.7195,
                "longitude": 4.8575,
                "radius": 297.455126101203
            }
        },
        {
            "marker": {
                "id": "FEZ",
                "latitude": 33.9272994995,
                "longitude": -4.9779601097,
                "city": "Fes",
                "country_code": "MA"
            },
            "circle": {
                "id": "29491",
                "latitude": 36.7775,
                "longitude": -4.1085,
                "radius": 376.28092113882695
            }
        },
        {
            "marker": {
                "id": "BIX",
                "latitude": 47.4812134,
                "longitude": 19.1303031,
                "city": "Budapest",
                "country_code": "HU"
            },
            "circle": {
                "id": "61257",
                "latitude": 44.8105,
                "longitude": 20.3895,
                "radius": 411.7588852553484
            }
        },
        {
            "marker": {
                "id": "ZAZ",
                "latitude": 41.6661987305,
                "longitude": -1.0415500402,
                "city": "Zaragoza",
                "country_code": "ES"
            },
            "circle": {
                "id": "1004918",
                "latitude": 44.8215,
                "longitude": -0.5525,
                "radius": 441.97175931786774
            }
        }
    ]
}