{
    "target": "104.16.123.96",
    "measurement_filepath": "datasets/measurements/campaigns/104.16.123.96_Europe-countries_20230413/104.16.123.96_Europe_countries-5_52200263.json",
    "probes_filepath": "datasets/probes_sets/Europe_countries_5.json",
    "alpha": 1,
    "threshold": 30.0,
    "noise": 0,
    "num_anycast_instances": 17,
    "anycast_instances": [
        {
            "marker": {
                "id": "VNO",
                "latitude": 54.6341018677,
                "longitude": 25.2858009338,
                "city": "Vilnius",
                "country_code": "LT"
            },
            "circle": {
                "id": "16603",
                "latitude": 54.6885,
                "longitude": 25.2775,
                "radius": 49.39544240468618
            }
        },
        {
            "marker": {
                "id": "ZRH",
                "latitude": 47.4646987915,
                "longitude": 8.5491695404,
                "city": "Zurich",
                "country_code": "CH"
            },
            "circle": {
                "id": "1002086",
                "latitude": 47.3805,
                "longitude": 8.5415,
                "radius": 52.11102954808947
            }
        },
        {
            "marker": {
                "id": "RIX",
                "latitude": 56.9235992432,
                "longitude": 23.9710998535,
                "city": "Riga",
                "country_code": "LV"
            },
            "circle": {
                "id": "23076",
                "latitude": 56.9405,
                "longitude": 24.1205,
                "radius": 70.60191278652105
            }
        },
        {
            "marker": {
                "id": "BQH",
                "latitude": 51.3307991028,
                "longitude": 0.0324999988,
                "city": "London",
                "country_code": "GB"
            },
            "circle": {
                "id": "15634",
                "latitude": 51.5095,
                "longitude": -0.0015,
                "radius": 98.32886912985592
            }
        },
        {
            "marker": {
                "id": "BIX",
                "latitude": 47.4812134,
                "longitude": 19.1303031,
                "city": "Budapest",
                "country_code": "HU"
            },
            "circle": {
                "id": "22945",
                "latitude": 47.4695,
                "longitude": 19.0495,
                "radius": 105.04915098606249
            }
        },
        {
            "marker": {
                "id": "ARN",
                "latitude": 59.6519012451,
                "longitude": 17.9186000824,
                "city": "Stockholm",
                "country_code": "SE"
            },
            "circle": {
                "id": "51501",
                "latitude": 59.3275,
                "longitude": 18.0675,
                "radius": 125.94892579408817
            }
        },
        {
            "marker": {
                "id": "FICIX",
                "latitude": 60.1733244,
                "longitude": 24.9410248,
                "city": "Helsinki",
                "country_code": "FI"
            },
            "circle": {
                "id": "705",
                "latitude": 59.4395,
                "longitude": 24.7075,
                "radius": 138.75026098256842
            }
        },
        {
            "marker": {
                "id": "ATH",
                "latitude": 37.9364013672,
                "longitude": 23.9444999695,
                "city": "Athens",
                "country_code": "GR"
            },
            "circle": {
                "id": "12993",
                "latitude": 38.0385,
                "longitude": 23.7515,
                "radius": 139.10271435259867
            }
        },
        {
            "marker": {
                "id": "SOF",
                "latitude": 42.6966934204,
                "longitude": 23.4114360809,
                "city": "Sofia",
                "country_code": "BG"
            },
            "circle": {
                "id": "1004017",
                "latitude": 42.7005,
                "longitude": 23.3175,
                "radius": 158.53764798590984
            }
        },
        {
            "marker": {
                "id": "CPH",
                "latitude": 55.6179008484,
                "longitude": 12.6560001373,
                "city": "Copenhagen",
                "country_code": "DK"
            },
            "circle": {
                "id": "11289",
                "latitude": 55.7115,
                "longitude": 12.5715,
                "radius": 161.20767456497236
            }
        },
        {
            "marker": {
                "id": "KEF",
                "latitude": 63.9850006104,
                "longitude": -22.6056003571,
                "city": "Reykjav\u00edk",
                "country_code": "IS"
            },
            "circle": {
                "id": "6740",
                "latitude": 64.1475,
                "longitude": -21.9105,
                "radius": 174.1197554542204
            }
        },
        {
            "marker": {
                "id": "ZAG",
                "latitude": 45.7429008484,
                "longitude": 16.0687999725,
                "city": "Zagreb",
                "country_code": "HR"
            },
            "circle": {
                "id": "13593",
                "latitude": 46.3085,
                "longitude": 16.3415,
                "radius": 201.03658184937436
            }
        },
        {
            "marker": {
                "id": "PAR",
                "latitude": 49.0127983093,
                "longitude": 2.5499999523,
                "city": "Paris",
                "country_code": "FR"
            },
            "circle": {
                "id": "15817",
                "latitude": 50.8505,
                "longitude": 4.4575,
                "radius": 282.145924440975
            }
        },
        {
            "marker": {
                "id": "NIX",
                "latitude": 60.193901062,
                "longitude": 11.100399971,
                "city": "Oslo",
                "country_code": "NO"
            },
            "circle": {
                "id": "54513",
                "latitude": 59.0485,
                "longitude": 10.1175,
                "radius": 350.21399926175525
            }
        },
        {
            "marker": {
                "id": "CKL",
                "latitude": 55.8782997131,
                "longitude": 38.0616989136,
                "city": "Moscow",
                "country_code": "RU"
            },
            "circle": {
                "id": "1001634",
                "latitude": 56.0495,
                "longitude": 40.2785,
                "radius": 414.34078941923684
            }
        },
        {
            "marker": {
                "id": "ECV",
                "latitude": 40.3707008362,
                "longitude": -3.7851400375,
                "city": "Madrid",
                "country_code": "ES"
            },
            "circle": {
                "id": "1002246",
                "latitude": 42.5105,
                "longitude": 1.5395,
                "radius": 564.5537728189394
            }
        },
        {
            "marker": {
                "id": "CIA",
                "latitude": 41.7994003296,
                "longitude": 12.5949001312,
                "city": "Rome",
                "country_code": "IT"
            },
            "circle": {
                "id": "22897",
                "latitude": 35.9405,
                "longitude": 14.3815,
                "radius": 711.9423956932737
            }
        }
    ]
}