{
    "target": "192.33.4.12",
    "probes_filepath": "datasets/probes_sets/North-Central_1000.json",
    "alpha": 0.1,
    "threshold": -1,
    "noise": 0,
    "results_filepath": "datasets/results/campaigns/192.33.4.12_North-Central_20230410_alpha_light-factor_0.18/192.33.4.12_North-Central_1000_52070052_0.1_-1_0.json",
    "gt_filepath": "datasets/ground-truth/root_servers/root_servers_C.json",
    "statistics": {
        "TP": 4,
        "FP": 32,
        "TN": 0,
        "FN": 0,
        "accuracy": 0.1111111111111111,
        "precision": 0.1111111111111111,
        "recall": 1.0,
        "f1": 0.19999999999999998,
        "OT": 0,
        "OF": 4
    },
    "instances": [
        {
            "country_code": "AT",
            "city": "Salzburg",
            "latitude": 47.7933006287,
            "longitude": 13.0043001175,
            "type": "FP"
        },
        {
            "country_code": "AT",
            "city": "Vienna",
            "latitude": 48.1102981567,
            "longitude": 16.5697002411,
            "type": "FP"
        },
        {
            "country_code": "BE",
            "city": "Brussels",
            "latitude": 50.9014015198,
            "longitude": 4.4844398499,
            "type": "FP"
        },
        {
            "country_code": "BE",
            "city": "Li\u00e8ge",
            "latitude": 50.6374015808,
            "longitude": 5.4432201385,
            "type": "FP"
        },
        {
            "country_code": "BY",
            "city": "Minsk",
            "latitude": 53.8644981384,
            "longitude": 27.5396995544,
            "type": "FP"
        },
        {
            "country_code": "DE",
            "city": "Berlin",
            "latitude": 52.3800010681,
            "longitude": 13.5225000381,
            "type": "FP"
        },
        {
            "country_code": "DE",
            "city": "Dresden",
            "latitude": 51.1328010559,
            "longitude": 13.76720047,
            "type": "FP"
        },
        {
            "country_code": "DE",
            "city": "Egelsbach",
            "latitude": 49.9599990845,
            "longitude": 8.6458330154,
            "type": "TP"
        },
        {
            "country_code": "DE",
            "city": "Frankfurt-am-Main",
            "latitude": 50.121212,
            "longitude": 8.6365638,
            "type": "FP"
        },
        {
            "country_code": "DE",
            "city": "Hamburg",
            "latitude": 53.6304016113,
            "longitude": 9.9882297516,
            "type": "FP"
        },
        {
            "country_code": "DE",
            "city": "Kassel",
            "latitude": 51.4083328247,
            "longitude": 9.3774995804,
            "type": "FP"
        },
        {
            "country_code": "DE",
            "city": "Manching",
            "latitude": 48.7156982422,
            "longitude": 11.5340003967,
            "type": "FP"
        },
        {
            "country_code": "DE",
            "city": "Saarbr\u00fccken",
            "latitude": 49.2145996094,
            "longitude": 7.1095099449,
            "type": "FP"
        },
        {
            "country_code": "DE",
            "city": "Stuttgart",
            "latitude": 48.6898994446,
            "longitude": 9.2219600677,
            "type": "FP"
        },
        {
            "country_code": "DK",
            "city": "Copenhagen",
            "latitude": 55.6179008484,
            "longitude": 12.6560001373,
            "type": "FP"
        },
        {
            "country_code": "ES",
            "city": "Almer\u00eda",
            "latitude": 36.8438987732,
            "longitude": -2.3701000214,
            "type": "FP"
        },
        {
            "country_code": "ES",
            "city": "Madrid",
            "latitude": 40.4967002869,
            "longitude": -3.4458699226,
            "type": "TP"
        },
        {
            "country_code": "ES",
            "city": "Pamplona",
            "latitude": 42.7700004578,
            "longitude": -1.646329999,
            "type": "FP"
        },
        {
            "country_code": "ES",
            "city": "Santander",
            "latitude": 43.4271011353,
            "longitude": -3.8200099468,
            "type": "FP"
        },
        {
            "country_code": "FR",
            "city": "Amiens/Glisy",
            "latitude": 49.8730010986,
            "longitude": 2.3870699406,
            "type": "FP"
        },
        {
            "country_code": "FR",
            "city": "Bourges",
            "latitude": 47.0581016541,
            "longitude": 2.3702800274,
            "type": "FP"
        },
        {
            "country_code": "FR",
            "city": "B\u00e9ziers/Vias",
            "latitude": 43.3235015869,
            "longitude": 3.3538999557,
            "type": "FP"
        },
        {
            "country_code": "FR",
            "city": "Dijon/Longvic",
            "latitude": 47.268901825,
            "longitude": 5.0900001526,
            "type": "FP"
        },
        {
            "country_code": "FR",
            "city": "La Rochelle/\u00cele de R\u00e9",
            "latitude": 46.1791992188,
            "longitude": -1.1952799559,
            "type": "FP"
        },
        {
            "country_code": "FR",
            "city": "Nantes",
            "latitude": 47.1531982422,
            "longitude": -1.610730052,
            "type": "FP"
        },
        {
            "country_code": "FR",
            "city": "Paris",
            "latitude": 48.9693984985,
            "longitude": 2.4413900375,
            "type": "TP"
        },
        {
            "country_code": "GB",
            "city": "Birmingham",
            "latitude": 52.4538993835,
            "longitude": -1.7480299473,
            "type": "FP"
        },
        {
            "country_code": "GB",
            "city": "London",
            "latitude": 51.8746986389,
            "longitude": -0.3683330119,
            "type": "FP"
        },
        {
            "country_code": "GB",
            "city": "London",
            "latitude": 51.1481018066,
            "longitude": -0.1902779937,
            "type": "FP"
        },
        {
            "country_code": "GB",
            "city": "Stornoway",
            "latitude": 58.2155990601,
            "longitude": -6.3311100006,
            "type": "FP"
        },
        {
            "country_code": "HU",
            "city": "Gy\u0151r",
            "latitude": 47.6244010925,
            "longitude": 17.8136005402,
            "type": "FP"
        },
        {
            "country_code": "IR",
            "city": "Tehran",
            "latitude": 35.4160995483,
            "longitude": 51.1521987915,
            "type": "OF"
        },
        {
            "country_code": "IT",
            "city": "Torino",
            "latitude": 45.2008018494,
            "longitude": 7.6496300697,
            "type": "FP"
        },
        {
            "country_code": "KS",
            "city": "Prishtina",
            "latitude": 42.5727996826,
            "longitude": 21.0358009338,
            "type": "OF"
        },
        {
            "country_code": "LV",
            "city": "Riga",
            "latitude": 56.9235992432,
            "longitude": 23.9710998535,
            "type": "FP"
        },
        {
            "country_code": "MA",
            "city": "Tangier",
            "latitude": 35.7268981934,
            "longitude": -5.9168901444,
            "type": "OF"
        },
        {
            "country_code": "RO",
            "city": "Bucharest",
            "latitude": 44.5722007751,
            "longitude": 26.1021995544,
            "type": "FP"
        },
        {
            "country_code": "RU",
            "city": "Voronezh",
            "latitude": 51.814201355,
            "longitude": 39.229598999,
            "type": "FP"
        },
        {
            "country_code": "SK",
            "city": "Bratislava",
            "latitude": 48.1702003479,
            "longitude": 17.2126998901,
            "type": "TP"
        },
        {
            "country_code": "TR",
            "city": "Istanbul",
            "latitude": 40.9768981934,
            "longitude": 28.8145999908,
            "type": "OF"
        }
    ]
}