{
    "target": "192.33.4.12",
    "probes_filepath": "datasets/probes_sets/North-Central_100.json",
    "alpha": 0.0,
    "threshold": -1,
    "noise": 0,
    "results_filepath": "datasets/results/campaigns/192.33.4.12_North-Central_20230410_alpha_light-factor_0.18/192.33.4.12_North-Central_100_52069786_0.0_-1_0.json",
    "gt_filepath": "datasets/ground-truth/root_servers/root_servers_C.json",
    "statistics": {
        "TP": 2,
        "FP": 16,
        "TN": 0,
        "FN": 2,
        "accuracy": 0.1,
        "precision": 0.1111111111111111,
        "recall": 0.5,
        "f1": 0.1818181818181818,
        "OT": 0,
        "OF": 0
    },
    "instances": [
        {
            "country_code": "AT",
            "city": "Klagenfurt am W\u00f6rthersee",
            "latitude": 46.6425018311,
            "longitude": 14.3376998901,
            "type": "FP"
        },
        {
            "country_code": "AT",
            "city": "Salzburg",
            "latitude": 47.7933006287,
            "longitude": 13.0043001175,
            "type": "FP"
        },
        {
            "country_code": "CH",
            "city": "Sion",
            "latitude": 46.2196006775,
            "longitude": 7.3267598152,
            "type": "FP"
        },
        {
            "country_code": "DE",
            "city": "Cottbus",
            "latitude": 51.8894424438,
            "longitude": 14.5319442749,
            "type": "FP"
        },
        {
            "country_code": "DE",
            "city": "Dortmund",
            "latitude": 51.5182991028,
            "longitude": 7.6122398377,
            "type": "FP"
        },
        {
            "country_code": "DE",
            "city": "Frankfurt-am-Main",
            "latitude": 50.0264015198,
            "longitude": 8.543129921,
            "type": "TP"
        },
        {
            "country_code": "DE",
            "city": "L\u00fcbeck",
            "latitude": 53.8054008484,
            "longitude": 10.7192001343,
            "type": "FP"
        },
        {
            "country_code": "DE",
            "city": "Trier",
            "latitude": 49.9726982117,
            "longitude": 6.6925001144,
            "type": "FP"
        },
        {
            "country_code": "ES",
            "city": "Madrid",
            "latitude": 40.4167754,
            "longitude": -3.7037902,
            "type": "FN"
        },
        {
            "country_code": "ES",
            "city": "Pamplona",
            "latitude": 42.7700004578,
            "longitude": -1.646329999,
            "type": "FP"
        },
        {
            "country_code": "ES",
            "city": "Rota",
            "latitude": 36.645198822,
            "longitude": -6.349460125,
            "type": "FP"
        },
        {
            "country_code": "FR",
            "city": "Amiens/Glisy",
            "latitude": 49.8730010986,
            "longitude": 2.3870699406,
            "type": "FP"
        },
        {
            "country_code": "FR",
            "city": "\u00c9vreux/Fauville",
            "latitude": 49.0287017822,
            "longitude": 1.2198599577,
            "type": "TP"
        },
        {
            "country_code": "GB",
            "city": "Yeovil",
            "latitude": 51.0093994141,
            "longitude": -2.6388199329,
            "type": "FP"
        },
        {
            "country_code": "GR",
            "city": "Preveza/Lefkada",
            "latitude": 38.9254989624,
            "longitude": 20.7653007507,
            "type": "FP"
        },
        {
            "country_code": "LT",
            "city": "Panev\u0117\u017eys",
            "latitude": 55.7294006348,
            "longitude": 24.4608001709,
            "type": "FP"
        },
        {
            "country_code": "PL",
            "city": "Gdynia",
            "latitude": 54.57970047,
            "longitude": 18.51720047,
            "type": "FP"
        },
        {
            "country_code": "RO",
            "city": "Suceava",
            "latitude": 47.6875,
            "longitude": 26.3540992737,
            "type": "FP"
        },
        {
            "country_code": "RU",
            "city": "Moscow",
            "latitude": 55.5914993286,
            "longitude": 37.2615013123,
            "type": "FP"
        },
        {
            "country_code": "SK",
            "city": "Bratislava",
            "latitude": 48.1458923,
            "longitude": 17.1071373,
            "type": "FN"
        }
    ]
}