{
    "target": null,
    "probes_filename": "./probes_sets/default_ripe_probes.json",
    "alpha": 0.0,
    "threshold": -1,
    "noise": 0,
    "num_anycast_instances": 16,
    "anycast_intances": [
        {
            "marker": {
                "id": "WMI",
                "latitude": 52.4510993958,
                "longitude": 20.6518001556,
                "city": "Warsaw",
                "code_country": "PL"
            },
            "circle": {
                "id": "1003897",
                "latitude": 52.2305,
                "longitude": 21.0115,
                "radius": 36.03544791536053
            }
        },
        {
            "marker": {
                "id": "LPL",
                "latitude": 53.3335990906,
                "longitude": -2.8497200012,
                "city": "Liverpool",
                "code_country": "GB"
            },
            "circle": {
                "id": "12174",
                "latitude": 53.4795,
                "longitude": -2.2495,
                "radius": 44.86078562961578
            }
        },
        {
            "marker": {
                "id": "STR",
                "latitude": 48.6898994446,
                "longitude": 9.2219600677,
                "city": "Stuttgart",
                "code_country": "DE"
            },
            "circle": {
                "id": "19810",
                "latitude": 48.7375,
                "longitude": 9.0975,
                "radius": 71.18088697103354
            }
        },
        {
            "marker": {
                "id": "TLL",
                "latitude": 59.4132995605,
                "longitude": 24.8327999115,
                "city": "Tallinn",
                "code_country": "EE"
            },
            "circle": {
                "id": "33422",
                "latitude": 60.1785,
                "longitude": 24.8085,
                "radius": 93.78938017371907
            }
        },
        {
            "marker": {
                "id": "XVS",
                "latitude": 50.3258018494,
                "longitude": 3.4612600803,
                "city": "Valenciennes/Denain",
                "code_country": "FR"
            },
            "circle": {
                "id": "53382",
                "latitude": 50.8785,
                "longitude": 4.5015,
                "radius": 99.73769645057564
            }
        },
        {
            "marker": {
                "id": "LED",
                "latitude": 59.8003005981,
                "longitude": 30.2625007629,
                "city": "St Petersburg",
                "code_country": "RU"
            },
            "circle": {
                "id": "14793",
                "latitude": 59.8385,
                "longitude": 30.3115,
                "radius": 111.99299517854735
            }
        },
        {
            "marker": {
                "id": "PVN",
                "latitude": 43.4514007568,
                "longitude": 24.5027999878,
                "city": "Dolna Mitropoliya",
                "code_country": "BG"
            },
            "circle": {
                "id": "16348",
                "latitude": 42.6515,
                "longitude": 23.3595,
                "radius": 128.9995112861184
            }
        },
        {
            "marker": {
                "id": "QGY",
                "latitude": 47.6244010925,
                "longitude": 17.8136005402,
                "city": "Gy\u0151r",
                "code_country": "HU"
            },
            "circle": {
                "id": "60695",
                "latitude": 47.4795,
                "longitude": 19.0615,
                "radius": 137.5697295632533
            }
        },
        {
            "marker": {
                "id": "DME",
                "latitude": 55.4087982178,
                "longitude": 37.9062995911,
                "city": "Moscow",
                "code_country": "RU"
            },
            "circle": {
                "id": "54054",
                "latitude": 55.6995,
                "longitude": 37.6895,
                "radius": 141.85488800979078
            }
        },
        {
            "marker": {
                "id": "KLV",
                "latitude": 50.202999115,
                "longitude": 12.9149999619,
                "city": "Karlovy Vary",
                "code_country": "CZ"
            },
            "circle": {
                "id": "1003402",
                "latitude": 50.1585,
                "longitude": 14.7475,
                "radius": 150.24503358024538
            }
        },
        {
            "marker": {
                "id": "BEY",
                "latitude": 33.8208999634,
                "longitude": 35.4883995056,
                "city": "Beirut",
                "code_country": "LB"
            },
            "circle": {
                "id": "53454",
                "latitude": 32.2195,
                "longitude": 35.2295,
                "radius": 200.0424345569079
            }
        },
        {
            "marker": {
                "id": "PSA",
                "latitude": 43.6838989258,
                "longitude": 10.3927001953,
                "city": "Pisa",
                "code_country": "IT"
            },
            "circle": {
                "id": "1003980",
                "latitude": 45.4575,
                "longitude": 9.1815,
                "radius": 219.94697729712564
            }
        },
        {
            "marker": {
                "id": "UME",
                "latitude": 63.7918014526,
                "longitude": 20.2828006744,
                "city": "Ume\u00e5",
                "code_country": "SE"
            },
            "circle": {
                "id": "14699",
                "latitude": 60.6215,
                "longitude": 16.7815,
                "radius": 411.4894081262724
            }
        },
        {
            "marker": {
                "id": "ANG",
                "latitude": 45.7291984558,
                "longitude": 0.2214560062,
                "city": "Angoul\u00eame/Brie/Champniers",
                "code_country": "FR"
            },
            "circle": {
                "id": "61052",
                "latitude": 41.9985,
                "longitude": 2.2795,
                "radius": 447.16263969352957
            }
        },
        {
            "marker": {
                "id": "RWN",
                "latitude": 50.6071014404,
                "longitude": 26.1415996552,
                "city": "Rivne",
                "code_country": "UA"
            },
            "circle": {
                "id": "54687",
                "latitude": 46.4505,
                "longitude": 30.7515,
                "radius": 578.5673937594572
            }
        },
        {
            "marker": {
                "id": "AMX",
                "latitude": 52.3086013794,
                "longitude": 4.7638897896,
                "city": "Amsterdam",
                "code_country": "NL"
            },
            "circle": {
                "id": "53312",
                "latitude": 57.7185,
                "longitude": 11.9175,
                "radius": 756.0514320112663
            }
        }
    ]
}