{
    "target": null,
    "probes_filename": "./probes_sets/default_ripe_probes.json",
    "alpha": 0.9,
    "threshold": -1,
    "noise": 0,
    "num_anycast_instances": 57,
    "anycast_intances": [
        {
            "marker": {
                "id": "MKC",
                "latitude": 39.1231994629,
                "longitude": -94.5927963257,
                "city": "Kansas City",
                "code_country": "US"
            },
            "circle": {
                "id": "1003142",
                "latitude": 39.0985,
                "longitude": -94.5805,
                "radius": 23.64563704504934
            }
        },
        {
            "marker": {
                "id": "NoCity",
                "latitude": 25.1285,
                "longitude": 56.3305,
                "city": "N/A",
                "code_country": "N/A"
            },
            "circle": {
                "id": "1001172",
                "latitude": 25.1285,
                "longitude": 56.3305,
                "radius": 32.80804404267434
            }
        },
        {
            "marker": {
                "id": "GML",
                "latitude": 50.6035003662,
                "longitude": 30.1919002533,
                "city": "Kiev",
                "code_country": "UA"
            },
            "circle": {
                "id": "29596",
                "latitude": 50.4005,
                "longitude": 30.5715,
                "radius": 52.9002529169625
            }
        },
        {
            "marker": {
                "id": "VAR",
                "latitude": 43.2321014404,
                "longitude": 27.8250999451,
                "city": "Varna",
                "code_country": "BG"
            },
            "circle": {
                "id": "1003038",
                "latitude": 43.2215,
                "longitude": 27.9285,
                "radius": 56.70426419159803
            }
        },
        {
            "marker": {
                "id": "BCN",
                "latitude": 41.2971000671,
                "longitude": 2.0784599781,
                "city": "Barcelona",
                "code_country": "ES"
            },
            "circle": {
                "id": "32626",
                "latitude": 41.3905,
                "longitude": 2.1085,
                "radius": 58.51771271467762
            }
        },
        {
            "marker": {
                "id": "OTP",
                "latitude": 44.5722007751,
                "longitude": 26.1021995544,
                "city": "Bucharest",
                "code_country": "RO"
            },
            "circle": {
                "id": "1004058",
                "latitude": 44.4115,
                "longitude": 26.0395,
                "radius": 59.270053721941444
            }
        },
        {
            "marker": {
                "id": "TOJ",
                "latitude": 40.4967002869,
                "longitude": -3.4458699226,
                "city": "Madrid",
                "code_country": "ES"
            },
            "circle": {
                "id": "1003888",
                "latitude": 40.4215,
                "longitude": -3.6985,
                "radius": 59.29352431569276
            }
        },
        {
            "marker": {
                "id": "CGK",
                "latitude": -6.1255698204,
                "longitude": 106.65599823,
                "city": "Jakarta",
                "code_country": "ID"
            },
            "circle": {
                "id": "1003499",
                "latitude": -6.1785,
                "longitude": 106.8215,
                "radius": 61.54108020723159
            }
        },
        {
            "marker": {
                "id": "HYD",
                "latitude": 17.2313175201,
                "longitude": 78.4298553467,
                "city": "Hyderabad",
                "code_country": "IN"
            },
            "circle": {
                "id": "1000458",
                "latitude": 17.4115,
                "longitude": 78.4495,
                "radius": 62.37083472749868
            }
        },
        {
            "marker": {
                "id": "ADW",
                "latitude": 38.810798645,
                "longitude": -76.8669967651,
                "city": "Camp Springs",
                "code_country": "US"
            },
            "circle": {
                "id": "1002633",
                "latitude": 39.0385,
                "longitude": -77.4915,
                "radius": 66.36024396958157
            }
        },
        {
            "marker": {
                "id": "RIX",
                "latitude": 56.9235992432,
                "longitude": 23.9710998535,
                "city": "Riga",
                "code_country": "LV"
            },
            "circle": {
                "id": "23076",
                "latitude": 56.9405,
                "longitude": 24.1205,
                "radius": 68.56855071694802
            }
        },
        {
            "marker": {
                "id": "AKL",
                "latitude": -37.0080986023,
                "longitude": 174.792007446,
                "city": "Auckland",
                "code_country": "NZ"
            },
            "circle": {
                "id": "25098",
                "latitude": -36.8485,
                "longitude": 174.7715,
                "radius": 69.82363578700263
            }
        },
        {
            "marker": {
                "id": "SJC",
                "latitude": 37.3625984192,
                "longitude": -121.9290008545,
                "city": "San Jose",
                "code_country": "US"
            },
            "circle": {
                "id": "54002",
                "latitude": 37.4685,
                "longitude": -121.9225,
                "radius": 78.61741640041579
            }
        },
        {
            "marker": {
                "id": "SIN",
                "latitude": 1.3501900434,
                "longitude": 103.9940032959,
                "city": "Singapore",
                "code_country": "SG"
            },
            "circle": {
                "id": "7028",
                "latitude": 1.3515,
                "longitude": 103.8185,
                "radius": 78.91563100337369
            }
        },
        {
            "marker": {
                "id": "KIV",
                "latitude": 46.9277000427,
                "longitude": 28.9309997559,
                "city": "Chi\u015fin\u0103u",
                "code_country": "MD"
            },
            "circle": {
                "id": "25464",
                "latitude": 46.9695,
                "longitude": 28.8505,
                "radius": 90.64116490095854
            }
        },
        {
            "marker": {
                "id": "PRG",
                "latitude": 50.1007995605,
                "longitude": 14.2600002289,
                "city": "Prague",
                "code_country": "CZ"
            },
            "circle": {
                "id": "50387",
                "latitude": 50.0705,
                "longitude": 14.4615,
                "radius": 92.31684695567434
            }
        },
        {
            "marker": {
                "id": "FRA",
                "latitude": 50.0264015198,
                "longitude": 8.543129921,
                "city": "Frankfurt-am-Main",
                "code_country": "DE"
            },
            "circle": {
                "id": "20012",
                "latitude": 50.1185,
                "longitude": 8.7375,
                "radius": 101.62076782738814
            }
        },
        {
            "marker": {
                "id": "AMX",
                "latitude": 52.3086013794,
                "longitude": 4.7638897896,
                "city": "Amsterdam",
                "code_country": "NL"
            },
            "circle": {
                "id": "6626",
                "latitude": 52.2905,
                "longitude": 4.9485,
                "radius": 103.6853911499829
            }
        },
        {
            "marker": {
                "id": "KIM",
                "latitude": -28.8027992249,
                "longitude": 24.7651996613,
                "city": "Kimberley",
                "code_country": "ZA"
            },
            "circle": {
                "id": "1001520",
                "latitude": -29.0025,
                "longitude": 23.9985,
                "radius": 104.67736889176646
            }
        },
        {
            "marker": {
                "id": "LTN",
                "latitude": 51.8746986389,
                "longitude": -0.3683330119,
                "city": "London",
                "code_country": "GB"
            },
            "circle": {
                "id": "33491",
                "latitude": 51.5075,
                "longitude": -0.0085,
                "radius": 109.28026789740788
            }
        },
        {
            "marker": {
                "id": "NIX",
                "latitude": 60.193901062,
                "longitude": 11.100399971,
                "city": "Oslo",
                "code_country": "NO"
            },
            "circle": {
                "id": "12876",
                "latitude": 59.9405,
                "longitude": 11.1605,
                "radius": 111.35090679235067
            }
        },
        {
            "marker": {
                "id": "LAX",
                "latitude": 33.94250107,
                "longitude": -118.4079971,
                "city": "Los Angeles",
                "code_country": "US"
            },
            "circle": {
                "id": "6697",
                "latitude": 34.0505,
                "longitude": -118.2385,
                "radius": 115.94364835615853
            }
        },
        {
            "marker": {
                "id": "STR",
                "latitude": 48.6898994446,
                "longitude": 9.2219600677,
                "city": "Stuttgart",
                "code_country": "DE"
            },
            "circle": {
                "id": "22109",
                "latitude": 48.7815,
                "longitude": 9.1875,
                "radius": 117.21786491859869
            }
        },
        {
            "marker": {
                "id": "TAE",
                "latitude": 35.8941001892,
                "longitude": 128.658996582,
                "city": "Daegu",
                "code_country": "KR"
            },
            "circle": {
                "id": "1000049",
                "latitude": 35.9115,
                "longitude": 127.7695,
                "radius": 120.77277232846183
            }
        },
        {
            "marker": {
                "id": "CKL",
                "latitude": 55.8782997131,
                "longitude": 38.0616989136,
                "city": "Moscow",
                "code_country": "RU"
            },
            "circle": {
                "id": "30097",
                "latitude": 55.6505,
                "longitude": 37.5315,
                "radius": 122.89764999047695
            }
        },
        {
            "marker": {
                "id": "PER",
                "latitude": -31.9402999878,
                "longitude": 115.9670028687,
                "city": "Perth",
                "code_country": "AU"
            },
            "circle": {
                "id": "29530",
                "latitude": -31.9925,
                "longitude": 115.7785,
                "radius": 124.09938383692038
            }
        },
        {
            "marker": {
                "id": "SXF",
                "latitude": 52.3800010681,
                "longitude": 13.5225000381,
                "city": "Berlin",
                "code_country": "DE"
            },
            "circle": {
                "id": "7156",
                "latitude": 52.5005,
                "longitude": 13.3695,
                "radius": 126.53470447846972
            }
        },
        {
            "marker": {
                "id": "PAR",
                "latitude": 49.0127983093,
                "longitude": 2.5499999523,
                "city": "Paris",
                "code_country": "FR"
            },
            "circle": {
                "id": "33869",
                "latitude": 48.8715,
                "longitude": 2.3605,
                "radius": 127.72509749179802
            }
        },
        {
            "marker": {
                "id": "RKE",
                "latitude": 55.5856018066,
                "longitude": 12.1314001083,
                "city": "Copenhagen",
                "code_country": "DK"
            },
            "circle": {
                "id": "54197",
                "latitude": 55.6805,
                "longitude": 12.5715,
                "radius": 130.0334008024579
            }
        },
        {
            "marker": {
                "id": "BOM",
                "latitude": 19.0886993408,
                "longitude": 72.8678970337,
                "city": "Mumbai",
                "code_country": "IN"
            },
            "circle": {
                "id": "1004196",
                "latitude": 19.0705,
                "longitude": 72.8915,
                "radius": 141.52659554509276
            }
        },
        {
            "marker": {
                "id": "DAC",
                "latitude": 23.843347,
                "longitude": 90.397783,
                "city": "Dhaka",
                "code_country": "BD"
            },
            "circle": {
                "id": "51361",
                "latitude": 23.7775,
                "longitude": 90.4205,
                "radius": 158.86209442894275
            }
        },
        {
            "marker": {
                "id": "SOF",
                "latitude": 42.6966934204,
                "longitude": 23.4114360809,
                "city": "Sofia",
                "code_country": "BG"
            },
            "circle": {
                "id": "4500",
                "latitude": 42.7075,
                "longitude": 23.3075,
                "radius": 160.7897402106947
            }
        },
        {
            "marker": {
                "id": "LIS",
                "latitude": 38.7812995911,
                "longitude": -9.1359195709,
                "city": "Lisbon",
                "code_country": "PT"
            },
            "circle": {
                "id": "32589",
                "latitude": 38.6615,
                "longitude": -9.0685,
                "radius": 179.4386061852171
            }
        },
        {
            "marker": {
                "id": "YMX",
                "latitude": 45.6795005798,
                "longitude": -74.0386962891,
                "city": "Montr\u00e9al",
                "code_country": "CA"
            },
            "circle": {
                "id": "1004966",
                "latitude": 45.8905,
                "longitude": -72.4995,
                "radius": 181.01024842309408
            }
        },
        {
            "marker": {
                "id": "ATL",
                "latitude": 33.6366996765,
                "longitude": -84.4281005859,
                "city": "Atlanta",
                "code_country": "US"
            },
            "circle": {
                "id": "1004130",
                "latitude": 33.7775,
                "longitude": -84.4015,
                "radius": 183.8815501359651
            }
        },
        {
            "marker": {
                "id": "ARN",
                "latitude": 59.6519012451,
                "longitude": 17.9186000824,
                "city": "Stockholm",
                "code_country": "SE"
            },
            "circle": {
                "id": "61033",
                "latitude": 59.2185,
                "longitude": 18.1485,
                "radius": 201.8353709644401
            }
        },
        {
            "marker": {
                "id": "BSR",
                "latitude": 30.5491008759,
                "longitude": 47.6621017456,
                "city": "Basrah",
                "code_country": "IQ"
            },
            "circle": {
                "id": "60086",
                "latitude": 30.5305,
                "longitude": 47.7715,
                "radius": 214.10053128642497
            }
        },
        {
            "marker": {
                "id": "HKX",
                "latitude": 22.308889,
                "longitude": 113.914722,
                "city": "Hong Kong",
                "code_country": "HK"
            },
            "circle": {
                "id": "12214",
                "latitude": 22.3695,
                "longitude": 114.1175,
                "radius": 226.13483169256185
            }
        },
        {
            "marker": {
                "id": "GRU",
                "latitude": -23.4355564117,
                "longitude": -46.4730567932,
                "city": "S\u00e3o Paulo",
                "code_country": "BR"
            },
            "circle": {
                "id": "1003557",
                "latitude": -23.4895,
                "longitude": -46.7805,
                "radius": 236.86158334849407
            }
        },
        {
            "marker": {
                "id": "YKZ",
                "latitude": 43.8622016907,
                "longitude": -79.3700027466,
                "city": "Toronto",
                "code_country": "CA"
            },
            "circle": {
                "id": "62653",
                "latitude": 43.6485,
                "longitude": -79.3805,
                "radius": 241.04743554331904
            }
        },
        {
            "marker": {
                "id": "MXP",
                "latitude": 45.6305999756,
                "longitude": 8.7281103134,
                "city": "Milan",
                "code_country": "IT"
            },
            "circle": {
                "id": "33560",
                "latitude": 45.0375,
                "longitude": 9.7105,
                "radius": 246.83826216378554
            }
        },
        {
            "marker": {
                "id": "ATH",
                "latitude": 37.9364013672,
                "longitude": 23.9444999695,
                "city": "Athens",
                "code_country": "GR"
            },
            "circle": {
                "id": "62380",
                "latitude": 37.9675,
                "longitude": 23.7215,
                "radius": 248.4733144511671
            }
        },
        {
            "marker": {
                "id": "BEY",
                "latitude": 33.8208999634,
                "longitude": 35.4883995056,
                "city": "Beirut",
                "code_country": "LB"
            },
            "circle": {
                "id": "1000465",
                "latitude": 32.1795,
                "longitude": 34.9105,
                "radius": 255.9219736411855
            }
        },
        {
            "marker": {
                "id": "YVR",
                "latitude": 49.193901062,
                "longitude": -123.183998108,
                "city": "Vancouver",
                "code_country": "CA"
            },
            "circle": {
                "id": "32604",
                "latitude": 47.5395,
                "longitude": -122.2825,
                "radius": 278.7336156805421
            }
        },
        {
            "marker": {
                "id": "YYC",
                "latitude": 51.113899231,
                "longitude": -114.019996643,
                "city": "Calgary",
                "code_country": "CA"
            },
            "circle": {
                "id": "33116",
                "latitude": 51.0905,
                "longitude": -114.1325,
                "radius": 279.48161758644017
            }
        },
        {
            "marker": {
                "id": "ALA",
                "latitude": 43.3521003723,
                "longitude": 77.0404968262,
                "city": "Almaty",
                "code_country": "KZ"
            },
            "circle": {
                "id": "50859",
                "latitude": 43.2415,
                "longitude": 76.9295,
                "radius": 279.84738410838816
            }
        },
        {
            "marker": {
                "id": "MRU",
                "latitude": -20.4302005768,
                "longitude": 57.6836013794,
                "city": "Port Louis",
                "code_country": "MU"
            },
            "circle": {
                "id": "60737",
                "latitude": -21.0495,
                "longitude": 55.2685,
                "radius": 298.2756462248362
            }
        },
        {
            "marker": {
                "id": "ROM",
                "latitude": 41.799444,
                "longitude": 12.597222,
                "city": "Rome",
                "code_country": "IT"
            },
            "circle": {
                "id": "12280",
                "latitude": 41.9075,
                "longitude": 12.4215,
                "radius": 309.70740323676904
            }
        },
        {
            "marker": {
                "id": "LED",
                "latitude": 59.8003005981,
                "longitude": 30.2625007629,
                "city": "St Petersburg",
                "code_country": "RU"
            },
            "circle": {
                "id": "1000346",
                "latitude": 60.0005,
                "longitude": 30.2895,
                "radius": 392.90286742591314
            }
        },
        {
            "marker": {
                "id": "WMI",
                "latitude": 52.4510993958,
                "longitude": 20.6518001556,
                "city": "Warsaw",
                "code_country": "PL"
            },
            "circle": {
                "id": "25742",
                "latitude": 52.1785,
                "longitude": 21.1795,
                "radius": 401.5706168678382
            }
        },
        {
            "marker": {
                "id": "KEF",
                "latitude": 63.9850006104,
                "longitude": -22.6056003571,
                "city": "Reykjav\u00edk",
                "code_country": "IS"
            },
            "circle": {
                "id": "4371",
                "latitude": 64.1175,
                "longitude": -21.9295,
                "radius": 417.1597260678981
            }
        },
        {
            "marker": {
                "id": "HND",
                "latitude": 35.5522994995,
                "longitude": 139.7799987793,
                "city": "Tokyo",
                "code_country": "JP"
            },
            "circle": {
                "id": "1004241",
                "latitude": 36.0975,
                "longitude": 140.0995,
                "radius": 462.7757125670415
            }
        },
        {
            "marker": {
                "id": "BWU",
                "latitude": -33.9244003296,
                "longitude": 150.9880065918,
                "city": "Sydney",
                "code_country": "AU"
            },
            "circle": {
                "id": "54500",
                "latitude": -32.9325,
                "longitude": 151.7775,
                "radius": 486.3943288444948
            }
        },
        {
            "marker": {
                "id": "SLC",
                "latitude": 40.7883987427,
                "longitude": -111.9779968262,
                "city": "Salt Lake City",
                "code_country": "US"
            },
            "circle": {
                "id": "10637",
                "latitude": 41.0205,
                "longitude": -111.9615,
                "radius": 545.5341109095224
            }
        },
        {
            "marker": {
                "id": "IKA",
                "latitude": 35.4160995483,
                "longitude": 51.1521987915,
                "city": "Tehran",
                "code_country": "IR"
            },
            "circle": {
                "id": "53569",
                "latitude": 40.3615,
                "longitude": 50.0705,
                "radius": 659.3421324661915
            }
        },
        {
            "marker": {
                "id": "SCL",
                "latitude": -33.3930015564,
                "longitude": -70.7857971191,
                "city": "Santiago",
                "code_country": "CL"
            },
            "circle": {
                "id": "21181",
                "latitude": -32.9425,
                "longitude": -71.5485,
                "radius": 733.0970927065395
            }
        },
        {
            "marker": {
                "id": "PVG",
                "latitude": 31.1434001923,
                "longitude": 121.8050003052,
                "city": "Shanghai",
                "code_country": "CN"
            },
            "circle": {
                "id": "1004048",
                "latitude": 34.7715,
                "longitude": 113.7195,
                "radius": 858.3447605503521
            }
        }
    ]
}