{
    "target": "192.5.5.241",
    "probes_filepath": "datasets/probes_sets/North-Central_500.json",
    "alpha": 0.0,
    "threshold": -1,
    "noise": 0,
    "results_filepath": "datasets/results/campaigns/192.5.5.241_North-Central_20230410_alpha_light-factor_0.30/192.5.5.241_North-Central_500_52071302_0.0_-1_0.json",
    "gt_filepath": "datasets/ground-truth/root_servers/root_servers_F.json",
    "statistics": {
        "TP": 33,
        "FP": 13,
        "TN": 0,
        "FN": 21,
        "accuracy": 0.4925373134328358,
        "precision": 0.717391304347826,
        "recall": 0.6111111111111112,
        "f1": 0.6599999999999999,
        "OT": 4,
        "OF": 1
    },
    "instances": [
        {
            "country_code": "AL",
            "city": "Tirana",
            "latitude": 41.4147,
            "longitude": 19.7206,
            "type": "FN"
        },
        {
            "country_code": "AT",
            "city": "Vienna",
            "latitude": 48.110298,
            "longitude": 16.5697,
            "type": "FN"
        },
        {
            "country_code": "BE",
            "city": "Antwerp",
            "latitude": 51.1893997192,
            "longitude": 4.4602799416,
            "type": "TP"
        },
        {
            "country_code": "BG",
            "city": "Sofia",
            "latitude": 42.6966934204,
            "longitude": 23.4114360809,
            "type": "TP"
        },
        {
            "country_code": "BY",
            "city": "Minsk",
            "latitude": 53.9006,
            "longitude": 27.599,
            "type": "FN"
        },
        {
            "country_code": "CH",
            "city": "Zurich",
            "latitude": 47.464699,
            "longitude": 8.54917,
            "type": "FN"
        },
        {
            "country_code": "CZ",
            "city": "Prague",
            "latitude": 50.1007995605,
            "longitude": 14.2600002289,
            "type": "TP"
        },
        {
            "country_code": "DE",
            "city": "Baden-Baden",
            "latitude": 48.7793998718,
            "longitude": 8.0804996491,
            "type": "TP"
        },
        {
            "country_code": "DE",
            "city": "Berlin",
            "latitude": 52.3800010681,
            "longitude": 13.5225000381,
            "type": "TP"
        },
        {
            "country_code": "DE",
            "city": "Hamburg",
            "latitude": 53.5352783203,
            "longitude": 9.8355560303,
            "type": "TP"
        },
        {
            "country_code": "DE",
            "city": "Mainz",
            "latitude": 49.9674987793,
            "longitude": 8.1472215652,
            "type": "TP"
        },
        {
            "country_code": "DE",
            "city": "Manching",
            "latitude": 48.7156982422,
            "longitude": 11.5340003967,
            "type": "FP"
        },
        {
            "country_code": "DE",
            "city": "Munich",
            "latitude": 48.3538017273,
            "longitude": 11.7861003876,
            "type": "TP"
        },
        {
            "country_code": "DE",
            "city": "M\u00f6nchengladbach",
            "latitude": 51.2302780151,
            "longitude": 6.5044441223,
            "type": "TP"
        },
        {
            "country_code": "DK",
            "city": "Copenhagen",
            "latitude": 55.6179008484,
            "longitude": 12.6560001373,
            "type": "FP"
        },
        {
            "country_code": "EE",
            "city": "Tallinn",
            "latitude": 59.4132995605,
            "longitude": 24.8327999115,
            "type": "TP"
        },
        {
            "country_code": "ES",
            "city": "Barcelona",
            "latitude": 41.2971000671,
            "longitude": 2.0784599781,
            "type": "TP"
        },
        {
            "country_code": "ES",
            "city": "Madrid",
            "latitude": 40.4967002869,
            "longitude": -3.4458699226,
            "type": "TP"
        },
        {
            "country_code": "FI",
            "city": "Helsinki",
            "latitude": 60.317199707,
            "longitude": 24.963300705,
            "type": "TP"
        },
        {
            "country_code": "FI",
            "city": "Kauhava",
            "latitude": 63.1271018982,
            "longitude": 23.051399231,
            "type": "FP"
        },
        {
            "country_code": "FR",
            "city": "Bourges",
            "latitude": 47.0581016541,
            "longitude": 2.3702800274,
            "type": "FP"
        },
        {
            "country_code": "FR",
            "city": "Chamb\u00e9ry/Aix-les-Bains",
            "latitude": 45.6380996704,
            "longitude": 5.88022995,
            "type": "TP"
        },
        {
            "country_code": "FR",
            "city": "N\u00eemes/Garons",
            "latitude": 43.7574005127,
            "longitude": 4.4163498878,
            "type": "TP"
        },
        {
            "country_code": "FR",
            "city": "Paris",
            "latitude": 49.0127983093,
            "longitude": 2.5499999523,
            "type": "TP"
        },
        {
            "country_code": "GB",
            "city": "Edinburgh",
            "latitude": 55.950001,
            "longitude": -3.3725,
            "type": "FN"
        },
        {
            "country_code": "GB",
            "city": "Kidlington",
            "latitude": 51.8368988037,
            "longitude": -1.3200000525,
            "type": "FP"
        },
        {
            "country_code": "GB",
            "city": "London",
            "latitude": 51.4706001282,
            "longitude": -0.4619410038,
            "type": "TP"
        },
        {
            "country_code": "GB",
            "city": "Manchester",
            "latitude": 53.353699,
            "longitude": -2.27495,
            "type": "FN"
        },
        {
            "country_code": "GR",
            "city": "Athens",
            "latitude": 37.9908372,
            "longitude": 23.7383394,
            "type": "TP"
        },
        {
            "country_code": "GR",
            "city": "Thessaloniki",
            "latitude": 40.519699,
            "longitude": 22.9709,
            "type": "FN"
        },
        {
            "country_code": "HR",
            "city": "Pula",
            "latitude": 44.8935012817,
            "longitude": 13.9222002029,
            "type": "FP"
        },
        {
            "country_code": "HU",
            "city": "Budapest",
            "latitude": 47.4369010925,
            "longitude": 19.2555999756,
            "type": "TP"
        },
        {
            "country_code": "HU",
            "city": "S\u00e1rmell\u00e9k",
            "latitude": 46.6864013672,
            "longitude": 17.1590995789,
            "type": "FP"
        },
        {
            "country_code": "IE",
            "city": "Dublin",
            "latitude": 53.421299,
            "longitude": -6.27007,
            "type": "FN"
        },
        {
            "country_code": "IE",
            "city": "Killarney",
            "latitude": 52.1809005737,
            "longitude": -9.5237798691,
            "type": "TP"
        },
        {
            "country_code": "IL",
            "city": "Tel Aviv",
            "latitude": 32.0113983154,
            "longitude": 34.8866996765,
            "type": "OT"
        },
        {
            "country_code": "IQ",
            "city": "Arbil",
            "latitude": 36.2375984192,
            "longitude": 43.9631996155,
            "type": "OT"
        },
        {
            "country_code": "IS",
            "city": "Reykjav\u00edk",
            "latitude": 63.9850006104,
            "longitude": -22.6056003571,
            "type": "TP"
        },
        {
            "country_code": "IT",
            "city": "Bergamo",
            "latitude": 45.6739006042,
            "longitude": 9.7041702271,
            "type": "TP"
        },
        {
            "country_code": "IT",
            "city": "Brescia",
            "latitude": 45.4289016724,
            "longitude": 10.3305997849,
            "type": "FP"
        },
        {
            "country_code": "IT",
            "city": "Firenze",
            "latitude": 43.8100013733,
            "longitude": 11.2051000595,
            "type": "FP"
        },
        {
            "country_code": "IT",
            "city": "Lamezia Terme",
            "latitude": 38.9053993225,
            "longitude": 16.2423000336,
            "type": "FP"
        },
        {
            "country_code": "IT",
            "city": "Palermo",
            "latitude": 38.16114,
            "longitude": 13.31546,
            "type": "FN"
        },
        {
            "country_code": "IT",
            "city": "Rome",
            "latitude": 41.799065,
            "longitude": 12.590987,
            "type": "FN"
        },
        {
            "country_code": "IT",
            "city": "Turin",
            "latitude": 45.191456,
            "longitude": 7.643049,
            "type": "FN"
        },
        {
            "country_code": "LT",
            "city": "Kaunas",
            "latitude": 54.9,
            "longitude": 23.916668,
            "type": "FN"
        },
        {
            "country_code": "LT",
            "city": "Vilnius",
            "latitude": 54.6341018677,
            "longitude": 25.2858009338,
            "type": "TP"
        },
        {
            "country_code": "LU",
            "city": "Luxembourg",
            "latitude": 49.6265983582,
            "longitude": 6.211520195,
            "type": "TP"
        },
        {
            "country_code": "LU",
            "city": "Luxembourg City",
            "latitude": 49.626598,
            "longitude": 6.21152,
            "type": "FN"
        },
        {
            "country_code": "LV",
            "city": "Riga",
            "latitude": 56.923599,
            "longitude": 23.9711,
            "type": "FN"
        },
        {
            "country_code": "MD",
            "city": "Chisinau",
            "latitude": 46.9277,
            "longitude": 28.931,
            "type": "FN"
        },
        {
            "country_code": "NL",
            "city": "Lelystad",
            "latitude": 52.4603004456,
            "longitude": 5.5272197723,
            "type": "FP"
        },
        {
            "country_code": "NL",
            "city": "Rotterdam",
            "latitude": 51.9569015503,
            "longitude": 4.4372200966,
            "type": "TP"
        },
        {
            "country_code": "NO",
            "city": "Rygge",
            "latitude": 59.3788986206,
            "longitude": 10.7855997086,
            "type": "TP"
        },
        {
            "country_code": "PL",
            "city": "Bia\u0142a Podlaska",
            "latitude": 52.0057983398,
            "longitude": 23.1436004639,
            "type": "FP"
        },
        {
            "country_code": "PL",
            "city": "Warsaw",
            "latitude": 52.165699,
            "longitude": 20.9671,
            "type": "FN"
        },
        {
            "country_code": "PT",
            "city": "Lisbon",
            "latitude": 38.7812995911,
            "longitude": -9.1359195709,
            "type": "TP"
        },
        {
            "country_code": "RO",
            "city": "Bucharest",
            "latitude": 44.503200531,
            "longitude": 26.1021003723,
            "type": "TP"
        },
        {
            "country_code": "RS",
            "city": "Belgrade",
            "latitude": 44.8184013367,
            "longitude": 20.3090991974,
            "type": "FP"
        },
        {
            "country_code": "RU",
            "city": "Khabarovsk",
            "latitude": 48.528,
            "longitude": 135.188004,
            "type": "FN"
        },
        {
            "country_code": "RU",
            "city": "Krasnoyarsk",
            "latitude": 56.0153,
            "longitude": 92.8932,
            "type": "FN"
        },
        {
            "country_code": "RU",
            "city": "Moscow",
            "latitude": 55.5914993286,
            "longitude": 37.2615013123,
            "type": "TP"
        },
        {
            "country_code": "RU",
            "city": "St Petersburg",
            "latitude": 59.8003005981,
            "longitude": 30.2625007629,
            "type": "TP"
        },
        {
            "country_code": "RU",
            "city": "Tver",
            "latitude": 56.8587,
            "longitude": 35.9176,
            "type": "FN"
        },
        {
            "country_code": "RU",
            "city": "Yekaterinburg",
            "latitude": 56.8431,
            "longitude": 60.6454,
            "type": "FN"
        },
        {
            "country_code": "SE",
            "city": "Gothenburg",
            "latitude": 57.6628,
            "longitude": 12.2798,
            "type": "FN"
        },
        {
            "country_code": "SE",
            "city": "Stockholm",
            "latitude": 59.6519012451,
            "longitude": 17.9186000824,
            "type": "TP"
        },
        {
            "country_code": "SE",
            "city": "\u00c4ngelholm",
            "latitude": 56.2961006165,
            "longitude": 12.8471002579,
            "type": "TP"
        },
        {
            "country_code": "SK",
            "city": "Bratislava",
            "latitude": 48.1702003479,
            "longitude": 17.2126998901,
            "type": "TP"
        },
        {
            "country_code": "TR",
            "city": "I\u011fd\u0131r",
            "latitude": 39.9766273499,
            "longitude": 43.8766479492,
            "type": "OT"
        },
        {
            "country_code": "UA",
            "city": "Dnipropetrovsk",
            "latitude": 48.3572006226,
            "longitude": 35.1006011963,
            "type": "OF"
        },
        {
            "country_code": "UA",
            "city": "Kiev",
            "latitude": 50.4016990662,
            "longitude": 30.4496994019,
            "type": "OT"
        }
    ]
}