{
    "target": "199.7.91.13",
    "probes_filepath": "datasets/probes_section/North-Central-section_2.json",
    "alpha": 0.1,
    "threshold": -1,
    "noise": 0,
    "results_filepath": "datasets/results/campaigns/199.7.91.13_North-Central-section_20230425_alpha_light-factor_0.40/199.7.91.13_North-Central-section_2_52646325_0.1_-1_0.json",
    "gt_filepath": "datasets/ground-truth/root_servers/root_servers_D.json",
    "statistics": {
        "TP": 15,
        "FP": 13,
        "TN": 0,
        "FN": 37,
        "accuracy": 0.23076923076923078,
        "precision": 0.5357142857142857,
        "recall": 0.28846153846153844,
        "f1": 0.37499999999999994,
        "OT": 0,
        "OF": 0
    },
    "instances": [
        {
            "country_code": "AL",
            "city": "Tirana",
            "latitude": 41.3275459,
            "longitude": 19.8186982,
            "type": "FN"
        },
        {
            "country_code": "AM",
            "city": "Gyumri",
            "latitude": 40.7504005432,
            "longitude": 43.8592987061,
            "type": "TP"
        },
        {
            "country_code": "AT",
            "city": "Feldkirch",
            "latitude": 47.2375671,
            "longitude": 9.5981724,
            "type": "FN"
        },
        {
            "country_code": "AT",
            "city": "Klagenfurt",
            "latitude": 46.62794,
            "longitude": 14.30899,
            "type": "FN"
        },
        {
            "country_code": "AT",
            "city": "Salzburg",
            "latitude": 47.80949,
            "longitude": 13.05501,
            "type": "FN"
        },
        {
            "country_code": "AT",
            "city": "Vienna",
            "latitude": 48.1102981567,
            "longitude": 16.5697002411,
            "type": "TP"
        },
        {
            "country_code": "BE",
            "city": "Antwerp",
            "latitude": 51.1893997192,
            "longitude": 4.4602799416,
            "type": "FP"
        },
        {
            "country_code": "BG",
            "city": "Sofia",
            "latitude": 42.6966934204,
            "longitude": 23.4114360809,
            "type": "TP"
        },
        {
            "country_code": "BY",
            "city": "Minsk",
            "latitude": 53.8824996948,
            "longitude": 28.0307006836,
            "type": "FP"
        },
        {
            "country_code": "CH",
            "city": "Geneva",
            "latitude": 46.2043907,
            "longitude": 6.1431577,
            "type": "FN"
        },
        {
            "country_code": "CH",
            "city": "Lausanne",
            "latitude": 46.5196535,
            "longitude": 6.6322734,
            "type": "FN"
        },
        {
            "country_code": "CZ",
            "city": "Prague",
            "latitude": 50.0755381,
            "longitude": 14.4378005,
            "type": "FN"
        },
        {
            "country_code": "DE",
            "city": "Berlin",
            "latitude": 52.3800010681,
            "longitude": 13.5225000381,
            "type": "TP"
        },
        {
            "country_code": "DE",
            "city": "Dortmund",
            "latitude": 51.5142273,
            "longitude": 7.4652789,
            "type": "FN"
        },
        {
            "country_code": "DE",
            "city": "Frankfurt",
            "latitude": 50.1109221,
            "longitude": 8.6821267,
            "type": "FN"
        },
        {
            "country_code": "DE",
            "city": "Hamburg",
            "latitude": 53.5437641,
            "longitude": 10.0099133,
            "type": "FN"
        },
        {
            "country_code": "DE",
            "city": "Siegerland",
            "latitude": 50.7072535,
            "longitude": 8.0761931,
            "type": "FN"
        },
        {
            "country_code": "DE",
            "city": "Stuttgart",
            "latitude": 48.7784485,
            "longitude": 9.1800132,
            "type": "FN"
        },
        {
            "country_code": "ES",
            "city": "Badajoz",
            "latitude": 38.8913002014,
            "longitude": -6.8213300705,
            "type": "FP"
        },
        {
            "country_code": "ES",
            "city": "Barcelona",
            "latitude": 41.3850639,
            "longitude": 2.1734035,
            "type": "FN"
        },
        {
            "country_code": "ES",
            "city": "Madrid",
            "latitude": 40.4967002869,
            "longitude": -3.4458699226,
            "type": "TP"
        },
        {
            "country_code": "ES",
            "city": "Malaga",
            "latitude": 36.7213028,
            "longitude": -4.4216366,
            "type": "FN"
        },
        {
            "country_code": "FI",
            "city": "Helsinki",
            "latitude": 60.317199707,
            "longitude": 24.963300705,
            "type": "TP"
        },
        {
            "country_code": "FI",
            "city": "Tampere",
            "latitude": 61.5,
            "longitude": 23.766667,
            "type": "FN"
        },
        {
            "country_code": "FR",
            "city": "Avignon/Caumont",
            "latitude": 43.9072990417,
            "longitude": 4.9018301964,
            "type": "TP"
        },
        {
            "country_code": "FR",
            "city": "B\u00e2le/Mulhouse",
            "latitude": 47.5895996094,
            "longitude": 7.5299100876,
            "type": "TP"
        },
        {
            "country_code": "FR",
            "city": "Lyon",
            "latitude": 45.764043,
            "longitude": 4.835659,
            "type": "FN"
        },
        {
            "country_code": "FR",
            "city": "Paris",
            "latitude": 49.0127983093,
            "longitude": 2.5499999523,
            "type": "TP"
        },
        {
            "country_code": "FR",
            "city": "Perpignan/Rivesaltes",
            "latitude": 42.740398407,
            "longitude": 2.8706700802,
            "type": "FP"
        },
        {
            "country_code": "GB",
            "city": "Edinburgh",
            "latitude": 55.953252,
            "longitude": -3.188267,
            "type": "FN"
        },
        {
            "country_code": "GB",
            "city": "Leeds",
            "latitude": 53.8007554,
            "longitude": -1.5490774,
            "type": "FN"
        },
        {
            "country_code": "GB",
            "city": "London",
            "latitude": 51.8849983215,
            "longitude": 0.2349999994,
            "type": "TP"
        },
        {
            "country_code": "GB",
            "city": "Manchester",
            "latitude": 53.4807593,
            "longitude": -2.2426305,
            "type": "FN"
        },
        {
            "country_code": "GR",
            "city": "Andravida",
            "latitude": 37.9207000732,
            "longitude": 21.2926006317,
            "type": "FP"
        },
        {
            "country_code": "GR",
            "city": "Athens",
            "latitude": 37.983917,
            "longitude": 23.7293599,
            "type": "FN"
        },
        {
            "country_code": "HR",
            "city": "Zagreb",
            "latitude": 45.8150108,
            "longitude": 15.981919,
            "type": "FN"
        },
        {
            "country_code": "IE",
            "city": "Dublin",
            "latitude": 53.3498053,
            "longitude": -6.2603097,
            "type": "FN"
        },
        {
            "country_code": "IL",
            "city": "Tel Aviv",
            "latitude": 32.0852999,
            "longitude": 34.7817676,
            "type": "FN"
        },
        {
            "country_code": "IS",
            "city": "Reykjavik",
            "latitude": 64.133333,
            "longitude": -21.933333,
            "type": "FN"
        },
        {
            "country_code": "IS",
            "city": "Vestmannaeyjar",
            "latitude": 63.4243011475,
            "longitude": -20.2789001465,
            "type": "FP"
        },
        {
            "country_code": "IT",
            "city": "Brescia",
            "latitude": 45.4289016724,
            "longitude": 10.3305997849,
            "type": "FP"
        },
        {
            "country_code": "IT",
            "city": "Rome",
            "latitude": 41.9027835,
            "longitude": 12.4963655,
            "type": "FN"
        },
        {
            "country_code": "IT",
            "city": "Turin",
            "latitude": 45.070312,
            "longitude": 7.6868565,
            "type": "FN"
        },
        {
            "country_code": "LB",
            "city": "Beirut",
            "latitude": 33.8886289,
            "longitude": 35.4954794,
            "type": "FN"
        },
        {
            "country_code": "LU",
            "city": "Luxembourg City",
            "latitude": 49.611621,
            "longitude": 6.1319346,
            "type": "FN"
        },
        {
            "country_code": "LV",
            "city": "Riga",
            "latitude": 56.9235992432,
            "longitude": 23.9710998535,
            "type": "TP"
        },
        {
            "country_code": "MK",
            "city": "Skopje",
            "latitude": 41.9960924,
            "longitude": 21.4316495,
            "type": "FN"
        },
        {
            "country_code": "NL",
            "city": "Amsterdam",
            "latitude": 52.3702157,
            "longitude": 4.8951679,
            "type": "FN"
        },
        {
            "country_code": "NO",
            "city": "Oslo",
            "latitude": 60.193901062,
            "longitude": 11.100399971,
            "type": "TP"
        },
        {
            "country_code": "NO",
            "city": "Trondheim",
            "latitude": 63.4305658,
            "longitude": 10.3951929,
            "type": "FN"
        },
        {
            "country_code": "PL",
            "city": "Poznan",
            "latitude": 52.4210014343,
            "longitude": 16.8262996674,
            "type": "FP"
        },
        {
            "country_code": "PL",
            "city": "Warsaw",
            "latitude": 52.4510993958,
            "longitude": 20.6518001556,
            "type": "TP"
        },
        {
            "country_code": "PS",
            "city": "Gaza",
            "latitude": 31.7721276,
            "longitude": 35.2136806,
            "type": "FN"
        },
        {
            "country_code": "PT",
            "city": "Lisbon",
            "latitude": 38.7222524,
            "longitude": -9.1393366,
            "type": "FN"
        },
        {
            "country_code": "RO",
            "city": "Bucharest",
            "latitude": 44.4267674,
            "longitude": 26.1025384,
            "type": "FN"
        },
        {
            "country_code": "RO",
            "city": "T\u00e2rgu Mure\u015f",
            "latitude": 46.4677009583,
            "longitude": 24.4125003815,
            "type": "FP"
        },
        {
            "country_code": "RS",
            "city": "Belgrade",
            "latitude": 44.786568,
            "longitude": 20.4489216,
            "type": "FN"
        },
        {
            "country_code": "SE",
            "city": "Gothenburg",
            "latitude": 57.6627998352,
            "longitude": 12.279800415,
            "type": "FP"
        },
        {
            "country_code": "SE",
            "city": "Stockholm",
            "latitude": 59.3544006348,
            "longitude": 17.9416999817,
            "type": "TP"
        },
        {
            "country_code": "SE",
            "city": "Ume\u00e5",
            "latitude": 63.7918014526,
            "longitude": 20.2828006744,
            "type": "FP"
        },
        {
            "country_code": "TN",
            "city": "Monastir",
            "latitude": 35.7580986023,
            "longitude": 10.754699707,
            "type": "FP"
        },
        {
            "country_code": "TN",
            "city": "Tunis",
            "latitude": 36.8064948,
            "longitude": 10.1815316,
            "type": "FN"
        },
        {
            "country_code": "TR",
            "city": "\u00c7orlu",
            "latitude": 41.1381988525,
            "longitude": 27.9190998077,
            "type": "TP"
        },
        {
            "country_code": "UA",
            "city": "Cherkasy",
            "latitude": 49.415599823,
            "longitude": 31.995300293,
            "type": "FP"
        },
        {
            "country_code": "UA",
            "city": "Kiev",
            "latitude": 50.4501,
            "longitude": 30.5234,
            "type": "FN"
        }
    ]
}