{
    "target": "192.36.148.17",
    "measurement_filepath": "datasets/measurements/campaigns/192.36.148.17_North-Central_20230410/192.36.148.17_North-Central_500_52072218.json",
    "probes_filepath": "datasets/probes_sets/North-Central_500.json",
    "alpha": 1,
    "threshold": 1.0,
    "noise": 0,
    "num_anycast_instances": 7,
    "anycast_instances": [
        {
            "marker": {
                "id": "DEX",
                "latitude": 50.121212,
                "longitude": 8.6365638,
                "city": "Frankfurt-am-Main",
                "country_code": "DE"
            },
            "circle": {
                "id": "1004538",
                "latitude": 50.1015,
                "longitude": 8.6285,
                "radius": 23.1822162856179
            }
        },
        {
            "marker": {
                "id": "WIE",
                "latitude": 48.1102981567,
                "longitude": 16.5697002411,
                "city": "Vienna",
                "country_code": "AT"
            },
            "circle": {
                "id": "11240",
                "latitude": 48.2075,
                "longitude": 16.3595,
                "radius": 25.911107113808697
            }
        },
        {
            "marker": {
                "id": "VAR",
                "latitude": 43.2321014404,
                "longitude": 27.8250999451,
                "city": "Varna",
                "country_code": "BG"
            },
            "circle": {
                "id": "1003038",
                "latitude": 43.2215,
                "longitude": 27.9285,
                "radius": 26.3443371948645
            }
        },
        {
            "marker": {
                "id": "AMX",
                "latitude": 52.3086013794,
                "longitude": 4.7638897896,
                "city": "Amsterdam",
                "country_code": "NL"
            },
            "circle": {
                "id": "1004631",
                "latitude": 52.3775,
                "longitude": 4.8985,
                "radius": 28.491600675289497
            }
        },
        {
            "marker": {
                "id": "BTS",
                "latitude": 48.1702003479,
                "longitude": 17.2126998901,
                "city": "Bratislava",
                "country_code": "SK"
            },
            "circle": {
                "id": "24449",
                "latitude": 48.1615,
                "longitude": 17.1495,
                "radius": 38.0514425344851
            }
        },
        {
            "marker": {
                "id": "ARN",
                "latitude": 59.6519012451,
                "longitude": 17.9186000824,
                "city": "Stockholm",
                "country_code": "SE"
            },
            "circle": {
                "id": "17609",
                "latitude": 59.3415,
                "longitude": 18.0575,
                "radius": 38.260412867334004
            }
        },
        {
            "marker": {
                "id": "SOF",
                "latitude": 42.6966934204,
                "longitude": 23.4114360809,
                "city": "Sofia",
                "country_code": "BG"
            },
            "circle": {
                "id": "28797",
                "latitude": 42.6805,
                "longitude": 23.2615,
                "radius": 43.7525057705337
            }
        }
    ]
}