{
    "target": "198.41.0.4",
    "measurement_filepath": "datasets/measurements/campaigns/198.41.0.4_North-Central-section_20230425/198.41.0.4_North-Central-section_2_52639249.json",
    "probes_filepath": "datasets/probes_section/North-Central-section_2.json",
    "alpha": 0.8,
    "threshold": -1,
    "noise": 0,
    "num_anycast_instances": 9,
    "anycast_instances": [
        {
            "marker": {
                "id": "ARN",
                "latitude": 59.6519012451,
                "longitude": 17.9186000824,
                "city": "Stockholm",
                "country_code": "SE"
            },
            "circle": {
                "id": "32268",
                "latitude": 59.2715,
                "longitude": 15.2105,
                "radius": 162.02694108277458
            }
        },
        {
            "marker": {
                "id": "BNX",
                "latitude": 50.4592018127,
                "longitude": 4.4538202286,
                "city": "Brussels",
                "country_code": "BE"
            },
            "circle": {
                "id": "1261",
                "latitude": 51.9875,
                "longitude": 5.9005,
                "radius": 223.33919799055369
            }
        },
        {
            "marker": {
                "id": "LTN",
                "latitude": 51.8746986389,
                "longitude": -0.3683330119,
                "city": "London",
                "country_code": "GB"
            },
            "circle": {
                "id": "54309",
                "latitude": 51.4115,
                "longitude": 0.0075,
                "radius": 286.30086053856866
            }
        },
        {
            "marker": {
                "id": "NIX",
                "latitude": 60.193901062,
                "longitude": 11.100399971,
                "city": "Oslo",
                "country_code": "NO"
            },
            "circle": {
                "id": "6868",
                "latitude": 59.9215,
                "longitude": 10.7405,
                "radius": 378.5617571489137
            }
        },
        {
            "marker": {
                "id": "SXF",
                "latitude": 52.3800010681,
                "longitude": 13.5225000381,
                "city": "Berlin",
                "country_code": "DE"
            },
            "circle": {
                "id": "3407",
                "latitude": 53.5505,
                "longitude": 10.0375,
                "radius": 426.69351122892823
            }
        },
        {
            "marker": {
                "id": "LED",
                "latitude": 59.8003005981,
                "longitude": 30.2625007629,
                "city": "St Petersburg",
                "country_code": "RU"
            },
            "circle": {
                "id": "1002902",
                "latitude": 59.3685,
                "longitude": 28.1875,
                "radius": 514.6004470236248
            }
        },
        {
            "marker": {
                "id": "BCN",
                "latitude": 41.2971000671,
                "longitude": 2.0784599781,
                "city": "Barcelona",
                "country_code": "ES"
            },
            "circle": {
                "id": "50328",
                "latitude": 41.6715,
                "longitude": 2.7485,
                "radius": 532.4211000422562
            }
        },
        {
            "marker": {
                "id": "IST",
                "latitude": 40.9768981934,
                "longitude": 28.8145999908,
                "city": "Istanbul",
                "country_code": "TR"
            },
            "circle": {
                "id": "60428",
                "latitude": 34.4415,
                "longitude": 35.8185,
                "radius": 2404.579027078822
            }
        },
        {
            "marker": {
                "id": "ROM",
                "latitude": 41.799444,
                "longitude": 12.597222,
                "city": "Rome",
                "country_code": "IT"
            },
            "circle": {
                "id": "22145",
                "latitude": 43.9295,
                "longitude": 12.4795,
                "radius": 702.0465133121958
            }
        }
    ]
}