{
    "target": "198.41.0.4",
    "measurement_filepath": "datasets/measurements/campaigns/198.41.0.4_North-Central-section_20230425/198.41.0.4_North-Central-section_2_52639249.json",
    "probes_filepath": "datasets/probes_section/North-Central-section_2.json",
    "alpha": 0.1,
    "threshold": -1,
    "noise": 0,
    "num_anycast_instances": 8,
    "anycast_instances": [
        {
            "marker": {
                "id": "ARN",
                "latitude": 59.6519012451,
                "longitude": 17.9186000824,
                "city": "Stockholm",
                "country_code": "SE"
            },
            "circle": {
                "id": "32268",
                "latitude": 59.2715,
                "longitude": 15.2105,
                "radius": 185.1736469517424
            }
        },
        {
            "marker": {
                "id": "KSF",
                "latitude": 51.4083328247,
                "longitude": 9.3774995804,
                "city": "Kassel",
                "country_code": "DE"
            },
            "circle": {
                "id": "1261",
                "latitude": 51.9875,
                "longitude": 5.9005,
                "radius": 255.24479770348998
            }
        },
        {
            "marker": {
                "id": "PAR",
                "latitude": 49.0127983093,
                "longitude": 2.5499999523,
                "city": "Paris",
                "country_code": "FR"
            },
            "circle": {
                "id": "54309",
                "latitude": 51.4115,
                "longitude": 0.0075,
                "radius": 327.20098347264997
            }
        },
        {
            "marker": {
                "id": "LGW",
                "latitude": 51.1481018066,
                "longitude": -0.1902779937,
                "city": "London",
                "country_code": "GB"
            },
            "circle": {
                "id": "6423",
                "latitude": 53.4685,
                "longitude": -2.2915,
                "radius": 503.654627157038
            }
        },
        {
            "marker": {
                "id": "ECV",
                "latitude": 40.3707008362,
                "longitude": -3.7851400375,
                "city": "Madrid",
                "country_code": "ES"
            },
            "circle": {
                "id": "50328",
                "latitude": 41.6715,
                "longitude": 2.7485,
                "radius": 608.48125719115
            }
        },
        {
            "marker": {
                "id": "BUD",
                "latitude": 47.4369010925,
                "longitude": 19.2555999756,
                "city": "Budapest",
                "country_code": "HU"
            },
            "circle": {
                "id": "22145",
                "latitude": 43.9295,
                "longitude": 12.4795,
                "radius": 802.3388723567953
            }
        },
        {
            "marker": {
                "id": "LIN",
                "latitude": 45.445098877,
                "longitude": 9.2767400742,
                "city": "Milan",
                "country_code": "IT"
            },
            "circle": {
                "id": "567",
                "latitude": 36.8205,
                "longitude": 10.1805,
                "radius": 980.779120743366
            }
        },
        {
            "marker": {
                "id": "SVO",
                "latitude": 55.9725990295,
                "longitude": 37.4146003723,
                "city": "Moscow",
                "country_code": "RU"
            },
            "circle": {
                "id": "2287",
                "latitude": 54.6105,
                "longitude": 39.8215,
                "radius": 1411.2831290200804
            }
        }
    ]
}