{
    "target": "198.41.0.4",
    "measurement_filepath": "datasets/measurements/campaigns/198.41.0.4_North-Central_20230410/198.41.0.4_North-Central_300_52069377.json",
    "probes_filepath": "datasets/probes_sets/North-Central_300.json",
    "alpha": 0.2,
    "threshold": -1,
    "noise": 0,
    "num_anycast_instances": 23,
    "anycast_instances": [
        {
            "marker": {
                "id": "FRA",
                "latitude": 50.0264015198,
                "longitude": 8.543129921,
                "city": "Frankfurt-am-Main",
                "country_code": "DE"
            },
            "circle": {
                "id": "1002375",
                "latitude": 50.1195,
                "longitude": 8.6805,
                "radius": 15.392277148264377
            }
        },
        {
            "marker": {
                "id": "BBS",
                "latitude": 51.3238983154,
                "longitude": -0.8475000262,
                "city": "Yateley",
                "country_code": "GB"
            },
            "circle": {
                "id": "1003887",
                "latitude": 51.5405,
                "longitude": -0.6685,
                "radius": 28.58687172051732
            }
        },
        {
            "marker": {
                "id": "AMX",
                "latitude": 52.3086013794,
                "longitude": 4.7638897896,
                "city": "Amsterdam",
                "country_code": "NL"
            },
            "circle": {
                "id": "1005311",
                "latitude": 52.3775,
                "longitude": 4.8975,
                "radius": 37.3236663634443
            }
        },
        {
            "marker": {
                "id": "ARN",
                "latitude": 59.6519012451,
                "longitude": 17.9186000824,
                "city": "Stockholm",
                "country_code": "SE"
            },
            "circle": {
                "id": "28417",
                "latitude": 59.3105,
                "longitude": 18.0075,
                "radius": 61.36852945110803
            }
        },
        {
            "marker": {
                "id": "QAR",
                "latitude": 52.0606002808,
                "longitude": 5.8730602264,
                "city": "Arnhem",
                "country_code": "NL"
            },
            "circle": {
                "id": "1002190",
                "latitude": 52.7175,
                "longitude": 6.2015,
                "radius": 78.70251738096972
            }
        },
        {
            "marker": {
                "id": "URO",
                "latitude": 49.3842010498,
                "longitude": 1.1748000383,
                "city": "Rouen/Vall\u00e9e de Seine",
                "country_code": "FR"
            },
            "circle": {
                "id": "61735",
                "latitude": 48.9095,
                "longitude": 2.2885,
                "radius": 99.51671800971432
            }
        },
        {
            "marker": {
                "id": "IGS",
                "latitude": 48.7156982422,
                "longitude": 11.5340003967,
                "city": "Manching",
                "country_code": "DE"
            },
            "circle": {
                "id": "1004882",
                "latitude": 49.4385,
                "longitude": 11.0215,
                "radius": 109.61876750637327
            }
        },
        {
            "marker": {
                "id": "SGD",
                "latitude": 54.9644012451,
                "longitude": 9.7917299271,
                "city": "S\u00f8nderborg",
                "country_code": "DK"
            },
            "circle": {
                "id": "24592",
                "latitude": 53.5485,
                "longitude": 10.0515,
                "radius": 174.21186163780476
            }
        },
        {
            "marker": {
                "id": "TRN",
                "latitude": 45.2008018494,
                "longitude": 7.6496300697,
                "city": "Torino",
                "country_code": "IT"
            },
            "circle": {
                "id": "30725",
                "latitude": 43.6395,
                "longitude": 6.9285,
                "radius": 191.7949950878119
            }
        },
        {
            "marker": {
                "id": "NTE",
                "latitude": 47.1531982422,
                "longitude": -1.610730052,
                "city": "Nantes",
                "country_code": "FR"
            },
            "circle": {
                "id": "51192",
                "latitude": 48.1085,
                "longitude": -1.6785,
                "radius": 211.00852883518002
            }
        },
        {
            "marker": {
                "id": "LYS",
                "latitude": 45.726398468,
                "longitude": 5.0908298492,
                "city": "Lyon",
                "country_code": "FR"
            },
            "circle": {
                "id": "22992",
                "latitude": 47.3485,
                "longitude": 5.0515,
                "radius": 219.78833170413168
            }
        },
        {
            "marker": {
                "id": "STR",
                "latitude": 48.6898994446,
                "longitude": 9.2219600677,
                "city": "Stuttgart",
                "country_code": "DE"
            },
            "circle": {
                "id": "55636",
                "latitude": 47.3705,
                "longitude": 8.5185,
                "radius": 188.15200407800876
            }
        },
        {
            "marker": {
                "id": "LBA",
                "latitude": 53.8658981323,
                "longitude": -1.6605700254,
                "city": "Leeds",
                "country_code": "GB"
            },
            "circle": {
                "id": "1004440",
                "latitude": 53.7275,
                "longitude": -6.8905,
                "radius": 367.00621788228426
            }
        },
        {
            "marker": {
                "id": "PRG",
                "latitude": 50.1007995605,
                "longitude": 14.2600002289,
                "city": "Prague",
                "country_code": "CZ"
            },
            "circle": {
                "id": "26133",
                "latitude": 48.4285,
                "longitude": 17.7885,
                "radius": 381.2796605835189
            }
        },
        {
            "marker": {
                "id": "GOT",
                "latitude": 57.6627998352,
                "longitude": 12.279800415,
                "city": "Gothenburg",
                "country_code": "SE"
            },
            "circle": {
                "id": "11275",
                "latitude": 62.6295,
                "longitude": 7.0505,
                "radius": 633.1991033823058
            }
        },
        {
            "marker": {
                "id": "FCO",
                "latitude": 41.8045005798,
                "longitude": 12.2508001328,
                "city": "Rome",
                "country_code": "IT"
            },
            "circle": {
                "id": "27957",
                "latitude": 35.9105,
                "longitude": 14.4195,
                "radius": 685.9575424749361
            }
        },
        {
            "marker": {
                "id": "SAW",
                "latitude": 40.898601532,
                "longitude": 29.3092002869,
                "city": "Istanbul",
                "country_code": "TR"
            },
            "circle": {
                "id": "27804",
                "latitude": 42.6595,
                "longitude": 23.3875,
                "radius": 647.8859538872733
            }
        },
        {
            "marker": {
                "id": "TOJ",
                "latitude": 40.4967002869,
                "longitude": -3.4458699226,
                "city": "Madrid",
                "country_code": "ES"
            },
            "circle": {
                "id": "27388",
                "latitude": 36.5015,
                "longitude": -4.7185,
                "radius": 814.5839762477689
            }
        },
        {
            "marker": {
                "id": "ZAZ",
                "latitude": 41.6661987305,
                "longitude": -1.0415500402,
                "city": "Zaragoza",
                "country_code": "ES"
            },
            "circle": {
                "id": "60555",
                "latitude": 41.3895,
                "longitude": 2.1695,
                "radius": 283.29882730293184
            }
        },
        {
            "marker": {
                "id": "DME",
                "latitude": 55.4087982178,
                "longitude": 37.9062995911,
                "city": "Moscow",
                "country_code": "RU"
            },
            "circle": {
                "id": "54163",
                "latitude": 56.2585,
                "longitude": 37.9905,
                "radius": 956.7666352411661
            }
        },
        {
            "marker": {
                "id": "LED",
                "latitude": 59.8003005981,
                "longitude": 30.2625007629,
                "city": "St Petersburg",
                "country_code": "RU"
            },
            "circle": {
                "id": "54720",
                "latitude": 60.1675,
                "longitude": 24.9385,
                "radius": 383.8621237814487
            }
        },
        {
            "marker": {
                "id": "MSQ",
                "latitude": 53.8824996948,
                "longitude": 28.0307006836,
                "city": "Minsk",
                "country_code": "BY"
            },
            "circle": {
                "id": "1000361",
                "latitude": 48.2875,
                "longitude": 25.9405,
                "radius": 663.4790530093782
            }
        },
        {
            "marker": {
                "id": "INV",
                "latitude": 57.5424995422,
                "longitude": -4.0475001335,
                "city": "Inverness",
                "country_code": "GB"
            },
            "circle": {
                "id": "27746",
                "latitude": 64.0805,
                "longitude": -21.8205,
                "radius": 1220.289611081184
            }
        }
    ]
}