{
    "target": "198.41.0.4",
    "measurement_filepath": "datasets/measurements/campaigns/198.41.0.4_North-Central_20230410/198.41.0.4_North-Central_300_52069377.json",
    "probes_filepath": "datasets/probes_sets/North-Central_300.json",
    "alpha": 0.0,
    "threshold": -1,
    "noise": 0,
    "num_anycast_instances": 25,
    "anycast_instances": [
        {
            "marker": {
                "id": "FRA",
                "latitude": 50.0264015198,
                "longitude": 8.543129921,
                "city": "Frankfurt-am-Main",
                "country_code": "DE"
            },
            "circle": {
                "id": "1002375",
                "latitude": 50.1195,
                "longitude": 8.6805,
                "radius": 15.392277148264377
            }
        },
        {
            "marker": {
                "id": "BBS",
                "latitude": 51.3238983154,
                "longitude": -0.8475000262,
                "city": "Yateley",
                "country_code": "GB"
            },
            "circle": {
                "id": "1003887",
                "latitude": 51.5405,
                "longitude": -0.6685,
                "radius": 28.58687172051732
            }
        },
        {
            "marker": {
                "id": "AMX",
                "latitude": 52.3086013794,
                "longitude": 4.7638897896,
                "city": "Amsterdam",
                "country_code": "NL"
            },
            "circle": {
                "id": "1005311",
                "latitude": 52.3775,
                "longitude": 4.8975,
                "radius": 37.3236663634443
            }
        },
        {
            "marker": {
                "id": "ARN",
                "latitude": 59.6519012451,
                "longitude": 17.9186000824,
                "city": "Stockholm",
                "country_code": "SE"
            },
            "circle": {
                "id": "28417",
                "latitude": 59.3105,
                "longitude": 18.0075,
                "radius": 61.36852945110803
            }
        },
        {
            "marker": {
                "id": "QAR",
                "latitude": 52.0606002808,
                "longitude": 5.8730602264,
                "city": "Arnhem",
                "country_code": "NL"
            },
            "circle": {
                "id": "1002190",
                "latitude": 52.7175,
                "longitude": 6.2015,
                "radius": 78.70251738096972
            }
        },
        {
            "marker": {
                "id": "URO",
                "latitude": 49.3842010498,
                "longitude": 1.1748000383,
                "city": "Rouen/Vall\u00e9e de Seine",
                "country_code": "FR"
            },
            "circle": {
                "id": "61735",
                "latitude": 48.9095,
                "longitude": 2.2885,
                "radius": 99.51671800971432
            }
        },
        {
            "marker": {
                "id": "IGS",
                "latitude": 48.7156982422,
                "longitude": 11.5340003967,
                "city": "Manching",
                "country_code": "DE"
            },
            "circle": {
                "id": "1004882",
                "latitude": 49.4385,
                "longitude": 11.0215,
                "radius": 109.61876750637327
            }
        },
        {
            "marker": {
                "id": "SGD",
                "latitude": 54.9644012451,
                "longitude": 9.7917299271,
                "city": "S\u00f8nderborg",
                "country_code": "DK"
            },
            "circle": {
                "id": "24592",
                "latitude": 53.5485,
                "longitude": 10.0515,
                "radius": 174.21186163780476
            }
        },
        {
            "marker": {
                "id": "TRN",
                "latitude": 45.2008018494,
                "longitude": 7.6496300697,
                "city": "Torino",
                "country_code": "IT"
            },
            "circle": {
                "id": "30725",
                "latitude": 43.6395,
                "longitude": 6.9285,
                "radius": 191.7949950878119
            }
        },
        {
            "marker": {
                "id": "BES",
                "latitude": 48.4478988647,
                "longitude": -4.4185400009,
                "city": "Brest/Guipavas",
                "country_code": "FR"
            },
            "circle": {
                "id": "51192",
                "latitude": 48.1085,
                "longitude": -1.6785,
                "radius": 211.00852883518002
            }
        },
        {
            "marker": {
                "id": "SIR",
                "latitude": 46.2196006775,
                "longitude": 7.3267598152,
                "city": "Sion",
                "country_code": "CH"
            },
            "circle": {
                "id": "22992",
                "latitude": 47.3485,
                "longitude": 5.0515,
                "radius": 219.78833170413168
            }
        },
        {
            "marker": {
                "id": "CFR",
                "latitude": 49.1733016968,
                "longitude": -0.4499999881,
                "city": "Caen/Carpiquet",
                "country_code": "FR"
            },
            "circle": {
                "id": "28898",
                "latitude": 47.4215,
                "longitude": 0.6815,
                "radius": 213.74000987020793
            }
        },
        {
            "marker": {
                "id": "NCL",
                "latitude": 55.0374984741,
                "longitude": -1.6916699409,
                "city": "Newcastle",
                "country_code": "GB"
            },
            "circle": {
                "id": "1004440",
                "latitude": 53.7275,
                "longitude": -6.8905,
                "radius": 367.00621788228426
            }
        },
        {
            "marker": {
                "id": "ARW",
                "latitude": 46.1766014099,
                "longitude": 21.2619991302,
                "city": "Arad",
                "country_code": "RO"
            },
            "circle": {
                "id": "26133",
                "latitude": 48.4285,
                "longitude": 17.7885,
                "radius": 381.2796605835189
            }
        },
        {
            "marker": {
                "id": "CBU",
                "latitude": 51.8894424438,
                "longitude": 14.5319442749,
                "city": "Cottbus",
                "country_code": "DE"
            },
            "circle": {
                "id": "22072",
                "latitude": 50.0485,
                "longitude": 14.3505,
                "radius": 209.48394927964392
            }
        },
        {
            "marker": {
                "id": "MUC",
                "latitude": 48.3538017273,
                "longitude": 11.7861003876,
                "city": "Munich",
                "country_code": "DE"
            },
            "circle": {
                "id": "24480",
                "latitude": 48.1875,
                "longitude": 16.3515,
                "radius": 340.7046101064585
            }
        },
        {
            "marker": {
                "id": "TED",
                "latitude": 57.0688018799,
                "longitude": 8.7052202225,
                "city": "Thisted",
                "country_code": "DK"
            },
            "circle": {
                "id": "11275",
                "latitude": 62.6295,
                "longitude": 7.0505,
                "radius": 633.1991033823058
            }
        },
        {
            "marker": {
                "id": "BEN",
                "latitude": 32.0968017578,
                "longitude": 20.2695007324,
                "city": "Benghazi",
                "country_code": "LY"
            },
            "circle": {
                "id": "27957",
                "latitude": 35.9105,
                "longitude": 14.4195,
                "radius": 685.9575424749361
            }
        },
        {
            "marker": {
                "id": "AGA",
                "latitude": 30.3250007629,
                "longitude": -9.413069725,
                "city": "Agadir",
                "country_code": "MA"
            },
            "circle": {
                "id": "27388",
                "latitude": 36.5015,
                "longitude": -4.7185,
                "radius": 814.5839762477689
            }
        },
        {
            "marker": {
                "id": "LBI",
                "latitude": 43.913898468,
                "longitude": 2.1130599976,
                "city": "Albi/Le S\u00e9questre",
                "country_code": "FR"
            },
            "circle": {
                "id": "60555",
                "latitude": 41.3895,
                "longitude": 2.1695,
                "radius": 283.29882730293184
            }
        },
        {
            "marker": {
                "id": "PUF",
                "latitude": 43.3800010681,
                "longitude": -0.41861099,
                "city": "Pau/Pyr\u00e9n\u00e9es (Uzein)",
                "country_code": "FR"
            },
            "circle": {
                "id": "54011",
                "latitude": 46.1275,
                "longitude": -1.0725,
                "radius": 310.049107469325
            }
        },
        {
            "marker": {
                "id": "URE",
                "latitude": 58.2299003601,
                "longitude": 22.5095005035,
                "city": "Kuressaare",
                "country_code": "EE"
            },
            "circle": {
                "id": "54163",
                "latitude": 56.2585,
                "longitude": 37.9905,
                "radius": 956.7666352411661
            }
        },
        {
            "marker": {
                "id": "DEB",
                "latitude": 47.488899231,
                "longitude": 21.6152992249,
                "city": "Debrecen",
                "country_code": "HU"
            },
            "circle": {
                "id": "35643",
                "latitude": 50.4485,
                "longitude": 30.4795,
                "radius": 728.8334790816743
            }
        },
        {
            "marker": {
                "id": "MPW",
                "latitude": 47.0760993958,
                "longitude": 37.4496002197,
                "city": "Mariupol",
                "country_code": "UA"
            },
            "circle": {
                "id": "17658",
                "latitude": 55.6115,
                "longitude": 38.2095,
                "radius": 971.6679332871902
            }
        },
        {
            "marker": {
                "id": "LMO",
                "latitude": 57.7052001953,
                "longitude": -3.3391699791,
                "city": "Lossiemouth",
                "country_code": "GB"
            },
            "circle": {
                "id": "27746",
                "latitude": 64.0805,
                "longitude": -21.8205,
                "radius": 1220.289611081184
            }
        }
    ]
}