{
    "target": "199.7.91.13",
    "probes_filepath": "datasets/probes_sets/North-Central_100.json",
    "alpha": 0.3,
    "threshold": -1,
    "noise": 0,
    "results_filepath": "datasets/results/campaigns/199.7.91.13_North-Central_20230410_alpha_light-factor_0.40/199.7.91.13_North-Central_100_52070169_0.3_-1_0.json",
    "gt_filepath": "datasets/ground-truth/root_servers/root_servers_D.json",
    "statistics": {
        "TP": 8,
        "FP": 5,
        "TN": 0,
        "FN": 36,
        "accuracy": 0.16326530612244897,
        "precision": 0.6153846153846154,
        "recall": 0.18181818181818182,
        "f1": 0.2807017543859649,
        "OT": 1,
        "OF": 0
    },
    "instances": [
        {
            "country_code": "AT",
            "city": "Feldkirch",
            "latitude": 47.2375671,
            "longitude": 9.5981724,
            "type": "FN"
        },
        {
            "country_code": "AT",
            "city": "Klagenfurt",
            "latitude": 46.62794,
            "longitude": 14.30899,
            "type": "FN"
        },
        {
            "country_code": "AT",
            "city": "Salzburg",
            "latitude": 47.80949,
            "longitude": 13.05501,
            "type": "FN"
        },
        {
            "country_code": "AT",
            "city": "Vienna",
            "latitude": 48.2081743,
            "longitude": 16.3738189,
            "type": "FN"
        },
        {
            "country_code": "BG",
            "city": "Plovdiv",
            "latitude": 42.0677986145,
            "longitude": 24.8507995605,
            "type": "FP"
        },
        {
            "country_code": "BG",
            "city": "Sofia",
            "latitude": 42.6977082,
            "longitude": 23.3218675,
            "type": "FN"
        },
        {
            "country_code": "CH",
            "city": "Geneva",
            "latitude": 46.2043907,
            "longitude": 6.1431577,
            "type": "FN"
        },
        {
            "country_code": "CH",
            "city": "Lausanne",
            "latitude": 46.5196535,
            "longitude": 6.6322734,
            "type": "FN"
        },
        {
            "country_code": "CH",
            "city": "Zurich",
            "latitude": 47.3768866,
            "longitude": 8.541694,
            "type": "FN"
        },
        {
            "country_code": "CZ",
            "city": "Prague",
            "latitude": 50.0755381,
            "longitude": 14.4378005,
            "type": "FN"
        },
        {
            "country_code": "DE",
            "city": "Berlin",
            "latitude": 52.5200066,
            "longitude": 13.404954,
            "type": "FN"
        },
        {
            "country_code": "DE",
            "city": "Dortmund",
            "latitude": 51.5142273,
            "longitude": 7.4652789,
            "type": "FN"
        },
        {
            "country_code": "DE",
            "city": "Frankfurt-am-Main",
            "latitude": 50.121212,
            "longitude": 8.6365638,
            "type": "TP"
        },
        {
            "country_code": "DE",
            "city": "Hamburg",
            "latitude": 53.5437641,
            "longitude": 10.0099133,
            "type": "FN"
        },
        {
            "country_code": "DE",
            "city": "Stuttgart",
            "latitude": 48.7784485,
            "longitude": 9.1800132,
            "type": "FN"
        },
        {
            "country_code": "EE",
            "city": "Tallinn",
            "latitude": 59.4369608,
            "longitude": 24.7535746,
            "type": "FN"
        },
        {
            "country_code": "ES",
            "city": "Barcelona",
            "latitude": 41.3850639,
            "longitude": 2.1734035,
            "type": "FN"
        },
        {
            "country_code": "ES",
            "city": "Madrid",
            "latitude": 40.3707008362,
            "longitude": -3.7851400375,
            "type": "TP"
        },
        {
            "country_code": "ES",
            "city": "Malaga",
            "latitude": 36.7213028,
            "longitude": -4.4216366,
            "type": "FN"
        },
        {
            "country_code": "FI",
            "city": "Tampere",
            "latitude": 61.5,
            "longitude": 23.766667,
            "type": "FN"
        },
        {
            "country_code": "FR",
            "city": "Cambrai/\u00c9pinoy",
            "latitude": 50.2218017578,
            "longitude": 3.154239893,
            "type": "FP"
        },
        {
            "country_code": "FR",
            "city": "Lyon",
            "latitude": 45.764043,
            "longitude": 4.835659,
            "type": "FN"
        },
        {
            "country_code": "FR",
            "city": "Marseille",
            "latitude": 43.296482,
            "longitude": 5.36978,
            "type": "FN"
        },
        {
            "country_code": "FR",
            "city": "Paris",
            "latitude": 48.856614,
            "longitude": 2.3522219,
            "type": "FN"
        },
        {
            "country_code": "GB",
            "city": "Edinburgh",
            "latitude": 55.953252,
            "longitude": -3.188267,
            "type": "FN"
        },
        {
            "country_code": "GB",
            "city": "Leeds",
            "latitude": 53.8007554,
            "longitude": -1.5490774,
            "type": "FN"
        },
        {
            "country_code": "GB",
            "city": "London",
            "latitude": 51.508515,
            "longitude": -0.1254872,
            "type": "FN"
        },
        {
            "country_code": "GB",
            "city": "Manchester",
            "latitude": 53.4807593,
            "longitude": -2.2426305,
            "type": "FN"
        },
        {
            "country_code": "GR",
            "city": "Athens",
            "latitude": 37.983917,
            "longitude": 23.7293599,
            "type": "FN"
        },
        {
            "country_code": "HR",
            "city": "Zagreb",
            "latitude": 45.7429008484,
            "longitude": 16.0687999725,
            "type": "TP"
        },
        {
            "country_code": "IE",
            "city": "Dublin",
            "latitude": 53.3498053,
            "longitude": -6.2603097,
            "type": "FN"
        },
        {
            "country_code": "IS",
            "city": "Reykjavik",
            "latitude": 64.133333,
            "longitude": -21.933333,
            "type": "FN"
        },
        {
            "country_code": "IS",
            "city": "Vestmannaeyjar",
            "latitude": 63.4243011475,
            "longitude": -20.2789001465,
            "type": "FP"
        },
        {
            "country_code": "IT",
            "city": "Perugia",
            "latitude": 43.0959014893,
            "longitude": 12.5131998062,
            "type": "FP"
        },
        {
            "country_code": "IT",
            "city": "Rome",
            "latitude": 41.9027835,
            "longitude": 12.4963655,
            "type": "FN"
        },
        {
            "country_code": "IT",
            "city": "Torino",
            "latitude": 45.2008018494,
            "longitude": 7.6496300697,
            "type": "TP"
        },
        {
            "country_code": "LU",
            "city": "Luxembourg City",
            "latitude": 49.611621,
            "longitude": 6.1319346,
            "type": "FN"
        },
        {
            "country_code": "LV",
            "city": "Riga",
            "latitude": 56.9496487,
            "longitude": 24.1051864,
            "type": "FN"
        },
        {
            "country_code": "MK",
            "city": "Ohrid",
            "latitude": 41.1800003052,
            "longitude": 20.7423000336,
            "type": "TP"
        },
        {
            "country_code": "MK",
            "city": "Skopje",
            "latitude": 41.9960924,
            "longitude": 21.4316495,
            "type": "FN"
        },
        {
            "country_code": "NL",
            "city": "Rotterdam",
            "latitude": 51.9569015503,
            "longitude": 4.4372200966,
            "type": "TP"
        },
        {
            "country_code": "NO",
            "city": "Oslo",
            "latitude": 59.9133301,
            "longitude": 10.7389701,
            "type": "FN"
        },
        {
            "country_code": "NO",
            "city": "Trondheim",
            "latitude": 63.4305658,
            "longitude": 10.3951929,
            "type": "FN"
        },
        {
            "country_code": "PL",
            "city": "Warsaw",
            "latitude": 52.2296756,
            "longitude": 21.0122287,
            "type": "FN"
        },
        {
            "country_code": "PT",
            "city": "Lisbon",
            "latitude": 38.7222524,
            "longitude": -9.1393366,
            "type": "FN"
        },
        {
            "country_code": "RO",
            "city": "Bucharest",
            "latitude": 44.4267674,
            "longitude": 26.1025384,
            "type": "FN"
        },
        {
            "country_code": "RS",
            "city": "Belgrade",
            "latitude": 44.8184013367,
            "longitude": 20.3090991974,
            "type": "TP"
        },
        {
            "country_code": "SE",
            "city": "Eskilstuna",
            "latitude": 59.3511009216,
            "longitude": 16.7084007263,
            "type": "TP"
        },
        {
            "country_code": "SE",
            "city": "Gothenburg",
            "latitude": 57.7747001648,
            "longitude": 11.8704004288,
            "type": "FP"
        },
        {
            "country_code": "UA",
            "city": "Kiev",
            "latitude": 50.6035003662,
            "longitude": 30.1919002533,
            "type": "OT"
        }
    ]
}