{
    "target": "198.97.190.53",
    "probes_filepath": "datasets/probes_sets/North-Central_300.json",
    "alpha": 0.4,
    "threshold": -1,
    "noise": 0,
    "results_filepath": "datasets/results/campaigns/198.97.190.53_North-Central_20230410_alpha_light-factor_0.40/198.97.190.53_North-Central_300_52071713_0.4_-1_0.json",
    "gt_filepath": "datasets/ground-truth/root_servers/root_servers_H.json",
    "statistics": {
        "TP": 2,
        "FP": 3,
        "TN": 0,
        "FN": 0,
        "accuracy": 0.4,
        "precision": 0.4,
        "recall": 1.0,
        "f1": 0.5714285714285715,
        "OT": 0,
        "OF": 0
    },
    "instances": [
        {
            "country_code": "DE",
            "city": "Berlin",
            "latitude": 52.5597000122,
            "longitude": 13.2876996994,
            "type": "FP"
        },
        {
            "country_code": "DE",
            "city": "Mainz",
            "latitude": 49.9674987793,
            "longitude": 8.1472215652,
            "type": "TP"
        },
        {
            "country_code": "FR",
            "city": "Beauvais/Till\u00e9",
            "latitude": 49.4543991089,
            "longitude": 2.1127800941,
            "type": "FP"
        },
        {
            "country_code": "GB",
            "city": "London",
            "latitude": 51.8849983215,
            "longitude": 0.2349999994,
            "type": "TP"
        },
        {
            "country_code": "RU",
            "city": "Moscow",
            "latitude": 55.4087982178,
            "longitude": 37.9062995911,
            "type": "FP"
        }
    ]
}