{
    "target": "198.41.0.4",
    "measurement_filepath": "datasets/measurements/campaigns/198.41.0.4_North-Central-section_20230425/198.41.0.4_North-Central-section_1.5_52638904.json",
    "probes_filepath": "datasets/probes_section/North-Central-section_1.5.json",
    "alpha": 0.0,
    "threshold": -1,
    "noise": 0,
    "num_anycast_instances": 6,
    "anycast_instances": [
        {
            "marker": {
                "id": "JKG",
                "latitude": 57.757598877,
                "longitude": 14.0686998367,
                "city": "J\u00f6nk\u00f6ping",
                "country_code": "SE"
            },
            "circle": {
                "id": "32268",
                "latitude": 59.2715,
                "longitude": 15.2105,
                "radius": 189.09169454383598
            }
        },
        {
            "marker": {
                "id": "XVS",
                "latitude": 50.3258018494,
                "longitude": 3.4612600803,
                "city": "Valenciennes/Denain",
                "country_code": "FR"
            },
            "circle": {
                "id": "6816",
                "latitude": 51.2705,
                "longitude": 6.8175,
                "radius": 272.79272952307883
            }
        },
        {
            "marker": {
                "id": "AOI",
                "latitude": 43.6162986755,
                "longitude": 13.3622999191,
                "city": "Ancona",
                "country_code": "IT"
            },
            "circle": {
                "id": "6621",
                "latitude": 40.9475,
                "longitude": 17.2785,
                "radius": 450.08045578411446
            }
        },
        {
            "marker": {
                "id": "RIX",
                "latitude": 56.9235992432,
                "longitude": 23.9710998535,
                "city": "Riga",
                "country_code": "LV"
            },
            "circle": {
                "id": "6707",
                "latitude": 60.5705,
                "longitude": 27.1875,
                "radius": 480.2993556750397
            }
        },
        {
            "marker": {
                "id": "VAA",
                "latitude": 63.0507011414,
                "longitude": 21.7621994019,
                "city": "Vaasa",
                "country_code": "FI"
            },
            "circle": {
                "id": "110",
                "latitude": 60.1475,
                "longitude": 19.9475,
                "radius": 342.3218555107624
            }
        },
        {
            "marker": {
                "id": "GFR",
                "latitude": 48.8830986023,
                "longitude": -1.5641700029,
                "city": "Granville",
                "country_code": "FR"
            },
            "circle": {
                "id": "6423",
                "latitude": 53.4685,
                "longitude": -2.2915,
                "radius": 513.0934727801848
            }
        }
    ]
}