{
    "target": "198.41.0.4",
    "measurement_filepath": "datasets/measurements/campaigns/198.41.0.4_North-Central-section_20230425/198.41.0.4_North-Central-section_1_52638506.json",
    "probes_filepath": "datasets/probes_section/North-Central-section_1.json",
    "alpha": 0.1,
    "threshold": -1,
    "noise": 0,
    "num_anycast_instances": 8,
    "anycast_instances": [
        {
            "marker": {
                "id": "EKT",
                "latitude": 59.3511009216,
                "longitude": 16.7084007263,
                "city": "Eskilstuna",
                "country_code": "SE"
            },
            "circle": {
                "id": "52699",
                "latitude": 59.5415,
                "longitude": 17.9415,
                "radius": 104.79749020719441
            }
        },
        {
            "marker": {
                "id": "NWI",
                "latitude": 52.6758003235,
                "longitude": 1.2827800512,
                "city": "Norwich",
                "country_code": "GB"
            },
            "circle": {
                "id": "20706",
                "latitude": 51.3905,
                "longitude": 0.1075,
                "radius": 171.1069051544496
            }
        },
        {
            "marker": {
                "id": "FMO",
                "latitude": 52.134601593,
                "longitude": 7.6848301888,
                "city": "M\u00fcnster",
                "country_code": "DE"
            },
            "circle": {
                "id": "11698",
                "latitude": 52.0915,
                "longitude": 5.1815,
                "radius": 173.96392727918962
            }
        },
        {
            "marker": {
                "id": "DUB",
                "latitude": 53.4212989807,
                "longitude": -6.270070076,
                "city": "Dublin",
                "country_code": "IE"
            },
            "circle": {
                "id": "24889",
                "latitude": 55.5415,
                "longitude": -4.6585,
                "radius": 326.5741774014636
            }
        },
        {
            "marker": {
                "id": "MXP",
                "latitude": 45.6305999756,
                "longitude": 8.7281103134,
                "city": "Milan",
                "country_code": "IT"
            },
            "circle": {
                "id": "6495",
                "latitude": 45.7795,
                "longitude": 4.8715,
                "radius": 335.20532218426683
            }
        },
        {
            "marker": {
                "id": "PAR",
                "latitude": 49.0127983093,
                "longitude": 2.5499999523,
                "city": "Paris",
                "country_code": "FR"
            },
            "circle": {
                "id": "19856",
                "latitude": 47.0605,
                "longitude": 2.4095,
                "radius": 410.00455974962404
            }
        },
        {
            "marker": {
                "id": "LED",
                "latitude": 59.8003005981,
                "longitude": 30.2625007629,
                "city": "St Petersburg",
                "country_code": "RU"
            },
            "circle": {
                "id": "6707",
                "latitude": 60.5705,
                "longitude": 27.1875,
                "radius": 466.39827919003767
            }
        },
        {
            "marker": {
                "id": "IST",
                "latitude": 40.9768981934,
                "longitude": 28.8145999908,
                "city": "Istanbul",
                "country_code": "TR"
            },
            "circle": {
                "id": "60548",
                "latitude": 33.8915,
                "longitude": 35.4995,
                "radius": 2303.423153333011
            }
        }
    ]
}