{
    "target": "104.16.123.96",
    "probes_filepath": "datasets/probes_sets/North-Central_500.json",
    "alpha": 0.0,
    "threshold": -1,
    "noise": 0,
    "results_filepath": "datasets/results/campaigns/104.16.123.96_North-Central_20230418_alpha_light-factor_0.18/104.16.123.96_North-Central_500_52452416_0.0_-1_0.json",
    "gt_filepath": "datasets/ground-truth/cloudfare/cloudfare_servers_europe.json",
    "statistics": {
        "TP": 25,
        "FP": 36,
        "TN": 0,
        "FN": 23,
        "accuracy": 0.2976190476190476,
        "precision": 0.4098360655737705,
        "recall": 0.5208333333333334,
        "f1": 0.45871559633027525,
        "OT": 4,
        "OF": 9
    },
    "instances": [
        {
            "country_code": "AL",
            "city": "Tirana",
            "latitude": 41.4146995544,
            "longitude": 19.7206001282,
            "type": "FN"
        },
        {
            "country_code": "AM",
            "city": "Yerevan",
            "latitude": 40.1473007202,
            "longitude": 44.3959007263,
            "type": "OF"
        },
        {
            "country_code": "AT",
            "city": "Vienna",
            "latitude": 48.1102981567,
            "longitude": 16.5697002411,
            "type": "TP"
        },
        {
            "country_code": "BE",
            "city": "Brussels",
            "latitude": 50.9014015198,
            "longitude": 4.4844398499,
            "type": "FN"
        },
        {
            "country_code": "BG",
            "city": "Burgas",
            "latitude": 42.5695991516,
            "longitude": 27.5151996613,
            "type": "FP"
        },
        {
            "country_code": "BG",
            "city": "Sofia",
            "latitude": 42.6966934204,
            "longitude": 23.4114360809,
            "type": "TP"
        },
        {
            "country_code": "BY",
            "city": "Gomel",
            "latitude": 52.5270004272,
            "longitude": 31.0167007446,
            "type": "FP"
        },
        {
            "country_code": "BY",
            "city": "Minsk",
            "latitude": 53.8824996948,
            "longitude": 28.0307006836,
            "type": "FN"
        },
        {
            "country_code": "CH",
            "city": "Bern",
            "latitude": 46.914100647,
            "longitude": 7.4971499443,
            "type": "FP"
        },
        {
            "country_code": "CH",
            "city": "Geneva",
            "latitude": 46.2380981445,
            "longitude": 6.1089501381,
            "type": "FN"
        },
        {
            "country_code": "CH",
            "city": "Zurich",
            "latitude": 47.4646987915,
            "longitude": 8.5491695404,
            "type": "TP"
        },
        {
            "country_code": "CZ",
            "city": "Prague",
            "latitude": 50.1007995605,
            "longitude": 14.2600002289,
            "type": "TP"
        },
        {
            "country_code": "DE",
            "city": "Berlin",
            "latitude": 52.5597000122,
            "longitude": 13.2876996994,
            "type": "FN"
        },
        {
            "country_code": "DE",
            "city": "Dortmund",
            "latitude": 51.5182991028,
            "longitude": 7.6122398377,
            "type": "FP"
        },
        {
            "country_code": "DE",
            "city": "Egelsbach",
            "latitude": 49.9599990845,
            "longitude": 8.6458330154,
            "type": "TP"
        },
        {
            "country_code": "DE",
            "city": "Hamburg",
            "latitude": 53.6304016113,
            "longitude": 9.9882297516,
            "type": "FN"
        },
        {
            "country_code": "DE",
            "city": "Hannover",
            "latitude": 52.461101532,
            "longitude": 9.6850795746,
            "type": "FP"
        },
        {
            "country_code": "DE",
            "city": "Leipzig",
            "latitude": 51.4323997498,
            "longitude": 12.2416000366,
            "type": "FP"
        },
        {
            "country_code": "DE",
            "city": "Manching",
            "latitude": 48.7156982422,
            "longitude": 11.5340003967,
            "type": "FP"
        },
        {
            "country_code": "DE",
            "city": "Memmingen",
            "latitude": 47.9888000488,
            "longitude": 10.2395000458,
            "type": "FP"
        },
        {
            "country_code": "DE",
            "city": "Stuttgart",
            "latitude": 48.6898994446,
            "longitude": 9.2219600677,
            "type": "FN"
        },
        {
            "country_code": "DK",
            "city": "Copenhagen",
            "latitude": 55.5856018066,
            "longitude": 12.1314001083,
            "type": "TP"
        },
        {
            "country_code": "DK",
            "city": "Esbjerg",
            "latitude": 55.5259017944,
            "longitude": 8.5534000397,
            "type": "FP"
        },
        {
            "country_code": "DZ",
            "city": "Hassi Messaoud",
            "latitude": 31.6730003357,
            "longitude": 6.1404399872,
            "type": "OF"
        },
        {
            "country_code": "EE",
            "city": "Tallinn",
            "latitude": 59.4132995605,
            "longitude": 24.8327999115,
            "type": "FN"
        },
        {
            "country_code": "ES",
            "city": "Ibiza",
            "latitude": 38.8728981018,
            "longitude": 1.3731199503,
            "type": "FP"
        },
        {
            "country_code": "ES",
            "city": "Madrid",
            "latitude": 40.4967002869,
            "longitude": -3.4458699226,
            "type": "TP"
        },
        {
            "country_code": "ES",
            "city": "Madrid",
            "latitude": 40.3707008362,
            "longitude": -3.7851400375,
            "type": "FP"
        },
        {
            "country_code": "ES",
            "city": "Reus",
            "latitude": 41.1473999023,
            "longitude": 1.1671700478,
            "type": "TP"
        },
        {
            "country_code": "ES",
            "city": "Salamanca",
            "latitude": 40.9520988464,
            "longitude": -5.5019898415,
            "type": "FP"
        },
        {
            "country_code": "FI",
            "city": "Helsinki",
            "latitude": 60.317199707,
            "longitude": 24.963300705,
            "type": "TP"
        },
        {
            "country_code": "FI",
            "city": "Tampere/Pirkkala",
            "latitude": 61.414100647,
            "longitude": 23.6044006348,
            "type": "FP"
        },
        {
            "country_code": "FI",
            "city": "Turku",
            "latitude": 60.5140991211,
            "longitude": 22.2628002167,
            "type": "FP"
        },
        {
            "country_code": "FR",
            "city": "Blois/Le Breuil",
            "latitude": 47.6785011292,
            "longitude": 1.2088400126,
            "type": "FP"
        },
        {
            "country_code": "FR",
            "city": "B\u00e2le/Mulhouse",
            "latitude": 47.5895996094,
            "longitude": 7.5299100876,
            "type": "FP"
        },
        {
            "country_code": "FR",
            "city": "Cambrai/\u00c9pinoy",
            "latitude": 50.2218017578,
            "longitude": 3.154239893,
            "type": "FP"
        },
        {
            "country_code": "FR",
            "city": "Ch\u00e2teauroux/D\u00e9ols",
            "latitude": 46.8622016907,
            "longitude": 1.7306699753,
            "type": "FP"
        },
        {
            "country_code": "FR",
            "city": "Colmar/Houssen",
            "latitude": 48.1099014282,
            "longitude": 7.3590102196,
            "type": "FP"
        },
        {
            "country_code": "FR",
            "city": "Dole/Tavaux",
            "latitude": 47.0390014648,
            "longitude": 5.4272499084,
            "type": "FP"
        },
        {
            "country_code": "FR",
            "city": "Laval/Entrammes",
            "latitude": 48.0313987732,
            "longitude": -0.7429860234,
            "type": "FP"
        },
        {
            "country_code": "FR",
            "city": "Libourne/Artigues-de-Lussac",
            "latitude": 44.9824981689,
            "longitude": -0.1347219944,
            "type": "FP"
        },
        {
            "country_code": "FR",
            "city": "Marseille",
            "latitude": 43.439271922,
            "longitude": 5.2214241028,
            "type": "FN"
        },
        {
            "country_code": "FR",
            "city": "Pontoise",
            "latitude": 49.0965995789,
            "longitude": 2.0408298969,
            "type": "TP"
        },
        {
            "country_code": "GB",
            "city": "Benson",
            "latitude": 51.6164016724,
            "longitude": -1.0958299637,
            "type": "TP"
        },
        {
            "country_code": "GB",
            "city": "Edinburgh",
            "latitude": 55.9500007629,
            "longitude": -3.3724999428,
            "type": "FN"
        },
        {
            "country_code": "GB",
            "city": "Leeds",
            "latitude": 53.8658981323,
            "longitude": -1.6605700254,
            "type": "FP"
        },
        {
            "country_code": "GB",
            "city": "Nottingham",
            "latitude": 52.9199981689,
            "longitude": -1.0791699886,
            "type": "TP"
        },
        {
            "country_code": "GG",
            "city": "Saint Peter Port",
            "latitude": 49.4350013733,
            "longitude": -2.6019699574,
            "type": "FP"
        },
        {
            "country_code": "GR",
            "city": "Athens",
            "latitude": 37.9364013672,
            "longitude": 23.9444999695,
            "type": "TP"
        },
        {
            "country_code": "GR",
            "city": "Souda",
            "latitude": 35.5317001343,
            "longitude": 24.1497001648,
            "type": "FP"
        },
        {
            "country_code": "GR",
            "city": "Thessaloniki",
            "latitude": 40.5196990967,
            "longitude": 22.9708995819,
            "type": "FN"
        },
        {
            "country_code": "HR",
            "city": "Dubrovnik",
            "latitude": 42.5614013672,
            "longitude": 18.2681999207,
            "type": "FP"
        },
        {
            "country_code": "HR",
            "city": "Pula",
            "latitude": 44.8935012817,
            "longitude": 13.9222002029,
            "type": "FP"
        },
        {
            "country_code": "HU",
            "city": "Budapest",
            "latitude": 47.4369010925,
            "longitude": 19.2555999756,
            "type": "TP"
        },
        {
            "country_code": "IE",
            "city": "Cork",
            "latitude": 51.8413009644,
            "longitude": -8.491109848,
            "type": "FN"
        },
        {
            "country_code": "IE",
            "city": "Dublin",
            "latitude": 53.4212989807,
            "longitude": -6.270070076,
            "type": "FN"
        },
        {
            "country_code": "IL",
            "city": "Tel Aviv",
            "latitude": 32.0113983154,
            "longitude": 34.8866996765,
            "type": "OF"
        },
        {
            "country_code": "IS",
            "city": "Reykjav\u00edk",
            "latitude": 63.9850006104,
            "longitude": -22.6056003571,
            "type": "FN"
        },
        {
            "country_code": "IT",
            "city": "Milan",
            "latitude": 45.445098877,
            "longitude": 9.2767400742,
            "type": "TP"
        },
        {
            "country_code": "IT",
            "city": "Olbia",
            "latitude": 40.8987007141,
            "longitude": 9.5176296234,
            "type": "FP"
        },
        {
            "country_code": "IT",
            "city": "Palermo",
            "latitude": 38.1759986877,
            "longitude": 13.0909996033,
            "type": "FN"
        },
        {
            "country_code": "IT",
            "city": "Rome",
            "latitude": 41.8045005798,
            "longitude": 12.2508001328,
            "type": "FN"
        },
        {
            "country_code": "IT",
            "city": "Trieste",
            "latitude": 45.8274993896,
            "longitude": 13.4722003937,
            "type": "FP"
        },
        {
            "country_code": "LB",
            "city": "Beirut",
            "latitude": 33.8208999634,
            "longitude": 35.4883995056,
            "type": "OF"
        },
        {
            "country_code": "LT",
            "city": "Vilnius",
            "latitude": 54.6341018677,
            "longitude": 25.2858009338,
            "type": "TP"
        },
        {
            "country_code": "LU",
            "city": "Luxembourg City",
            "latitude": 49.6265983582,
            "longitude": 6.211520195,
            "type": "FN"
        },
        {
            "country_code": "LV",
            "city": "Riga",
            "latitude": 56.9235992432,
            "longitude": 23.9710998535,
            "type": "TP"
        },
        {
            "country_code": "MD",
            "city": "Chi\u0219in\u0103u",
            "latitude": 46.9277000427,
            "longitude": 28.9309997559,
            "type": "FN"
        },
        {
            "country_code": "N/A",
            "city": "N/A",
            "latitude": 48.1485,
            "longitude": 11.5495,
            "type": "OT"
        },
        {
            "country_code": "N/A",
            "city": "N/A",
            "latitude": 55.7385,
            "longitude": 37.6085,
            "type": "OT"
        },
        {
            "country_code": "N/A",
            "city": "N/A",
            "latitude": 46.3085,
            "longitude": 16.3415,
            "type": "OT"
        },
        {
            "country_code": "N/A",
            "city": "N/A",
            "latitude": 49.2375,
            "longitude": 28.5005,
            "type": "OF"
        },
        {
            "country_code": "N/A",
            "city": "N/A",
            "latitude": 53.4095,
            "longitude": 21.9285,
            "type": "OF"
        },
        {
            "country_code": "NL",
            "city": "Amsterdam",
            "latitude": 52.3086013794,
            "longitude": 4.7638897896,
            "type": "TP"
        },
        {
            "country_code": "NL",
            "city": "Uden",
            "latitude": 51.6563987732,
            "longitude": 5.7086100578,
            "type": "TP"
        },
        {
            "country_code": "NO",
            "city": "Oslo",
            "latitude": 60.193901062,
            "longitude": 11.100399971,
            "type": "FP"
        },
        {
            "country_code": "NO",
            "city": "Rygge",
            "latitude": 59.3788986206,
            "longitude": 10.7855997086,
            "type": "TP"
        },
        {
            "country_code": "NO",
            "city": "\u00d8rsta",
            "latitude": 62.1800003052,
            "longitude": 6.0741000175,
            "type": "FP"
        },
        {
            "country_code": "PL",
            "city": "Warsaw",
            "latitude": 52.1656990051,
            "longitude": 20.9671001434,
            "type": "TP"
        },
        {
            "country_code": "PT",
            "city": "Lisbon",
            "latitude": 38.7812995911,
            "longitude": -9.1359195709,
            "type": "FN"
        },
        {
            "country_code": "RO",
            "city": "Bucharest",
            "latitude": 44.5722007751,
            "longitude": 26.1021995544,
            "type": "TP"
        },
        {
            "country_code": "RO",
            "city": "Craiova",
            "latitude": 44.3180999756,
            "longitude": 23.8885993958,
            "type": "FP"
        },
        {
            "country_code": "RO",
            "city": "Oradea",
            "latitude": 47.0252990723,
            "longitude": 21.9025001526,
            "type": "FP"
        },
        {
            "country_code": "RS",
            "city": "Belgrade",
            "latitude": 44.8184013367,
            "longitude": 20.3090991974,
            "type": "FN"
        },
        {
            "country_code": "RU",
            "city": "Cheboksary",
            "latitude": 56.0903015137,
            "longitude": 47.3473014832,
            "type": "FP"
        },
        {
            "country_code": "RU",
            "city": "St Petersburg",
            "latitude": 59.8003005981,
            "longitude": 30.2625007629,
            "type": "TP"
        },
        {
            "country_code": "RU",
            "city": "Tver",
            "latitude": 56.8246994019,
            "longitude": 35.7577018738,
            "type": "FN"
        },
        {
            "country_code": "RU",
            "city": "Yekaterinburg",
            "latitude": 56.7430992126,
            "longitude": 60.8027000427,
            "type": "FN"
        },
        {
            "country_code": "SE",
            "city": "Gothenburg",
            "latitude": 57.6627998352,
            "longitude": 12.279800415,
            "type": "FN"
        },
        {
            "country_code": "SE",
            "city": "Sk\u00f6vde",
            "latitude": 58.456401825,
            "longitude": 13.972700119,
            "type": "FP"
        },
        {
            "country_code": "SE",
            "city": "Stockholm",
            "latitude": 59.3544006348,
            "longitude": 17.9416999817,
            "type": "TP"
        },
        {
            "country_code": "SK",
            "city": "Pie\u0161\u0165any",
            "latitude": 48.6251983643,
            "longitude": 17.8283996582,
            "type": "TP"
        },
        {
            "country_code": "SK",
            "city": "\u017dilina",
            "latitude": 49.2314987183,
            "longitude": 18.6135005951,
            "type": "FP"
        },
        {
            "country_code": "TR",
            "city": "Bursa",
            "latitude": 40.2551994324,
            "longitude": 29.5625991821,
            "type": "OF"
        },
        {
            "country_code": "UA",
            "city": "Kharkiv",
            "latitude": 49.9248008728,
            "longitude": 36.2900009155,
            "type": "OF"
        },
        {
            "country_code": "UA",
            "city": "Kiev",
            "latitude": 50.4016990662,
            "longitude": 30.4496994019,
            "type": "OT"
        },
        {
            "country_code": "UA",
            "city": "Zaporizhia",
            "latitude": 47.8670005798,
            "longitude": 35.315700531,
            "type": "OF"
        }
    ]
}