{
    "target": "202.12.27.33",
    "probes_filepath": "datasets/probes_sets/North-Central_1000.json",
    "alpha": 0.0,
    "threshold": -1,
    "noise": 0,
    "results_filepath": "datasets/results/campaigns/202.12.27.33_North-Central_20230410_alpha_light-factor_0.18/202.12.27.33_North-Central_1000_52101293_0.0_-1_0.json",
    "gt_filepath": "datasets/ground-truth/root_servers/root_servers_M.json",
    "statistics": {
        "TP": 1,
        "FP": 19,
        "TN": 0,
        "FN": 0,
        "accuracy": 0.05,
        "precision": 0.05,
        "recall": 1.0,
        "f1": 0.09523809523809523,
        "OT": 0,
        "OF": 2
    },
    "instances": [
        {
            "country_code": "BE",
            "city": "Li\u00e8ge",
            "latitude": 50.6374015808,
            "longitude": 5.4432201385,
            "type": "FP"
        },
        {
            "country_code": "DE",
            "city": "Mainz",
            "latitude": 49.9674987793,
            "longitude": 8.1472215652,
            "type": "FP"
        },
        {
            "country_code": "DE",
            "city": "Memmingen",
            "latitude": 47.9888000488,
            "longitude": 10.2395000458,
            "type": "FP"
        },
        {
            "country_code": "DE",
            "city": "Stuttgart",
            "latitude": 48.6898994446,
            "longitude": 9.2219600677,
            "type": "FP"
        },
        {
            "country_code": "EG",
            "city": "Alexandria",
            "latitude": 30.9176998138,
            "longitude": 29.6963996887,
            "type": "OF"
        },
        {
            "country_code": "ES",
            "city": "Pamplona",
            "latitude": 42.7700004578,
            "longitude": -1.646329999,
            "type": "FP"
        },
        {
            "country_code": "FR",
            "city": "Lille/Lesquin",
            "latitude": 50.5619010925,
            "longitude": 3.0894401073,
            "type": "FP"
        },
        {
            "country_code": "FR",
            "city": "Mende/Br\u00e9noux",
            "latitude": 44.5021018982,
            "longitude": 3.5328199863,
            "type": "FP"
        },
        {
            "country_code": "FR",
            "city": "Montauban",
            "latitude": 44.0256996155,
            "longitude": 1.3780399561,
            "type": "FP"
        },
        {
            "country_code": "FR",
            "city": "Morlaix/Ploujean",
            "latitude": 48.6031990051,
            "longitude": -3.8157799244,
            "type": "FP"
        },
        {
            "country_code": "FR",
            "city": "Paris",
            "latitude": 48.9693984985,
            "longitude": 2.4413900375,
            "type": "TP"
        },
        {
            "country_code": "FR",
            "city": "Valenciennes/Denain",
            "latitude": 50.3258018494,
            "longitude": 3.4612600803,
            "type": "FP"
        },
        {
            "country_code": "GB",
            "city": "Bristol",
            "latitude": 51.5194015503,
            "longitude": -2.5908300877,
            "type": "FP"
        },
        {
            "country_code": "GB",
            "city": "Kinloss",
            "latitude": 57.6493988037,
            "longitude": -3.5606400967,
            "type": "FP"
        },
        {
            "country_code": "IT",
            "city": "Comiso",
            "latitude": 36.9946010208,
            "longitude": 14.6071815491,
            "type": "FP"
        },
        {
            "country_code": "IT",
            "city": "Cuneo",
            "latitude": 44.547000885,
            "longitude": 7.6232199669,
            "type": "FP"
        },
        {
            "country_code": "IT",
            "city": "Venice",
            "latitude": 45.5052986145,
            "longitude": 12.3519001007,
            "type": "FP"
        },
        {
            "country_code": "LT",
            "city": "Palanga",
            "latitude": 55.9732017517,
            "longitude": 21.0939006805,
            "type": "FP"
        },
        {
            "country_code": "PL",
            "city": "Poznan",
            "latitude": 52.4005285,
            "longitude": 16.9016658,
            "type": "FP"
        },
        {
            "country_code": "PL",
            "city": "Warsaw",
            "latitude": 52.1656990051,
            "longitude": 20.9671001434,
            "type": "FP"
        },
        {
            "country_code": "PT",
            "city": "Faro",
            "latitude": 37.0144004822,
            "longitude": -7.9659099579,
            "type": "FP"
        },
        {
            "country_code": "SY",
            "city": "Aleppo",
            "latitude": 36.1806983948,
            "longitude": 37.2243995667,
            "type": "OF"
        }
    ]
}