{
    "target": "202.12.27.33",
    "measurement_filepath": "datasets/measurements/campaigns/202.12.27.33_North-Central-section_20230425/202.12.27.33_North-Central-section_2_52655917.json",
    "probes_filepath": "datasets/probes_section/North-Central-section_2.json",
    "alpha": 1,
    "threshold": 30.0,
    "noise": 0,
    "num_anycast_instances": 7,
    "anycast_instances": [
        {
            "marker": {
                "id": "ANE",
                "latitude": 47.5602989197,
                "longitude": -0.3122220039,
                "city": "Angers/Marc\u00e9",
                "country_code": "FR"
            },
            "circle": {
                "id": "31466",
                "latitude": 47.4405,
                "longitude": 0.7005,
                "radius": 176.96156705635448
            }
        },
        {
            "marker": {
                "id": "BNX",
                "latitude": 50.4592018127,
                "longitude": 4.4538202286,
                "city": "Brussels",
                "country_code": "BE"
            },
            "circle": {
                "id": "12829",
                "latitude": 49.2015,
                "longitude": 6.2085,
                "radius": 238.88587275157496
            }
        },
        {
            "marker": {
                "id": "CIA",
                "latitude": 41.7994003296,
                "longitude": 12.5949001312,
                "city": "Rome",
                "country_code": "IT"
            },
            "circle": {
                "id": "53207",
                "latitude": 41.9305,
                "longitude": 8.7875,
                "radius": 585.3478845917517
            }
        },
        {
            "marker": {
                "id": "TRN",
                "latitude": 45.2008018494,
                "longitude": 7.6496300697,
                "city": "Torino",
                "country_code": "IT"
            },
            "circle": {
                "id": "12015",
                "latitude": 45.7195,
                "longitude": 4.8575,
                "radius": 237.45994739915525
            }
        },
        {
            "marker": {
                "id": "BCN",
                "latitude": 41.2971000671,
                "longitude": 2.0784599781,
                "city": "Barcelona",
                "country_code": "ES"
            },
            "circle": {
                "id": "50761",
                "latitude": 43.5975,
                "longitude": 1.4405,
                "radius": 421.74709306296876
            }
        },
        {
            "marker": {
                "id": "LED",
                "latitude": 59.8003005981,
                "longitude": 30.2625007629,
                "city": "St Petersburg",
                "country_code": "RU"
            },
            "circle": {
                "id": "20290",
                "latitude": 60.1275,
                "longitude": 18.6415,
                "radius": 1014.086662412082
            }
        },
        {
            "marker": {
                "id": "TXL",
                "latitude": 52.5597000122,
                "longitude": 13.2876996994,
                "city": "Berlin",
                "country_code": "DE"
            },
            "circle": {
                "id": "15928",
                "latitude": 59.0115,
                "longitude": 6.0685,
                "radius": 866.5368715067906
            }
        }
    ]
}