{
    "target": "202.12.27.33",
    "measurement_filepath": "datasets/measurements/campaigns/202.12.27.33_North-Central-section_20230425/202.12.27.33_North-Central-section_1_52655636.json",
    "probes_filepath": "datasets/probes_section/North-Central-section_1.json",
    "alpha": 1,
    "threshold": 20.0,
    "noise": 0,
    "num_anycast_instances": 8,
    "anycast_instances": [
        {
            "marker": {
                "id": "PAR",
                "latitude": 49.0127983093,
                "longitude": 2.5499999523,
                "city": "Paris",
                "country_code": "FR"
            },
            "circle": {
                "id": "6817",
                "latitude": 48.7905,
                "longitude": 2.4075,
                "radius": 29.42114466537575
            }
        },
        {
            "marker": {
                "id": "BQH",
                "latitude": 51.3307991028,
                "longitude": 0.0324999988,
                "city": "London",
                "country_code": "GB"
            },
            "circle": {
                "id": "22480",
                "latitude": 49.6375,
                "longitude": -1.6085,
                "radius": 273.72636568021676
            }
        },
        {
            "marker": {
                "id": "MUC",
                "latitude": 48.3538017273,
                "longitude": 11.7861003876,
                "city": "Munich",
                "country_code": "DE"
            },
            "circle": {
                "id": "1000114",
                "latitude": 48.9995,
                "longitude": 8.3775,
                "radius": 280.14027542289773
            }
        },
        {
            "marker": {
                "id": "ECV",
                "latitude": 40.3707008362,
                "longitude": -3.7851400375,
                "city": "Madrid",
                "country_code": "ES"
            },
            "circle": {
                "id": "3748",
                "latitude": 40.4915,
                "longitude": -3.6905,
                "radius": 668.244733797221
            }
        },
        {
            "marker": {
                "id": "NTE",
                "latitude": 47.1531982422,
                "longitude": -1.610730052,
                "city": "Nantes",
                "country_code": "FR"
            },
            "circle": {
                "id": "13467",
                "latitude": 47.5705,
                "longitude": -0.4195,
                "radius": 220.55854799448926
            }
        },
        {
            "marker": {
                "id": "CIA",
                "latitude": 41.7994003296,
                "longitude": 12.5949001312,
                "city": "Rome",
                "country_code": "IT"
            },
            "circle": {
                "id": "53207",
                "latitude": 41.9305,
                "longitude": 8.7875,
                "radius": 603.0418977813124
            }
        },
        {
            "marker": {
                "id": "TRN",
                "latitude": 45.2008018494,
                "longitude": 7.6496300697,
                "city": "Torino",
                "country_code": "IT"
            },
            "circle": {
                "id": "29310",
                "latitude": 45.5175,
                "longitude": 4.2175,
                "radius": 318.60690802727845
            }
        },
        {
            "marker": {
                "id": "SXF",
                "latitude": 52.3800010681,
                "longitude": 13.5225000381,
                "city": "Berlin",
                "country_code": "DE"
            },
            "circle": {
                "id": "14087",
                "latitude": 55.7105,
                "longitude": 12.5715,
                "radius": 709.437416696253
            }
        }
    ]
}