{
    "target": "198.97.190.53",
    "measurement_filepath": "datasets/measurements/campaigns/198.97.190.53_North-Central_20230410/198.97.190.53_North-Central_100_52071700.json",
    "probes_filepath": "datasets/probes_sets/North-Central_100.json",
    "alpha": 0.0,
    "threshold": -1,
    "noise": 0,
    "num_anycast_instances": 11,
    "anycast_instances": [
        {
            "marker": {
                "id": "OXF",
                "latitude": 51.8368988037,
                "longitude": -1.3200000525,
                "city": "Kidlington",
                "country_code": "GB"
            },
            "circle": {
                "id": "1005027",
                "latitude": 51.5405,
                "longitude": -0.6715,
                "radius": 55.921636256801
            }
        },
        {
            "marker": {
                "id": "ODH",
                "latitude": 51.2341003418,
                "longitude": -0.9428250194,
                "city": "Odiham",
                "country_code": "GB"
            },
            "circle": {
                "id": "1005333",
                "latitude": 51.5185,
                "longitude": -0.0915,
                "radius": 67.0248246794035
            }
        },
        {
            "marker": {
                "id": "DEX",
                "latitude": 50.121212,
                "longitude": 8.6365638,
                "city": "Frankfurt-am-Main",
                "country_code": "DE"
            },
            "circle": {
                "id": "1005265",
                "latitude": 51.2995,
                "longitude": 9.4905,
                "radius": 145.06848367853974
            }
        },
        {
            "marker": {
                "id": "LTQ",
                "latitude": 50.5173988342,
                "longitude": 1.6205899715,
                "city": "Le Touquet-Paris-Plage",
                "country_code": "FR"
            },
            "circle": {
                "id": "1002815",
                "latitude": 52.3895,
                "longitude": 4.8475,
                "radius": 309.8173304252337
            }
        },
        {
            "marker": {
                "id": "RNE",
                "latitude": 46.0583000183,
                "longitude": 4.0013899803,
                "city": "Roanne/Renaison",
                "country_code": "FR"
            },
            "circle": {
                "id": "15430",
                "latitude": 46.1675,
                "longitude": 8.7985,
                "radius": 373.57168170625795
            }
        },
        {
            "marker": {
                "id": "FEL",
                "latitude": 48.2055549622,
                "longitude": 11.2669439316,
                "city": "F\u00fcrstenfeldbruck",
                "country_code": "DE"
            },
            "circle": {
                "id": "1004882",
                "latitude": 49.4385,
                "longitude": 11.0215,
                "radius": 146.604657707389
            }
        },
        {
            "marker": {
                "id": "CSB",
                "latitude": 45.4199981689,
                "longitude": 22.2532997131,
                "city": "Caransebe\u015f",
                "country_code": "RO"
            },
            "circle": {
                "id": "1004857",
                "latitude": 53.8905,
                "longitude": 27.5295,
                "radius": 1020.0957399142912
            }
        },
        {
            "marker": {
                "id": "CGN",
                "latitude": 50.8658981323,
                "longitude": 7.1427397728,
                "city": "Cologne",
                "country_code": "DE"
            },
            "circle": {
                "id": "60120",
                "latitude": 54.8875,
                "longitude": 9.6685,
                "radius": 482.88500566679795
            }
        },
        {
            "marker": {
                "id": "STW",
                "latitude": 45.1091995239,
                "longitude": 42.1128005981,
                "city": "Stavropol",
                "country_code": "RU"
            },
            "circle": {
                "id": "54054",
                "latitude": 55.6995,
                "longitude": 37.6895,
                "radius": 1220.6518353185627
            }
        },
        {
            "marker": {
                "id": "HAM",
                "latitude": 53.6304016113,
                "longitude": 9.9882297516,
                "city": "Hamburg",
                "country_code": "DE"
            },
            "circle": {
                "id": "51554",
                "latitude": 55.9495,
                "longitude": 25.5795,
                "radius": 1034.0279198668109
            }
        },
        {
            "marker": {
                "id": "SRP",
                "latitude": 59.7919006348,
                "longitude": 5.3408498764,
                "city": "Leirvik",
                "country_code": "NO"
            },
            "circle": {
                "id": "62763",
                "latitude": 64.1485,
                "longitude": -21.9295,
                "radius": 1500.2235918189206
            }
        }
    ]
}