{
    "target": "198.97.190.53",
    "probes_filepath": "datasets/probes_sets/North-Central_300.json",
    "alpha": 1,
    "threshold": 5.0,
    "noise": 0,
    "results_filepath": "datasets/results/campaigns/198.97.190.53_North-Central_20230410_threshold_light-factor_0.18/198.97.190.53_North-Central_300_52071713_1_5.0_0.json",
    "gt_filepath": "datasets/ground-truth/root_servers/root_servers_H.json",
    "statistics": {
        "TP": 2,
        "FP": 3,
        "TN": 0,
        "FN": 0,
        "accuracy": 0.4,
        "precision": 0.4,
        "recall": 1.0,
        "f1": 0.5714285714285715,
        "OT": 0,
        "OF": 0
    },
    "instances": [
        {
            "country_code": "DE",
            "city": "Frankfurt-am-Main",
            "latitude": 50.121212,
            "longitude": 8.6365638,
            "type": "TP"
        },
        {
            "country_code": "DE",
            "city": "Stuttgart",
            "latitude": 48.6898994446,
            "longitude": 9.2219600677,
            "type": "FP"
        },
        {
            "country_code": "FR",
            "city": "Calais/Dunkerque",
            "latitude": 50.9621009827,
            "longitude": 1.9547599554,
            "type": "FP"
        },
        {
            "country_code": "FR",
            "city": "Paris",
            "latitude": 49.0127983093,
            "longitude": 2.5499999523,
            "type": "FP"
        },
        {
            "country_code": "GB",
            "city": "London",
            "latitude": 51.3307991028,
            "longitude": 0.0324999988,
            "type": "TP"
        }
    ]
}