{
    "target": "198.41.0.4",
    "probes_filepath": "datasets/probes_section/North-Central-section_1.json",
    "alpha": 0.0,
    "threshold": -1,
    "noise": 0,
    "results_filepath": "datasets/results/campaigns/198.41.0.4_North-Central-section_20230425_alpha_light-factor_0.18/198.41.0.4_North-Central-section_1_52638506_0.0_-1_0.json",
    "gt_filepath": "datasets/ground-truth/root_servers/root_servers_A.json",
    "statistics": {
        "TP": 3,
        "FP": 28,
        "TN": 0,
        "FN": 3,
        "accuracy": 0.08823529411764706,
        "precision": 0.0967741935483871,
        "recall": 0.5,
        "f1": 0.16216216216216214,
        "OT": 0,
        "OF": 0
    },
    "instances": [
        {
            "country_code": "BY",
            "city": "Mogilev",
            "latitude": 53.9548988342,
            "longitude": 30.0951004028,
            "type": "FP"
        },
        {
            "country_code": "CH",
            "city": "Geneva",
            "latitude": 46.204705,
            "longitude": 6.1431301,
            "type": "FP"
        },
        {
            "country_code": "DE",
            "city": "Frankfurt",
            "latitude": 50.1109221,
            "longitude": 8.6821267,
            "type": "FN"
        },
        {
            "country_code": "DE",
            "city": "Manching",
            "latitude": 48.7156982422,
            "longitude": 11.5340003967,
            "type": "FP"
        },
        {
            "country_code": "DK",
            "city": "Odense",
            "latitude": 55.4766998291,
            "longitude": 10.3309001923,
            "type": "FP"
        },
        {
            "country_code": "ES",
            "city": "Girona",
            "latitude": 41.9010009766,
            "longitude": 2.7605500221,
            "type": "FP"
        },
        {
            "country_code": "FI",
            "city": "Enontekio",
            "latitude": 68.3626022339,
            "longitude": 23.4242992401,
            "type": "FP"
        },
        {
            "country_code": "FR",
            "city": "Amiens/Glisy",
            "latitude": 49.8730010986,
            "longitude": 2.3870699406,
            "type": "FP"
        },
        {
            "country_code": "FR",
            "city": "Caen/Carpiquet",
            "latitude": 49.1733016968,
            "longitude": -0.4499999881,
            "type": "FP"
        },
        {
            "country_code": "FR",
            "city": "Dole/Tavaux",
            "latitude": 47.0390014648,
            "longitude": 5.4272499084,
            "type": "FP"
        },
        {
            "country_code": "FR",
            "city": "Marseille",
            "latitude": 43.2961743,
            "longitude": 5.3699525,
            "type": "FN"
        },
        {
            "country_code": "FR",
            "city": "Paris",
            "latitude": 48.856614,
            "longitude": 2.3522219,
            "type": "FN"
        },
        {
            "country_code": "FR",
            "city": "Poitiers/Biard",
            "latitude": 46.5876998901,
            "longitude": 0.3066659868,
            "type": "FP"
        },
        {
            "country_code": "GB",
            "city": "Birmingham",
            "latitude": 52.4538993835,
            "longitude": -1.7480299473,
            "type": "FP"
        },
        {
            "country_code": "GB",
            "city": "Campbeltown",
            "latitude": 55.4371986389,
            "longitude": -5.6863899231,
            "type": "FP"
        },
        {
            "country_code": "GB",
            "city": "Odiham",
            "latitude": 51.2341003418,
            "longitude": -0.9428250194,
            "type": "TP"
        },
        {
            "country_code": "GB",
            "city": "St. Andrews",
            "latitude": 56.3728981018,
            "longitude": -2.8684399128,
            "type": "FP"
        },
        {
            "country_code": "GE",
            "city": "Batumi",
            "latitude": 41.6102981567,
            "longitude": 41.5997009277,
            "type": "FP"
        },
        {
            "country_code": "HR",
            "city": "Rijeka",
            "latitude": 45.2168998718,
            "longitude": 14.5703001022,
            "type": "FP"
        },
        {
            "country_code": "IS",
            "city": "Egilssta\u00f0ir",
            "latitude": 65.2833023071,
            "longitude": -14.4013996124,
            "type": "FP"
        },
        {
            "country_code": "IT",
            "city": "Olbia",
            "latitude": 40.8987007141,
            "longitude": 9.5176296234,
            "type": "FP"
        },
        {
            "country_code": "MA",
            "city": "Tangier",
            "latitude": 35.7268981934,
            "longitude": -5.9168901444,
            "type": "FP"
        },
        {
            "country_code": "N/A",
            "city": "N/A",
            "latitude": 60.1475,
            "longitude": 19.9475,
            "type": "FP"
        },
        {
            "country_code": "NL",
            "city": "Eindhoven",
            "latitude": 51.4500999451,
            "longitude": 5.3745298386,
            "type": "FP"
        },
        {
            "country_code": "NL",
            "city": "Lelystad",
            "latitude": 52.4603004456,
            "longitude": 5.5272197723,
            "type": "TP"
        },
        {
            "country_code": "NO",
            "city": "R\u00f8ros",
            "latitude": 62.5783996582,
            "longitude": 11.342300415,
            "type": "FP"
        },
        {
            "country_code": "RU",
            "city": "St Petersburg",
            "latitude": 59.8003005981,
            "longitude": 30.2625007629,
            "type": "FP"
        },
        {
            "country_code": "SE",
            "city": "Lidk\u00f6ping",
            "latitude": 58.4654998779,
            "longitude": 13.1744003296,
            "type": "FP"
        },
        {
            "country_code": "SE",
            "city": "Stockholm",
            "latitude": 59.3544006348,
            "longitude": 17.9416999817,
            "type": "TP"
        },
        {
            "country_code": "SE",
            "city": "Trollh\u00e4ttan",
            "latitude": 58.3180999756,
            "longitude": 12.345000267,
            "type": "FP"
        },
        {
            "country_code": "SE",
            "city": "Visby",
            "latitude": 57.6627998352,
            "longitude": 18.346200943,
            "type": "FP"
        },
        {
            "country_code": "SE",
            "city": "\u00d6rebro",
            "latitude": 59.2237014771,
            "longitude": 15.0380001068,
            "type": "FP"
        },
        {
            "country_code": "SK",
            "city": "Bratislava",
            "latitude": 48.1702003479,
            "longitude": 17.2126998901,
            "type": "FP"
        },
        {
            "country_code": "TR",
            "city": "Amasya",
            "latitude": 40.8293991089,
            "longitude": 35.5219993591,
            "type": "FP"
        }
    ]
}