{
    "target": "198.41.0.4",
    "probes_filepath": "datasets/probes_section/North-Central-section_1.json",
    "alpha": 0.1,
    "threshold": -1,
    "noise": 0,
    "results_filepath": "datasets/results/campaigns/198.41.0.4_North-Central-section_20230425_alpha_light-factor_0.18/198.41.0.4_North-Central-section_1_52638506_0.1_-1_0.json",
    "gt_filepath": "datasets/ground-truth/root_servers/root_servers_A.json",
    "statistics": {
        "TP": 3,
        "FP": 30,
        "TN": 0,
        "FN": 3,
        "accuracy": 0.08333333333333333,
        "precision": 0.09090909090909091,
        "recall": 0.5,
        "f1": 0.15384615384615385,
        "OT": 0,
        "OF": 1
    },
    "instances": [
        {
            "country_code": "CZ",
            "city": "Prague",
            "latitude": 50.1007995605,
            "longitude": 14.2600002289,
            "type": "FP"
        },
        {
            "country_code": "DE",
            "city": "Frankfurt",
            "latitude": 50.1109221,
            "longitude": 8.6821267,
            "type": "FN"
        },
        {
            "country_code": "DE",
            "city": "Munich",
            "latitude": 48.3538017273,
            "longitude": 11.7861003876,
            "type": "FP"
        },
        {
            "country_code": "DK",
            "city": "Odense",
            "latitude": 55.4766998291,
            "longitude": 10.3309001923,
            "type": "FP"
        },
        {
            "country_code": "DZ",
            "city": "Algiers",
            "latitude": 36.6910018921,
            "longitude": 3.2154099941,
            "type": "FP"
        },
        {
            "country_code": "DZ",
            "city": "S\u00e9tif",
            "latitude": 36.1781005859,
            "longitude": 5.3244900703,
            "type": "FP"
        },
        {
            "country_code": "ES",
            "city": "Madrid",
            "latitude": 40.4967002869,
            "longitude": -3.4458699226,
            "type": "FP"
        },
        {
            "country_code": "FI",
            "city": "Pori",
            "latitude": 61.4617004395,
            "longitude": 21.7999992371,
            "type": "FP"
        },
        {
            "country_code": "FR",
            "city": "Amiens/Glisy",
            "latitude": 49.8730010986,
            "longitude": 2.3870699406,
            "type": "FP"
        },
        {
            "country_code": "FR",
            "city": "Dole/Tavaux",
            "latitude": 47.0390014648,
            "longitude": 5.4272499084,
            "type": "FP"
        },
        {
            "country_code": "FR",
            "city": "Marseille",
            "latitude": 43.2961743,
            "longitude": 5.3699525,
            "type": "FN"
        },
        {
            "country_code": "FR",
            "city": "Nantes",
            "latitude": 47.1531982422,
            "longitude": -1.610730052,
            "type": "FP"
        },
        {
            "country_code": "FR",
            "city": "Paris",
            "latitude": 48.856614,
            "longitude": 2.3522219,
            "type": "FN"
        },
        {
            "country_code": "FR",
            "city": "Tours/Val de Loire (Loire Valley)",
            "latitude": 47.4322013855,
            "longitude": 0.7276059985,
            "type": "FP"
        },
        {
            "country_code": "GB",
            "city": "Belfast",
            "latitude": 54.6575012207,
            "longitude": -6.2158298492,
            "type": "FP"
        },
        {
            "country_code": "GB",
            "city": "Birmingham",
            "latitude": 52.4538993835,
            "longitude": -1.7480299473,
            "type": "FP"
        },
        {
            "country_code": "GB",
            "city": "Odiham",
            "latitude": 51.2341003418,
            "longitude": -0.9428250194,
            "type": "TP"
        },
        {
            "country_code": "IS",
            "city": "Egilssta\u00f0ir",
            "latitude": 65.2833023071,
            "longitude": -14.4013996124,
            "type": "FP"
        },
        {
            "country_code": "IT",
            "city": "Milan",
            "latitude": 45.6305999756,
            "longitude": 8.7281103134,
            "type": "FP"
        },
        {
            "country_code": "IT",
            "city": "Palermo",
            "latitude": 38.1759986877,
            "longitude": 13.0909996033,
            "type": "FP"
        },
        {
            "country_code": "IT",
            "city": "Torino",
            "latitude": 45.2008018494,
            "longitude": 7.6496300697,
            "type": "FP"
        },
        {
            "country_code": "MA",
            "city": "Casablanca",
            "latitude": 33.3675003052,
            "longitude": -7.5899701118,
            "type": "FP"
        },
        {
            "country_code": "N/A",
            "city": "N/A",
            "latitude": 60.1475,
            "longitude": 19.9475,
            "type": "FP"
        },
        {
            "country_code": "NL",
            "city": "Eindhoven",
            "latitude": 51.4500999451,
            "longitude": 5.3745298386,
            "type": "FP"
        },
        {
            "country_code": "NL",
            "city": "Lelystad",
            "latitude": 52.4603004456,
            "longitude": 5.5272197723,
            "type": "TP"
        },
        {
            "country_code": "NO",
            "city": "R\u00f8ros",
            "latitude": 62.5783996582,
            "longitude": 11.342300415,
            "type": "FP"
        },
        {
            "country_code": "PL",
            "city": "Warsaw",
            "latitude": 52.1656990051,
            "longitude": 20.9671001434,
            "type": "FP"
        },
        {
            "country_code": "RU",
            "city": "Kazan",
            "latitude": 55.6062011719,
            "longitude": 49.2787017822,
            "type": "OF"
        },
        {
            "country_code": "RU",
            "city": "Moscow",
            "latitude": 55.9725990295,
            "longitude": 37.4146003723,
            "type": "FP"
        },
        {
            "country_code": "RU",
            "city": "St Petersburg",
            "latitude": 59.8003005981,
            "longitude": 30.2625007629,
            "type": "FP"
        },
        {
            "country_code": "SE",
            "city": "Gothenburg",
            "latitude": 57.7747001648,
            "longitude": 11.8704004288,
            "type": "FP"
        },
        {
            "country_code": "SE",
            "city": "Lidk\u00f6ping",
            "latitude": 58.4654998779,
            "longitude": 13.1744003296,
            "type": "FP"
        },
        {
            "country_code": "SE",
            "city": "Stockholm",
            "latitude": 59.3544006348,
            "longitude": 17.9416999817,
            "type": "TP"
        },
        {
            "country_code": "SE",
            "city": "Visby",
            "latitude": 57.6627998352,
            "longitude": 18.346200943,
            "type": "FP"
        },
        {
            "country_code": "SE",
            "city": "\u00d6rebro",
            "latitude": 59.2237014771,
            "longitude": 15.0380001068,
            "type": "FP"
        },
        {
            "country_code": "SE",
            "city": "\u00d6rnsk\u00f6ldsvik",
            "latitude": 63.4082984924,
            "longitude": 18.9899997711,
            "type": "FP"
        },
        {
            "country_code": "TR",
            "city": "Istanbul",
            "latitude": 40.898601532,
            "longitude": 29.3092002869,
            "type": "FP"
        }
    ]
}