{
    "target": "198.41.0.4",
    "probes_filepath": "datasets/probes_section/North-Central-section_1.json",
    "alpha": 0.5,
    "threshold": -1,
    "noise": 0,
    "results_filepath": "datasets/results/campaigns/198.41.0.4_North-Central-section_20230425_alpha_light-factor_0.40/198.41.0.4_North-Central-section_1_52638506_0.5_-1_0.json",
    "gt_filepath": "datasets/ground-truth/root_servers/root_servers_A.json",
    "statistics": {
        "TP": 3,
        "FP": 6,
        "TN": 0,
        "FN": 3,
        "accuracy": 0.25,
        "precision": 0.3333333333333333,
        "recall": 0.5,
        "f1": 0.4,
        "OT": 0,
        "OF": 0
    },
    "instances": [
        {
            "country_code": "BE",
            "city": "Brussels",
            "latitude": 50.9014015198,
            "longitude": 4.4844398499,
            "type": "FP"
        },
        {
            "country_code": "DE",
            "city": "Dortmund",
            "latitude": 51.5182991028,
            "longitude": 7.6122398377,
            "type": "FP"
        },
        {
            "country_code": "DE",
            "city": "Frankfurt",
            "latitude": 50.1109221,
            "longitude": 8.6821267,
            "type": "FN"
        },
        {
            "country_code": "FR",
            "city": "Marseille",
            "latitude": 43.2961743,
            "longitude": 5.3699525,
            "type": "FN"
        },
        {
            "country_code": "FR",
            "city": "Paris",
            "latitude": 49.0127983093,
            "longitude": 2.5499999523,
            "type": "TP"
        },
        {
            "country_code": "GB",
            "city": "London",
            "latitude": 51.8746986389,
            "longitude": -0.3683330119,
            "type": "TP"
        },
        {
            "country_code": "IE",
            "city": "Dublin",
            "latitude": 53.4212989807,
            "longitude": -6.270070076,
            "type": "FP"
        },
        {
            "country_code": "IT",
            "city": "Milan",
            "latitude": 45.6305999756,
            "longitude": 8.7281103134,
            "type": "FP"
        },
        {
            "country_code": "NL",
            "city": "Amsterdam",
            "latitude": 52.3702157,
            "longitude": 4.8951679,
            "type": "FN"
        },
        {
            "country_code": "RU",
            "city": "St Petersburg",
            "latitude": 59.8003005981,
            "longitude": 30.2625007629,
            "type": "FP"
        },
        {
            "country_code": "SE",
            "city": "Eskilstuna",
            "latitude": 59.3511009216,
            "longitude": 16.7084007263,
            "type": "TP"
        },
        {
            "country_code": "TR",
            "city": "Istanbul",
            "latitude": 40.9768981934,
            "longitude": 28.8145999908,
            "type": "FP"
        }
    ]
}