{
    "target": "192.203.230.10",
    "measurement_filepath": "datasets/measurements/campaigns/192.203.230.10_North-Central_20230410/192.203.230.10_North-Central_1000_52070426.json",
    "probes_filepath": "datasets/probes_sets/North-Central_1000.json",
    "alpha": 1,
    "threshold": 0.5,
    "noise": 0,
    "num_anycast_instances": 5,
    "anycast_instances": [
        {
            "marker": {
                "id": "BBU",
                "latitude": 44.503200531,
                "longitude": 26.1021003723,
                "city": "Bucharest",
                "country_code": "RO"
            },
            "circle": {
                "id": "13315",
                "latitude": 44.4595,
                "longitude": 26.1275,
                "radius": 14.15189035017625
            }
        },
        {
            "marker": {
                "id": "LCY",
                "latitude": 51.5052986145,
                "longitude": 0.0552779995,
                "city": "London",
                "country_code": "GB"
            },
            "circle": {
                "id": "7081",
                "latitude": 51.5075,
                "longitude": 0.0015,
                "radius": 16.27494558961775
            }
        },
        {
            "marker": {
                "id": "VNO",
                "latitude": 54.6341018677,
                "longitude": 25.2858009338,
                "city": "Vilnius",
                "country_code": "LT"
            },
            "circle": {
                "id": "19789",
                "latitude": 54.7215,
                "longitude": 25.2915,
                "radius": 16.88374912370125
            }
        },
        {
            "marker": {
                "id": "LBG",
                "latitude": 48.9693984985,
                "longitude": 2.4413900375,
                "city": "Paris",
                "country_code": "FR"
            },
            "circle": {
                "id": "22872",
                "latitude": 48.8585,
                "longitude": 2.3805,
                "radius": 17.22723633245475
            }
        },
        {
            "marker": {
                "id": "MAN",
                "latitude": 53.3536987305,
                "longitude": -2.2749500275,
                "city": "Manchester",
                "country_code": "GB"
            },
            "circle": {
                "id": "23365",
                "latitude": 53.4595,
                "longitude": -2.2395,
                "radius": 18.17315648555925
            }
        }
    ]
}