{
    "target": "192.33.4.12",
    "measurement_filepath": "datasets/measurements/campaigns/192.33.4.12_North-Central_20230410/192.33.4.12_North-Central_100_52069786.json",
    "probes_filepath": "datasets/probes_sets/North-Central_100.json",
    "alpha": 0.0,
    "threshold": -1,
    "noise": 0,
    "num_anycast_instances": 12,
    "anycast_instances": [
        {
            "marker": {
                "id": "QEF",
                "latitude": 49.9599990845,
                "longitude": 8.6458330154,
                "city": "Egelsbach",
                "country_code": "DE"
            },
            "circle": {
                "id": "1004809",
                "latitude": 50.1015,
                "longitude": 8.6275,
                "radius": 20.948597587665997
            }
        },
        {
            "marker": {
                "id": "AUF",
                "latitude": 47.8502006531,
                "longitude": 3.49710989,
                "city": "Auxerre/Branches",
                "country_code": "FR"
            },
            "circle": {
                "id": "12392",
                "latitude": 48.8485,
                "longitude": 2.6415,
                "radius": 155.375235962408
            }
        },
        {
            "marker": {
                "id": "KLU",
                "latitude": 46.6425018311,
                "longitude": 14.3376998901,
                "city": "Klagenfurt am W\u00f6rthersee",
                "country_code": "AT"
            },
            "circle": {
                "id": "62877",
                "latitude": 48.0505,
                "longitude": 14.5105,
                "radius": 189.150753658062
            }
        },
        {
            "marker": {
                "id": "NWI",
                "latitude": 52.6758003235,
                "longitude": 1.2827800512,
                "city": "Norwich",
                "country_code": "GB"
            },
            "circle": {
                "id": "1004432",
                "latitude": 51.0185,
                "longitude": 2.1585,
                "radius": 194.08702384931823
            }
        },
        {
            "marker": {
                "id": "BIQ",
                "latitude": 43.4683990479,
                "longitude": -1.5233199596,
                "city": "Biarritz/Anglet/Bayonne",
                "country_code": "FR"
            },
            "circle": {
                "id": "23268",
                "latitude": 41.6515,
                "longitude": -0.8895,
                "radius": 211.53531964549077
            }
        },
        {
            "marker": {
                "id": "VBS",
                "latitude": 45.4289016724,
                "longitude": 10.3305997849,
                "city": "Brescia",
                "country_code": "IT"
            },
            "circle": {
                "id": "61988",
                "latitude": 47.4915,
                "longitude": 8.7215,
                "radius": 260.39257147386525
            }
        },
        {
            "marker": {
                "id": "FRZ",
                "latitude": 51.1146,
                "longitude": 9.286,
                "city": "Fritzlar",
                "country_code": "DE"
            },
            "circle": {
                "id": "13297",
                "latitude": 55.7105,
                "longitude": 12.5215,
                "radius": 559.538939252818
            }
        },
        {
            "marker": {
                "id": "LBG",
                "latitude": 48.9693984985,
                "longitude": 2.4413900375,
                "city": "Paris",
                "country_code": "FR"
            },
            "circle": {
                "id": "50554",
                "latitude": 50.8495,
                "longitude": 4.7295,
                "radius": 269.26515411271873
            }
        },
        {
            "marker": {
                "id": "ILZ",
                "latitude": 49.2314987183,
                "longitude": 18.6135005951,
                "city": "\u017dilina",
                "country_code": "SK"
            },
            "circle": {
                "id": "53200",
                "latitude": 49.9475,
                "longitude": 14.6875,
                "radius": 300.96974298256595
            }
        },
        {
            "marker": {
                "id": "CND",
                "latitude": 44.3622016907,
                "longitude": 28.4883003235,
                "city": "Constan\u0163a",
                "country_code": "RO"
            },
            "circle": {
                "id": "1005121",
                "latitude": 50.5075,
                "longitude": 30.4985,
                "radius": 700.6331117897091
            }
        },
        {
            "marker": {
                "id": "MME",
                "latitude": 54.5092010498,
                "longitude": -1.4294099808,
                "city": "Durham",
                "country_code": "GB"
            },
            "circle": {
                "id": "1001345",
                "latitude": 59.9395,
                "longitude": 10.7095,
                "radius": 947.728950899843
            }
        },
        {
            "marker": {
                "id": "CEE",
                "latitude": 59.273601532,
                "longitude": 38.0158004761,
                "city": "Cherepovets",
                "country_code": "RU"
            },
            "circle": {
                "id": "1002211",
                "latitude": 62.3875,
                "longitude": 17.3075,
                "radius": 1178.104165457485
            }
        }
    ]
}