{
    "target": "192.5.5.241",
    "probes_filepath": "datasets/probes_section/North-Central-section_2.json",
    "alpha": 0.1,
    "threshold": -1,
    "noise": 0,
    "results_filepath": "datasets/results/campaigns/192.5.5.241_North-Central-section_20230425_alpha_light-factor_0.35/192.5.5.241_North-Central-section_2_52650064_0.1_-1_0.json",
    "gt_filepath": "datasets/ground-truth/root_servers/root_servers_F.json",
    "statistics": {
        "TP": 25,
        "FP": 15,
        "TN": 0,
        "FN": 43,
        "accuracy": 0.30120481927710846,
        "precision": 0.625,
        "recall": 0.36764705882352944,
        "f1": 0.46296296296296297,
        "OT": 0,
        "OF": 0
    },
    "instances": [
        {
            "country_code": "AL",
            "city": "Tirana",
            "latitude": 41.4147,
            "longitude": 19.7206,
            "type": "FN"
        },
        {
            "country_code": "AM",
            "city": "Yerevan",
            "latitude": 40.1473007202,
            "longitude": 44.3959007263,
            "type": "TP"
        },
        {
            "country_code": "AT",
            "city": "Vienna",
            "latitude": 48.1102981567,
            "longitude": 16.5697002411,
            "type": "TP"
        },
        {
            "country_code": "BE",
            "city": "Brussels",
            "latitude": 50.901402,
            "longitude": 4.48444,
            "type": "FN"
        },
        {
            "country_code": "BG",
            "city": "Sofia",
            "latitude": 42.6966934204,
            "longitude": 23.4114360809,
            "type": "TP"
        },
        {
            "country_code": "BG",
            "city": "Varna",
            "latitude": 43.2321014404,
            "longitude": 27.8250999451,
            "type": "FP"
        },
        {
            "country_code": "BY",
            "city": "Minsk",
            "latitude": 53.9006,
            "longitude": 27.599,
            "type": "FN"
        },
        {
            "country_code": "CH",
            "city": "Geneva",
            "latitude": 46.238098,
            "longitude": 6.10895,
            "type": "FN"
        },
        {
            "country_code": "CH",
            "city": "Zurich",
            "latitude": 47.464699,
            "longitude": 8.54917,
            "type": "FN"
        },
        {
            "country_code": "CY",
            "city": "Nicosia",
            "latitude": 34.875099,
            "longitude": 33.624901,
            "type": "FN"
        },
        {
            "country_code": "CZ",
            "city": "Prague",
            "latitude": 50.1007995605,
            "longitude": 14.2600002289,
            "type": "TP"
        },
        {
            "country_code": "DE",
            "city": "Berlin",
            "latitude": 52.365284,
            "longitude": 13.5133345,
            "type": "FN"
        },
        {
            "country_code": "DE",
            "city": "Dusseldorf",
            "latitude": 51.289501,
            "longitude": 6.76678,
            "type": "FN"
        },
        {
            "country_code": "DE",
            "city": "Hamburg",
            "latitude": 53.6304016113,
            "longitude": 9.9882297516,
            "type": "TP"
        },
        {
            "country_code": "DE",
            "city": "Mannheim",
            "latitude": 49.4730567932,
            "longitude": 8.514166832,
            "type": "TP"
        },
        {
            "country_code": "DE",
            "city": "Munich",
            "latitude": 48.353802,
            "longitude": 11.7861,
            "type": "FN"
        },
        {
            "country_code": "DK",
            "city": "Copenhagen",
            "latitude": 55.6179008484,
            "longitude": 12.6560001373,
            "type": "TP"
        },
        {
            "country_code": "DZ",
            "city": "Algiers",
            "latitude": 36.691002,
            "longitude": 3.21541,
            "type": "FN"
        },
        {
            "country_code": "EE",
            "city": "Tallinn",
            "latitude": 59.4132995605,
            "longitude": 24.8327999115,
            "type": "TP"
        },
        {
            "country_code": "EE",
            "city": "Tartu",
            "latitude": 58.3074989319,
            "longitude": 26.6903991699,
            "type": "FP"
        },
        {
            "country_code": "ES",
            "city": "Albacete",
            "latitude": 38.9485015869,
            "longitude": -1.8635200262,
            "type": "FP"
        },
        {
            "country_code": "ES",
            "city": "Barcelona",
            "latitude": 41.30303,
            "longitude": 2.07593,
            "type": "FN"
        },
        {
            "country_code": "ES",
            "city": "Madrid",
            "latitude": 40.46515,
            "longitude": -3.570209,
            "type": "FN"
        },
        {
            "country_code": "FI",
            "city": "Helsinki",
            "latitude": 60.1733244,
            "longitude": 24.9410248,
            "type": "TP"
        },
        {
            "country_code": "FR",
            "city": "Laval/Entrammes",
            "latitude": 48.0313987732,
            "longitude": -0.7429860234,
            "type": "FP"
        },
        {
            "country_code": "FR",
            "city": "Marseille",
            "latitude": 43.439272,
            "longitude": 5.221424,
            "type": "FN"
        },
        {
            "country_code": "FR",
            "city": "Montpellier/M\u00e9diterran\u00e9e",
            "latitude": 43.5761985779,
            "longitude": 3.9630100727,
            "type": "FP"
        },
        {
            "country_code": "FR",
            "city": "Paris",
            "latitude": 49.012798,
            "longitude": 2.55,
            "type": "FN"
        },
        {
            "country_code": "GB",
            "city": "Edinburgh",
            "latitude": 55.950001,
            "longitude": -3.3725,
            "type": "FN"
        },
        {
            "country_code": "GB",
            "city": "London",
            "latitude": 51.8849983215,
            "longitude": 0.2349999994,
            "type": "TP"
        },
        {
            "country_code": "GB",
            "city": "Manchester",
            "latitude": 53.353699,
            "longitude": -2.27495,
            "type": "FN"
        },
        {
            "country_code": "GE",
            "city": "Tbilisi",
            "latitude": 41.669201,
            "longitude": 44.9547,
            "type": "FN"
        },
        {
            "country_code": "GR",
            "city": "Athens",
            "latitude": 37.936401,
            "longitude": 23.9445,
            "type": "FN"
        },
        {
            "country_code": "GR",
            "city": "Mytilene",
            "latitude": 39.0567016602,
            "longitude": 26.5983009338,
            "type": "TP"
        },
        {
            "country_code": "GR",
            "city": "Thessaloniki",
            "latitude": 40.5196990967,
            "longitude": 22.9708995819,
            "type": "TP"
        },
        {
            "country_code": "HR",
            "city": "Rijeka",
            "latitude": 45.2168998718,
            "longitude": 14.5703001022,
            "type": "FP"
        },
        {
            "country_code": "HU",
            "city": "Budapest",
            "latitude": 47.436901,
            "longitude": 19.2556,
            "type": "FN"
        },
        {
            "country_code": "IE",
            "city": "Cork",
            "latitude": 51.841301,
            "longitude": -8.49111,
            "type": "FN"
        },
        {
            "country_code": "IE",
            "city": "Dublin",
            "latitude": 53.4212989807,
            "longitude": -6.270070076,
            "type": "TP"
        },
        {
            "country_code": "IL",
            "city": "Haifa",
            "latitude": 32.78492,
            "longitude": 34.96069,
            "type": "FN"
        },
        {
            "country_code": "IL",
            "city": "Tel Aviv",
            "latitude": 32.011398,
            "longitude": 34.8867,
            "type": "FN"
        },
        {
            "country_code": "IQ",
            "city": "Arbil",
            "latitude": 36.2375984192,
            "longitude": 43.9631996155,
            "type": "TP"
        },
        {
            "country_code": "IQ",
            "city": "Baghdad",
            "latitude": 33.262501,
            "longitude": 44.2346,
            "type": "FN"
        },
        {
            "country_code": "IQ",
            "city": "Najaf",
            "latitude": 31.989722,
            "longitude": 44.404167,
            "type": "FN"
        },
        {
            "country_code": "IS",
            "city": "Reykjavik",
            "latitude": 63.985001,
            "longitude": -22.6056,
            "type": "FN"
        },
        {
            "country_code": "IS",
            "city": "Vestmannaeyjar",
            "latitude": 63.4243011475,
            "longitude": -20.2789001465,
            "type": "FP"
        },
        {
            "country_code": "IT",
            "city": "Milan",
            "latitude": 45.6306,
            "longitude": 8.72811,
            "type": "FN"
        },
        {
            "country_code": "IT",
            "city": "Palermo",
            "latitude": 38.16114,
            "longitude": 13.31546,
            "type": "FN"
        },
        {
            "country_code": "IT",
            "city": "Rome",
            "latitude": 41.8045005798,
            "longitude": 12.2508001328,
            "type": "TP"
        },
        {
            "country_code": "IT",
            "city": "Sarzana",
            "latitude": 44.0880012512,
            "longitude": 9.987950325,
            "type": "FP"
        },
        {
            "country_code": "IT",
            "city": "Turin",
            "latitude": 45.191456,
            "longitude": 7.643049,
            "type": "FN"
        },
        {
            "country_code": "JO",
            "city": "Amman",
            "latitude": 31.722601,
            "longitude": 35.993198,
            "type": "FN"
        },
        {
            "country_code": "LB",
            "city": "Beirut",
            "latitude": 33.8208999634,
            "longitude": 35.4883995056,
            "type": "TP"
        },
        {
            "country_code": "LT",
            "city": "Kaunas",
            "latitude": 54.9,
            "longitude": 23.916668,
            "type": "FN"
        },
        {
            "country_code": "LT",
            "city": "Vilnius",
            "latitude": 54.6341018677,
            "longitude": 25.2858009338,
            "type": "TP"
        },
        {
            "country_code": "LU",
            "city": "Luxembourg",
            "latitude": 49.6265983582,
            "longitude": 6.211520195,
            "type": "TP"
        },
        {
            "country_code": "LU",
            "city": "Luxembourg City",
            "latitude": 49.626598,
            "longitude": 6.21152,
            "type": "FN"
        },
        {
            "country_code": "LV",
            "city": "Riga",
            "latitude": 56.9235992432,
            "longitude": 23.9710998535,
            "type": "TP"
        },
        {
            "country_code": "MA",
            "city": "Casablanca",
            "latitude": 33.3675,
            "longitude": -7.58997,
            "type": "FN"
        },
        {
            "country_code": "MD",
            "city": "Chisinau",
            "latitude": 46.9277,
            "longitude": 28.931,
            "type": "FN"
        },
        {
            "country_code": "ME",
            "city": "Podgorica",
            "latitude": 42.368023,
            "longitude": 19.246023,
            "type": "FN"
        },
        {
            "country_code": "N/A",
            "city": "N/A",
            "latitude": 40.9475,
            "longitude": 17.2785,
            "type": "FP"
        },
        {
            "country_code": "NL",
            "city": "Amsterdam",
            "latitude": 52.3747158,
            "longitude": 4.8986167,
            "type": "TP"
        },
        {
            "country_code": "NO",
            "city": "Oslo",
            "latitude": 60.193901062,
            "longitude": 11.100399971,
            "type": "TP"
        },
        {
            "country_code": "PL",
            "city": "Warsaw",
            "latitude": 52.165699,
            "longitude": 20.9671,
            "type": "FN"
        },
        {
            "country_code": "PS",
            "city": "Ramallah",
            "latitude": 32.2719,
            "longitude": 35.0194,
            "type": "FN"
        },
        {
            "country_code": "PT",
            "city": "Lisbon",
            "latitude": 38.7812995911,
            "longitude": -9.1359195709,
            "type": "TP"
        },
        {
            "country_code": "RO",
            "city": "Bucharest",
            "latitude": 44.495934,
            "longitude": 26.080996,
            "type": "FN"
        },
        {
            "country_code": "RO",
            "city": "Craiova",
            "latitude": 44.3180999756,
            "longitude": 23.8885993958,
            "type": "FP"
        },
        {
            "country_code": "RO",
            "city": "Ia\u015fi",
            "latitude": 47.1785011292,
            "longitude": 27.6205997467,
            "type": "FP"
        },
        {
            "country_code": "RU",
            "city": "Moscow",
            "latitude": 55.5914993286,
            "longitude": 37.2615013123,
            "type": "TP"
        },
        {
            "country_code": "RU",
            "city": "Moscow",
            "latitude": 55.9725990295,
            "longitude": 37.4146003723,
            "type": "FP"
        },
        {
            "country_code": "RU",
            "city": "Saint Petersburg",
            "latitude": 59.800301,
            "longitude": 30.262501,
            "type": "FN"
        },
        {
            "country_code": "RU",
            "city": "Tver",
            "latitude": 56.8587,
            "longitude": 35.9176,
            "type": "FN"
        },
        {
            "country_code": "SE",
            "city": "Gothenburg",
            "latitude": 57.6628,
            "longitude": 12.2798,
            "type": "FN"
        },
        {
            "country_code": "SE",
            "city": "Link\u00f6ping",
            "latitude": 58.4062004089,
            "longitude": 15.6805000305,
            "type": "FP"
        },
        {
            "country_code": "SE",
            "city": "Stockholm",
            "latitude": 59.651901,
            "longitude": 17.9186,
            "type": "FN"
        },
        {
            "country_code": "SE",
            "city": "Sundsvall/ H\u00e4rn\u00f6sand",
            "latitude": 62.5280990601,
            "longitude": 17.4438991547,
            "type": "FP"
        },
        {
            "country_code": "SK",
            "city": "Bratislava",
            "latitude": 48.1486,
            "longitude": 17.1077,
            "type": "FN"
        },
        {
            "country_code": "TN",
            "city": "Tunis",
            "latitude": 36.851002,
            "longitude": 10.2272,
            "type": "FN"
        },
        {
            "country_code": "TR",
            "city": "Istanbul",
            "latitude": 40.9768981934,
            "longitude": 28.8145999908,
            "type": "TP"
        },
        {
            "country_code": "TR",
            "city": "\u0130zmir",
            "latitude": 38.2924003601,
            "longitude": 27.156999588,
            "type": "FP"
        },
        {
            "country_code": "UA",
            "city": "Kiev",
            "latitude": 50.6035003662,
            "longitude": 30.1919002533,
            "type": "TP"
        }
    ]
}