{
    "target": "193.0.14.129",
    "probes_filepath": "datasets/probes_section/North-Central-section_1.5.json",
    "alpha": 0.3,
    "threshold": -1,
    "noise": 0,
    "results_filepath": "datasets/results/campaigns/193.0.14.129_North-Central-section_20230425_alpha_light-factor_0.40/193.0.14.129_North-Central-section_1.5_52654714_0.3_-1_0.json",
    "gt_filepath": "datasets/ground-truth/root_servers/root_servers_K.json",
    "statistics": {
        "TP": 16,
        "FP": 4,
        "TN": 0,
        "FN": 27,
        "accuracy": 0.3404255319148936,
        "precision": 0.8,
        "recall": 0.37209302325581395,
        "f1": 0.5079365079365079,
        "OT": 0,
        "OF": 0
    },
    "instances": [
        {
            "country_code": "AM",
            "city": "Abovyan",
            "latitude": 40.2714761,
            "longitude": 44.6333951,
            "type": "FN"
        },
        {
            "country_code": "AM",
            "city": "Yerevan",
            "latitude": 40.1473007202,
            "longitude": 44.3959007263,
            "type": "TP"
        },
        {
            "country_code": "AT",
            "city": "Feldkirch",
            "latitude": 47.2375671,
            "longitude": 9.5981724,
            "type": "FN"
        },
        {
            "country_code": "AT",
            "city": "Salzburg",
            "latitude": 47.811195,
            "longitude": 13.033229,
            "type": "FN"
        },
        {
            "country_code": "AT",
            "city": "Vienna",
            "latitude": 48.2083537,
            "longitude": 16.3725042,
            "type": "FN"
        },
        {
            "country_code": "BA",
            "city": "Sarajevo",
            "latitude": 43.8246002197,
            "longitude": 18.3314990997,
            "type": "TP"
        },
        {
            "country_code": "BG",
            "city": "Sofia",
            "latitude": 42.6966934204,
            "longitude": 23.4114360809,
            "type": "TP"
        },
        {
            "country_code": "CH",
            "city": "Geneva",
            "latitude": 46.2017559,
            "longitude": 6.1466014,
            "type": "FN"
        },
        {
            "country_code": "CH",
            "city": "Zurich",
            "latitude": 47.3744489,
            "longitude": 8.5410422,
            "type": "FN"
        },
        {
            "country_code": "CZ",
            "city": "Prague",
            "latitude": 50.1007995605,
            "longitude": 14.2600002289,
            "type": "TP"
        },
        {
            "country_code": "DE",
            "city": "Berlin",
            "latitude": 52.3800010681,
            "longitude": 13.5225000381,
            "type": "TP"
        },
        {
            "country_code": "DE",
            "city": "Frankfurt",
            "latitude": 50.1106444,
            "longitude": 8.6820917,
            "type": "FN"
        },
        {
            "country_code": "DE",
            "city": "Hamburg",
            "latitude": 53.550341,
            "longitude": 10.000654,
            "type": "FN"
        },
        {
            "country_code": "DE",
            "city": "Karlsruhe",
            "latitude": 49.0068705,
            "longitude": 8.4034195,
            "type": "FN"
        },
        {
            "country_code": "DE",
            "city": "Munich",
            "latitude": 48.3538017273,
            "longitude": 11.7861003876,
            "type": "FP"
        },
        {
            "country_code": "EE",
            "city": "Tallinn",
            "latitude": 59.4132995605,
            "longitude": 24.8327999115,
            "type": "TP"
        },
        {
            "country_code": "ES",
            "city": "Barcelona",
            "latitude": 41.2971000671,
            "longitude": 2.0784599781,
            "type": "TP"
        },
        {
            "country_code": "ES",
            "city": "Madrid",
            "latitude": 40.4167047,
            "longitude": -3.7035825,
            "type": "FN"
        },
        {
            "country_code": "FI",
            "city": "Helsinki",
            "latitude": 60.1733244,
            "longitude": 24.9410248,
            "type": "TP"
        },
        {
            "country_code": "FO",
            "city": "Torshavn",
            "latitude": 62.012,
            "longitude": -6.768,
            "type": "FN"
        },
        {
            "country_code": "FR",
            "city": "Lyon",
            "latitude": 45.7578137,
            "longitude": 4.8320114,
            "type": "FN"
        },
        {
            "country_code": "FR",
            "city": "Paris",
            "latitude": 48.8566969,
            "longitude": 2.3514616,
            "type": "FN"
        },
        {
            "country_code": "GB",
            "city": "London",
            "latitude": 51.3307991028,
            "longitude": 0.0324999988,
            "type": "TP"
        },
        {
            "country_code": "GE",
            "city": "Tbilisi",
            "latitude": 41.6692008972,
            "longitude": 44.95470047,
            "type": "TP"
        },
        {
            "country_code": "GR",
            "city": "Athens",
            "latitude": 37.9839412,
            "longitude": 23.7283052,
            "type": "FN"
        },
        {
            "country_code": "HU",
            "city": "Budapest",
            "latitude": 47.4369010925,
            "longitude": 19.2555999756,
            "type": "TP"
        },
        {
            "country_code": "IE",
            "city": "Cork",
            "latitude": 51.897077,
            "longitude": -8.4654674,
            "type": "FN"
        },
        {
            "country_code": "IS",
            "city": "Reykjavik",
            "latitude": 64.145981,
            "longitude": -21.9422367,
            "type": "FN"
        },
        {
            "country_code": "IS",
            "city": "Vestmannaeyjar",
            "latitude": 63.4243011475,
            "longitude": -20.2789001465,
            "type": "FP"
        },
        {
            "country_code": "IT",
            "city": "Milan",
            "latitude": 45.6305999756,
            "longitude": 8.7281103134,
            "type": "TP"
        },
        {
            "country_code": "IT",
            "city": "Palermo",
            "latitude": 38.1112268,
            "longitude": 13.3524434,
            "type": "FN"
        },
        {
            "country_code": "IT",
            "city": "Prato",
            "latitude": 43.880598,
            "longitude": 11.0969262,
            "type": "FN"
        },
        {
            "country_code": "LB",
            "city": "Beirut",
            "latitude": 33.8959203,
            "longitude": 35.47843,
            "type": "FN"
        },
        {
            "country_code": "LT",
            "city": "Vilnius",
            "latitude": 54.6870458,
            "longitude": 25.2829111,
            "type": "FN"
        },
        {
            "country_code": "LU",
            "city": "Kirchberg",
            "latitude": 49.6278334,
            "longitude": 6.1596669,
            "type": "FN"
        },
        {
            "country_code": "LV",
            "city": "Riga",
            "latitude": 56.9235992432,
            "longitude": 23.9710998535,
            "type": "TP"
        },
        {
            "country_code": "NL",
            "city": "Amsterdam",
            "latitude": 52.3727598,
            "longitude": 4.8936041,
            "type": "FN"
        },
        {
            "country_code": "PL",
            "city": "Gdynia",
            "latitude": 54.50383255,
            "longitude": 18.462806155884614,
            "type": "FN"
        },
        {
            "country_code": "PL",
            "city": "Katowice",
            "latitude": 50.4743003845,
            "longitude": 19.0799999237,
            "type": "FP"
        },
        {
            "country_code": "PL",
            "city": "Poznan",
            "latitude": 52.4006632,
            "longitude": 16.91973259178088,
            "type": "FN"
        },
        {
            "country_code": "PL",
            "city": "Warsaw",
            "latitude": 52.2337172,
            "longitude": 21.071432235636493,
            "type": "FN"
        },
        {
            "country_code": "RO",
            "city": "Bucharest",
            "latitude": 44.5722007751,
            "longitude": 26.1021995544,
            "type": "TP"
        },
        {
            "country_code": "RS",
            "city": "Belgrade",
            "latitude": 44.8178131,
            "longitude": 20.4568974,
            "type": "FN"
        },
        {
            "country_code": "RU",
            "city": "Moscow",
            "latitude": 55.9725990295,
            "longitude": 37.4146003723,
            "type": "TP"
        },
        {
            "country_code": "RU",
            "city": "St Petersburg",
            "latitude": 59.8003005981,
            "longitude": 30.2625007629,
            "type": "TP"
        },
        {
            "country_code": "TR",
            "city": "\u0130zmir",
            "latitude": 38.2924003601,
            "longitude": 27.156999588,
            "type": "FP"
        },
        {
            "country_code": "UA",
            "city": "Lugansk",
            "latitude": 48.5717084,
            "longitude": 39.2973153,
            "type": "FN"
        }
    ]
}