{
    "target": "202.12.27.33",
    "measurement_filepath": "datasets/measurements/campaigns/202.12.27.33_North-Central-section_20230425/202.12.27.33_North-Central-section_1_52655636.json",
    "probes_filepath": "datasets/probes_section/North-Central-section_1.json",
    "alpha": 0.3,
    "threshold": -1,
    "noise": 0,
    "num_anycast_instances": 10,
    "anycast_instances": [
        {
            "marker": {
                "id": "PAR",
                "latitude": 49.0127983093,
                "longitude": 2.5499999523,
                "city": "Paris",
                "country_code": "FR"
            },
            "circle": {
                "id": "6817",
                "latitude": 48.7905,
                "longitude": 2.4075,
                "radius": 29.42114466537575
            }
        },
        {
            "marker": {
                "id": "LTN",
                "latitude": 51.8746986389,
                "longitude": -0.3683330119,
                "city": "London",
                "country_code": "GB"
            },
            "circle": {
                "id": "22480",
                "latitude": 49.6375,
                "longitude": -1.6085,
                "radius": 273.72636568021676
            }
        },
        {
            "marker": {
                "id": "MUC",
                "latitude": 48.3538017273,
                "longitude": 11.7861003876,
                "city": "Munich",
                "country_code": "DE"
            },
            "circle": {
                "id": "1000114",
                "latitude": 48.9995,
                "longitude": 8.3775,
                "radius": 280.14027542289773
            }
        },
        {
            "marker": {
                "id": "TOJ",
                "latitude": 40.4967002869,
                "longitude": -3.4458699226,
                "city": "Madrid",
                "country_code": "ES"
            },
            "circle": {
                "id": "3748",
                "latitude": 40.4915,
                "longitude": -3.6905,
                "radius": 668.244733797221
            }
        },
        {
            "marker": {
                "id": "NTE",
                "latitude": 47.1531982422,
                "longitude": -1.610730052,
                "city": "Nantes",
                "country_code": "FR"
            },
            "circle": {
                "id": "13467",
                "latitude": 47.5705,
                "longitude": -0.4195,
                "radius": 220.55854799448926
            }
        },
        {
            "marker": {
                "id": "TRN",
                "latitude": 45.2008018494,
                "longitude": 7.6496300697,
                "city": "Torino",
                "country_code": "IT"
            },
            "circle": {
                "id": "29310",
                "latitude": 45.5175,
                "longitude": 4.2175,
                "radius": 318.60690802727845
            }
        },
        {
            "marker": {
                "id": "LED",
                "latitude": 59.8003005981,
                "longitude": 30.2625007629,
                "city": "St Petersburg",
                "country_code": "RU"
            },
            "circle": {
                "id": "20290",
                "latitude": 60.1275,
                "longitude": 18.6415,
                "radius": 1013.125827584192
            }
        },
        {
            "marker": {
                "id": "SXF",
                "latitude": 52.3800010681,
                "longitude": 13.5225000381,
                "city": "Berlin",
                "country_code": "DE"
            },
            "circle": {
                "id": "14087",
                "latitude": 55.7105,
                "longitude": 12.5715,
                "radius": 709.437416696253
            }
        },
        {
            "marker": {
                "id": "DUB",
                "latitude": 53.4212989807,
                "longitude": -6.270070076,
                "city": "Dublin",
                "country_code": "IE"
            },
            "circle": {
                "id": "1000959",
                "latitude": 64.0715,
                "longitude": -22.0205,
                "radius": 1680.7575982269746
            }
        },
        {
            "marker": {
                "id": "IST",
                "latitude": 40.9768981934,
                "longitude": 28.8145999908,
                "city": "Istanbul",
                "country_code": "TR"
            },
            "circle": {
                "id": "746",
                "latitude": 35.1605,
                "longitude": 33.3595,
                "radius": 1747.5553301194432
            }
        }
    ]
}