{
    "target": "193.0.14.129",
    "measurement_filepath": "datasets/measurements/campaigns/193.0.14.129_North-Central_20230410/193.0.14.129_North-Central_100_52098414.json",
    "probes_filepath": "datasets/probes_sets/North-Central_100.json",
    "alpha": 0.6,
    "threshold": -1,
    "noise": 0,
    "num_anycast_instances": 10,
    "anycast_instances": [
        {
            "marker": {
                "id": "TXL",
                "latitude": 52.5597000122,
                "longitude": 13.2876996994,
                "city": "Berlin",
                "country_code": "DE"
            },
            "circle": {
                "id": "11717",
                "latitude": 52.4505,
                "longitude": 13.4175,
                "radius": 40.06110877149954
            }
        },
        {
            "marker": {
                "id": "QMZ",
                "latitude": 49.9674987793,
                "longitude": 8.1472215652,
                "city": "Mainz",
                "country_code": "DE"
            },
            "circle": {
                "id": "1004810",
                "latitude": 50.0975,
                "longitude": 8.6275,
                "radius": 41.41718997601674
            }
        },
        {
            "marker": {
                "id": "BUD",
                "latitude": 47.4369010925,
                "longitude": 19.2555999756,
                "city": "Budapest",
                "country_code": "HU"
            },
            "circle": {
                "id": "60971",
                "latitude": 47.4675,
                "longitude": 19.1205,
                "radius": 61.6655997935894
            }
        },
        {
            "marker": {
                "id": "SOF",
                "latitude": 42.6966934204,
                "longitude": 23.4114360809,
                "city": "Sofia",
                "country_code": "BG"
            },
            "circle": {
                "id": "27804",
                "latitude": 42.6595,
                "longitude": 23.3875,
                "radius": 63.68015264766924
            }
        },
        {
            "marker": {
                "id": "NHT",
                "latitude": 51.5530014038,
                "longitude": -0.418166995,
                "city": "London",
                "country_code": "GB"
            },
            "circle": {
                "id": "18430",
                "latitude": 51.8975,
                "longitude": 0.7785,
                "radius": 96.02180798557794
            }
        },
        {
            "marker": {
                "id": "LED",
                "latitude": 59.8003005981,
                "longitude": 30.2625007629,
                "city": "St Petersburg",
                "country_code": "RU"
            },
            "circle": {
                "id": "1000751",
                "latitude": 59.5775,
                "longitude": 30.1195,
                "radius": 108.53145773526454
            }
        },
        {
            "marker": {
                "id": "AMX",
                "latitude": 52.3086013794,
                "longitude": 4.7638897896,
                "city": "Amsterdam",
                "country_code": "NL"
            },
            "circle": {
                "id": "60956",
                "latitude": 52.5305,
                "longitude": 5.7195,
                "radius": 126.40357762412307
            }
        },
        {
            "marker": {
                "id": "WIE",
                "latitude": 48.1102981567,
                "longitude": 16.5697002411,
                "city": "Vienna",
                "country_code": "AT"
            },
            "circle": {
                "id": "50541",
                "latitude": 47.9475,
                "longitude": 16.2895,
                "radius": 144.01280201174998
            }
        },
        {
            "marker": {
                "id": "BCN",
                "latitude": 41.2971000671,
                "longitude": 2.0784599781,
                "city": "Barcelona",
                "country_code": "ES"
            },
            "circle": {
                "id": "50328",
                "latitude": 41.6715,
                "longitude": 2.7485,
                "radius": 163.99275517799506
            }
        },
        {
            "marker": {
                "id": "CKL",
                "latitude": 55.8782997131,
                "longitude": 38.0616989136,
                "city": "Moscow",
                "country_code": "RU"
            },
            "circle": {
                "id": "50706",
                "latitude": 55.6605,
                "longitude": 37.2875,
                "radius": 575.5483961364423
            }
        }
    ]
}