{
    "target": "192.203.230.10",
    "measurement_filepath": "datasets/measurements/campaigns/192.203.230.10_North-Central-section_20230425/192.203.230.10_North-Central-section_2_52648921.json",
    "probes_filepath": "datasets/probes_section/North-Central-section_2.json",
    "alpha": 0.0,
    "threshold": -1,
    "noise": 0,
    "num_anycast_instances": 37,
    "anycast_instances": [
        {
            "marker": {
                "id": "DUB",
                "latitude": 53.4212989807,
                "longitude": -6.270070076,
                "city": "Dublin",
                "country_code": "IE"
            },
            "circle": {
                "id": "6965",
                "latitude": 53.3295,
                "longitude": -6.3695,
                "radius": 30.865694624248746
            }
        },
        {
            "marker": {
                "id": "RIX",
                "latitude": 56.9235992432,
                "longitude": 23.9710998535,
                "city": "Riga",
                "country_code": "LV"
            },
            "circle": {
                "id": "17816",
                "latitude": 56.9505,
                "longitude": 24.1075,
                "radius": 31.72305608526004
            }
        },
        {
            "marker": {
                "id": "BMA",
                "latitude": 59.3544006348,
                "longitude": 17.9416999817,
                "city": "Stockholm",
                "country_code": "SE"
            },
            "circle": {
                "id": "30735",
                "latitude": 59.3495,
                "longitude": 18.0685,
                "radius": 32.763096080553645
            }
        },
        {
            "marker": {
                "id": "EBL",
                "latitude": 36.2375984192,
                "longitude": 43.9631996155,
                "city": "Arbil",
                "country_code": "IQ"
            },
            "circle": {
                "id": "7020",
                "latitude": 36.2375,
                "longitude": 44.0085,
                "radius": 39.102964580920094
            }
        },
        {
            "marker": {
                "id": "ZAG",
                "latitude": 45.7429008484,
                "longitude": 16.0687999725,
                "city": "Zagreb",
                "country_code": "HR"
            },
            "circle": {
                "id": "11440",
                "latitude": 45.7975,
                "longitude": 15.9395,
                "radius": 40.18177523584455
            }
        },
        {
            "marker": {
                "id": "SDV",
                "latitude": 32.1147003174,
                "longitude": 34.7821998596,
                "city": "Tel Aviv",
                "country_code": "IL"
            },
            "circle": {
                "id": "27091",
                "latitude": 32.0775,
                "longitude": 34.8915,
                "radius": 49.75041600368244
            }
        },
        {
            "marker": {
                "id": "ZRH",
                "latitude": 47.4646987915,
                "longitude": 8.5491695404,
                "city": "Zurich",
                "country_code": "CH"
            },
            "circle": {
                "id": "6445",
                "latitude": 47.3995,
                "longitude": 8.6195,
                "radius": 52.78543990035994
            }
        },
        {
            "marker": {
                "id": "VNO",
                "latitude": 54.6341018677,
                "longitude": 25.2858009338,
                "city": "Vilnius",
                "country_code": "LT"
            },
            "circle": {
                "id": "1002189",
                "latitude": 54.6415,
                "longitude": 25.3015,
                "radius": 62.22680378015394
            }
        },
        {
            "marker": {
                "id": "ATH",
                "latitude": 37.9364013672,
                "longitude": 23.9444999695,
                "city": "Athens",
                "country_code": "GR"
            },
            "circle": {
                "id": "28002",
                "latitude": 38.0685,
                "longitude": 23.7675,
                "radius": 65.13738382751563
            }
        },
        {
            "marker": {
                "id": "TIA",
                "latitude": 41.4146995544,
                "longitude": 19.7206001282,
                "city": "Tirana",
                "country_code": "AL"
            },
            "circle": {
                "id": "16605",
                "latitude": 41.3395,
                "longitude": 19.7875,
                "radius": 72.01379838477614
            }
        },
        {
            "marker": {
                "id": "LWN",
                "latitude": 40.7504005432,
                "longitude": 43.8592987061,
                "city": "Gyumri",
                "country_code": "AM"
            },
            "circle": {
                "id": "10609",
                "latitude": 40.1815,
                "longitude": 44.5275,
                "radius": 90.22782407717224
            }
        },
        {
            "marker": {
                "id": "SOF",
                "latitude": 42.6966934204,
                "longitude": 23.4114360809,
                "city": "Sofia",
                "country_code": "BG"
            },
            "circle": {
                "id": "1251",
                "latitude": 42.6275,
                "longitude": 23.3695,
                "radius": 97.95011054949119
            }
        },
        {
            "marker": {
                "id": "TMP",
                "latitude": 61.414100647,
                "longitude": 23.6044006348,
                "city": "Tampere/Pirkkala",
                "country_code": "FI"
            },
            "circle": {
                "id": "61452",
                "latitude": 61.4485,
                "longitude": 23.8595,
                "radius": 105.61342784532152
            }
        },
        {
            "marker": {
                "id": "KEF",
                "latitude": 63.9850006104,
                "longitude": -22.6056003571,
                "city": "Reykjav\u00edk",
                "country_code": "IS"
            },
            "circle": {
                "id": "54607",
                "latitude": 64.0505,
                "longitude": -21.9925,
                "radius": 106.02033614856494
            }
        },
        {
            "marker": {
                "id": "KLV",
                "latitude": 50.202999115,
                "longitude": 12.9149999619,
                "city": "Karlovy Vary",
                "country_code": "CZ"
            },
            "circle": {
                "id": "10222",
                "latitude": 50.0785,
                "longitude": 14.4385,
                "radius": 110.57785604319542
            }
        },
        {
            "marker": {
                "id": "DME",
                "latitude": 55.4087982178,
                "longitude": 37.9062995911,
                "city": "Moscow",
                "country_code": "RU"
            },
            "circle": {
                "id": "224",
                "latitude": 55.7295,
                "longitude": 37.6185,
                "radius": 118.05592408441613
            }
        },
        {
            "marker": {
                "id": "KBP",
                "latitude": 50.3450012207,
                "longitude": 30.8946990967,
                "city": "Kiev",
                "country_code": "UA"
            },
            "circle": {
                "id": "2862",
                "latitude": 50.4485,
                "longitude": 30.5105,
                "radius": 126.67843484442893
            }
        },
        {
            "marker": {
                "id": "MIR",
                "latitude": 35.7580986023,
                "longitude": 10.754699707,
                "city": "Monastir",
                "country_code": "TN"
            },
            "circle": {
                "id": "567",
                "latitude": 36.8205,
                "longitude": 10.1805,
                "radius": 140.2568746861313
            }
        },
        {
            "marker": {
                "id": "LWR",
                "latitude": 53.2285995483,
                "longitude": 5.7605600357,
                "city": "Leeuwarden",
                "country_code": "NL"
            },
            "circle": {
                "id": "1261",
                "latitude": 51.9875,
                "longitude": 5.9005,
                "radius": 148.59734070165774
            }
        },
        {
            "marker": {
                "id": "BBU",
                "latitude": 44.503200531,
                "longitude": 26.1021003723,
                "city": "Bucharest",
                "country_code": "RO"
            },
            "circle": {
                "id": "16970",
                "latitude": 44.5975,
                "longitude": 26.0305,
                "radius": 153.63668703478584
            }
        },
        {
            "marker": {
                "id": "GWT",
                "latitude": 54.9132003784,
                "longitude": 8.340470314,
                "city": "Westerland",
                "country_code": "DE"
            },
            "circle": {
                "id": "27720",
                "latitude": 55.4575,
                "longitude": 10.6585,
                "radius": 163.91678776913787
            }
        },
        {
            "marker": {
                "id": "KSD",
                "latitude": 59.4446983337,
                "longitude": 13.3374004364,
                "city": "Karlstad",
                "country_code": "SE"
            },
            "circle": {
                "id": "50793",
                "latitude": 60.2785,
                "longitude": 11.1615,
                "radius": 165.69341783373747
            }
        },
        {
            "marker": {
                "id": "ARW",
                "latitude": 46.1766014099,
                "longitude": 21.2619991302,
                "city": "Arad",
                "country_code": "RO"
            },
            "circle": {
                "id": "2816",
                "latitude": 44.8205,
                "longitude": 20.4675,
                "radius": 171.68471764318733
            }
        },
        {
            "marker": {
                "id": "TAY",
                "latitude": 58.3074989319,
                "longitude": 26.6903991699,
                "city": "Tartu",
                "country_code": "EE"
            },
            "circle": {
                "id": "21458",
                "latitude": 59.4415,
                "longitude": 24.7495,
                "radius": 177.35478233907872
            }
        },
        {
            "marker": {
                "id": "RLG",
                "latitude": 53.9182014465,
                "longitude": 12.2783002853,
                "city": "Rostock",
                "country_code": "DE"
            },
            "circle": {
                "id": "691",
                "latitude": 55.6575,
                "longitude": 12.3815,
                "radius": 195.49735249911052
            }
        },
        {
            "marker": {
                "id": "BIO",
                "latitude": 43.3011016846,
                "longitude": -2.9106099606,
                "city": "Bilbao",
                "country_code": "ES"
            },
            "circle": {
                "id": "12884",
                "latitude": 41.6395,
                "longitude": -4.7385,
                "radius": 274.4713499383467
            }
        },
        {
            "marker": {
                "id": "BNX",
                "latitude": 50.4592018127,
                "longitude": 4.4538202286,
                "city": "Brussels",
                "country_code": "BE"
            },
            "circle": {
                "id": "1003397",
                "latitude": 48.6005,
                "longitude": 1.6915,
                "radius": 288.4233836463973
            }
        },
        {
            "marker": {
                "id": "FZO",
                "latitude": 51.5194015503,
                "longitude": -2.5908300877,
                "city": "Bristol",
                "country_code": "GB"
            },
            "circle": {
                "id": "21382",
                "latitude": 51.8785,
                "longitude": 0.5515,
                "radius": 225.45505821100323
            }
        },
        {
            "marker": {
                "id": "EGC",
                "latitude": 44.8252983093,
                "longitude": 0.5186110139,
                "city": "Bergerac/Roumani\u00e8re",
                "country_code": "FR"
            },
            "circle": {
                "id": "19856",
                "latitude": 47.0605,
                "longitude": 2.4095,
                "radius": 291.61884147697344
            }
        },
        {
            "marker": {
                "id": "GOA",
                "latitude": 44.4132995605,
                "longitude": 8.8374996185,
                "city": "Genova",
                "country_code": "IT"
            },
            "circle": {
                "id": "27895",
                "latitude": 43.9095,
                "longitude": 12.6515,
                "radius": 310.48950259012696
            }
        },
        {
            "marker": {
                "id": "PZY",
                "latitude": 48.6251983643,
                "longitude": 17.8283996582,
                "city": "Pie\u0161\u0165any",
                "country_code": "SK"
            },
            "circle": {
                "id": "33606",
                "latitude": 50.8805,
                "longitude": 20.6275,
                "radius": 336.10709789793077
            }
        },
        {
            "marker": {
                "id": "SVG",
                "latitude": 58.876701355,
                "longitude": 5.6377801895,
                "city": "Stavanger",
                "country_code": "NO"
            },
            "circle": {
                "id": "11558",
                "latitude": 61.6315,
                "longitude": 7.2595,
                "radius": 336.4059834837453
            }
        },
        {
            "marker": {
                "id": "VAA",
                "latitude": 63.0507011414,
                "longitude": 21.7621994019,
                "city": "Vaasa",
                "country_code": "FI"
            },
            "circle": {
                "id": "10638",
                "latitude": 64.2315,
                "longitude": 27.7285,
                "radius": 345.0261858418315
            }
        },
        {
            "marker": {
                "id": "SDR",
                "latitude": 43.4271011353,
                "longitude": -3.8200099468,
                "city": "Santander",
                "country_code": "ES"
            },
            "circle": {
                "id": "61547",
                "latitude": 39.9705,
                "longitude": -4.8305,
                "radius": 394.2919948319684
            }
        },
        {
            "marker": {
                "id": "BYJ",
                "latitude": 38.0788993835,
                "longitude": -7.9324002266,
                "city": "Beja",
                "country_code": "PT"
            },
            "circle": {
                "id": "18113",
                "latitude": 41.5485,
                "longitude": -8.4325,
                "radius": 406.7840692488047
            }
        },
        {
            "marker": {
                "id": "ROZ",
                "latitude": 36.645198822,
                "longitude": -6.349460125,
                "city": "Rota",
                "country_code": "ES"
            },
            "circle": {
                "id": "62669",
                "latitude": 38.0815,
                "longitude": -1.2795,
                "radius": 475.618621080171
            }
        },
        {
            "marker": {
                "id": "AGA",
                "latitude": 30.3250007629,
                "longitude": -9.413069725,
                "city": "Agadir",
                "country_code": "MA"
            },
            "circle": {
                "id": "54938",
                "latitude": 32.6415,
                "longitude": -16.9415,
                "radius": 822.1626861161022
            }
        }
    ]
}