{
    "target": "192.33.4.12",
    "probes_filepath": "datasets/probes_section/North-Central-section_1.5.json",
    "alpha": 0.0,
    "threshold": -1,
    "noise": 0,
    "results_filepath": "datasets/results/campaigns/192.33.4.12_North-Central-section_20230425_alpha_light-factor_0.35/192.33.4.12_North-Central-section_1.5_52641500_0.0_-1_0.json",
    "gt_filepath": "datasets/ground-truth/root_servers/root_servers_C.json",
    "statistics": {
        "TP": 1,
        "FP": 9,
        "TN": 0,
        "FN": 3,
        "accuracy": 0.07692307692307693,
        "precision": 0.1,
        "recall": 0.25,
        "f1": 0.14285714285714288,
        "OT": 0,
        "OF": 0
    },
    "instances": [
        {
            "country_code": "BE",
            "city": "Brussels",
            "latitude": 50.4592018127,
            "longitude": 4.4538202286,
            "type": "FP"
        },
        {
            "country_code": "CZ",
            "city": "Uhersk\u00e9 Hradi\u0161t\u011b",
            "latitude": 49.0293998718,
            "longitude": 17.439699173,
            "type": "FP"
        },
        {
            "country_code": "DE",
            "city": "Frankfurt",
            "latitude": 50.1109221,
            "longitude": 8.6821267,
            "type": "FN"
        },
        {
            "country_code": "DE",
            "city": "Munich",
            "latitude": 48.3538017273,
            "longitude": 11.7861003876,
            "type": "FP"
        },
        {
            "country_code": "ES",
            "city": "Madrid",
            "latitude": 40.4967002869,
            "longitude": -3.4458699226,
            "type": "TP"
        },
        {
            "country_code": "FR",
            "city": "Bergerac/Roumani\u00e8re",
            "latitude": 44.8252983093,
            "longitude": 0.5186110139,
            "type": "FP"
        },
        {
            "country_code": "FR",
            "city": "Maubeuge/\u00c9lesmes",
            "latitude": 50.3105010986,
            "longitude": 4.0331201553,
            "type": "FP"
        },
        {
            "country_code": "FR",
            "city": "Paris",
            "latitude": 48.856614,
            "longitude": 2.3522219,
            "type": "FN"
        },
        {
            "country_code": "FR",
            "city": "Strasbourg",
            "latitude": 48.5382995605,
            "longitude": 7.6282300949,
            "type": "FP"
        },
        {
            "country_code": "GB",
            "city": "Manston",
            "latitude": 51.3422012329,
            "longitude": 1.3461099863,
            "type": "FP"
        },
        {
            "country_code": "RU",
            "city": "Tver",
            "latitude": 56.8246994019,
            "longitude": 35.7577018738,
            "type": "FP"
        },
        {
            "country_code": "SK",
            "city": "Bratislava",
            "latitude": 48.1458923,
            "longitude": 17.1071373,
            "type": "FN"
        },
        {
            "country_code": "UA",
            "city": "Uzhhorod",
            "latitude": 48.6343002319,
            "longitude": 22.2633991241,
            "type": "FP"
        }
    ]
}