{
    "target": "199.7.91.13",
    "probes_filepath": "datasets/probes_section/North-Central-section_1.json",
    "alpha": 1,
    "threshold": 10.0,
    "noise": 0,
    "results_filepath": "datasets/results/campaigns/199.7.91.13_North-Central-section_20230425_threshold_light-factor_0.35/199.7.91.13_North-Central-section_1_52642201_1_10.0_0.json",
    "gt_filepath": "datasets/ground-truth/root_servers/root_servers_D.json",
    "statistics": {
        "TP": 28,
        "FP": 7,
        "TN": 0,
        "FN": 23,
        "accuracy": 0.4827586206896552,
        "precision": 0.8,
        "recall": 0.5490196078431373,
        "f1": 0.6511627906976745,
        "OT": 0,
        "OF": 0
    },
    "instances": [
        {
            "country_code": "AL",
            "city": "Tirana",
            "latitude": 41.3275459,
            "longitude": 19.8186982,
            "type": "FN"
        },
        {
            "country_code": "AM",
            "city": "Yerevan",
            "latitude": 40.1791857,
            "longitude": 44.4991029,
            "type": "FN"
        },
        {
            "country_code": "AT",
            "city": "Feldkirch",
            "latitude": 47.2375671,
            "longitude": 9.5981724,
            "type": "FN"
        },
        {
            "country_code": "AT",
            "city": "Klagenfurt",
            "latitude": 46.62794,
            "longitude": 14.30899,
            "type": "FN"
        },
        {
            "country_code": "AT",
            "city": "Salzburg",
            "latitude": 47.80949,
            "longitude": 13.05501,
            "type": "FN"
        },
        {
            "country_code": "AT",
            "city": "Vienna",
            "latitude": 48.1102981567,
            "longitude": 16.5697002411,
            "type": "TP"
        },
        {
            "country_code": "BE",
            "city": "Brussels",
            "latitude": 50.4592018127,
            "longitude": 4.4538202286,
            "type": "FP"
        },
        {
            "country_code": "BG",
            "city": "Sofia",
            "latitude": 42.6966934204,
            "longitude": 23.4114360809,
            "type": "TP"
        },
        {
            "country_code": "BG",
            "city": "Yambol",
            "latitude": 42.4548988342,
            "longitude": 26.3521995544,
            "type": "FP"
        },
        {
            "country_code": "BY",
            "city": "Minsk",
            "latitude": 53.8644981384,
            "longitude": 27.5396995544,
            "type": "FP"
        },
        {
            "country_code": "CH",
            "city": "Geneva",
            "latitude": 46.204705,
            "longitude": 6.1431301,
            "type": "TP"
        },
        {
            "country_code": "CH",
            "city": "Lausanne",
            "latitude": 46.5196535,
            "longitude": 6.6322734,
            "type": "FN"
        },
        {
            "country_code": "CH",
            "city": "Zurich",
            "latitude": 47.4646987915,
            "longitude": 8.5491695404,
            "type": "TP"
        },
        {
            "country_code": "CZ",
            "city": "Prague",
            "latitude": 50.0755381,
            "longitude": 14.4378005,
            "type": "FN"
        },
        {
            "country_code": "DE",
            "city": "Berlin",
            "latitude": 52.5200066,
            "longitude": 13.404954,
            "type": "FN"
        },
        {
            "country_code": "DE",
            "city": "Dortmund",
            "latitude": 51.5142273,
            "longitude": 7.4652789,
            "type": "FN"
        },
        {
            "country_code": "DE",
            "city": "Frankfurt-am-Main",
            "latitude": 50.121212,
            "longitude": 8.6365638,
            "type": "TP"
        },
        {
            "country_code": "DE",
            "city": "Hamburg",
            "latitude": 53.6304016113,
            "longitude": 9.9882297516,
            "type": "TP"
        },
        {
            "country_code": "DE",
            "city": "Stuttgart",
            "latitude": 48.6898994446,
            "longitude": 9.2219600677,
            "type": "TP"
        },
        {
            "country_code": "EE",
            "city": "Tallinn",
            "latitude": 59.4369608,
            "longitude": 24.7535746,
            "type": "FN"
        },
        {
            "country_code": "ES",
            "city": "Barcelona",
            "latitude": 41.2971000671,
            "longitude": 2.0784599781,
            "type": "TP"
        },
        {
            "country_code": "ES",
            "city": "Madrid",
            "latitude": 40.3707008362,
            "longitude": -3.7851400375,
            "type": "TP"
        },
        {
            "country_code": "ES",
            "city": "Malaga",
            "latitude": 36.7213028,
            "longitude": -4.4216366,
            "type": "FN"
        },
        {
            "country_code": "FI",
            "city": "Lappeenranta",
            "latitude": 61.0446014404,
            "longitude": 28.1443996429,
            "type": "FP"
        },
        {
            "country_code": "FI",
            "city": "Tampere/Pirkkala",
            "latitude": 61.414100647,
            "longitude": 23.6044006348,
            "type": "TP"
        },
        {
            "country_code": "FR",
            "city": "Lyon",
            "latitude": 45.726398468,
            "longitude": 5.0908298492,
            "type": "TP"
        },
        {
            "country_code": "FR",
            "city": "Marseille",
            "latitude": 43.439271922,
            "longitude": 5.2214241028,
            "type": "TP"
        },
        {
            "country_code": "FR",
            "city": "Paris",
            "latitude": 49.0127983093,
            "longitude": 2.5499999523,
            "type": "TP"
        },
        {
            "country_code": "GB",
            "city": "Edinburgh",
            "latitude": 55.953252,
            "longitude": -3.188267,
            "type": "FN"
        },
        {
            "country_code": "GB",
            "city": "Leeds",
            "latitude": 53.8007554,
            "longitude": -1.5490774,
            "type": "FN"
        },
        {
            "country_code": "GB",
            "city": "London",
            "latitude": 51.3307991028,
            "longitude": 0.0324999988,
            "type": "TP"
        },
        {
            "country_code": "GB",
            "city": "Manchester",
            "latitude": 53.4807593,
            "longitude": -2.2426305,
            "type": "FN"
        },
        {
            "country_code": "GR",
            "city": "Athens",
            "latitude": 37.9364013672,
            "longitude": 23.9444999695,
            "type": "TP"
        },
        {
            "country_code": "HR",
            "city": "Zagreb",
            "latitude": 45.7429008484,
            "longitude": 16.0687999725,
            "type": "TP"
        },
        {
            "country_code": "IE",
            "city": "Dublin",
            "latitude": 53.3498053,
            "longitude": -6.2603097,
            "type": "FN"
        },
        {
            "country_code": "IL",
            "city": "Tel Aviv",
            "latitude": 32.0852999,
            "longitude": 34.7817676,
            "type": "FN"
        },
        {
            "country_code": "IS",
            "city": "Reykjav\u00edk",
            "latitude": 63.9850006104,
            "longitude": -22.6056003571,
            "type": "TP"
        },
        {
            "country_code": "IT",
            "city": "Bologna",
            "latitude": 44.5354003906,
            "longitude": 11.2887001038,
            "type": "FP"
        },
        {
            "country_code": "IT",
            "city": "Rome",
            "latitude": 41.7994003296,
            "longitude": 12.5949001312,
            "type": "TP"
        },
        {
            "country_code": "IT",
            "city": "Turin",
            "latitude": 45.070312,
            "longitude": 7.6868565,
            "type": "FN"
        },
        {
            "country_code": "LB",
            "city": "Beirut",
            "latitude": 33.8208999634,
            "longitude": 35.4883995056,
            "type": "TP"
        },
        {
            "country_code": "LU",
            "city": "Luxembourg City",
            "latitude": 49.611621,
            "longitude": 6.1319346,
            "type": "FN"
        },
        {
            "country_code": "LV",
            "city": "Riga",
            "latitude": 56.9496487,
            "longitude": 24.1051864,
            "type": "FN"
        },
        {
            "country_code": "MK",
            "city": "Skopje",
            "latitude": 41.9960924,
            "longitude": 21.4316495,
            "type": "FN"
        },
        {
            "country_code": "NL",
            "city": "Amsterdam",
            "latitude": 52.3086013794,
            "longitude": 4.7638897896,
            "type": "TP"
        },
        {
            "country_code": "NO",
            "city": "Oslo",
            "latitude": 60.193901062,
            "longitude": 11.100399971,
            "type": "TP"
        },
        {
            "country_code": "NO",
            "city": "Trondheim",
            "latitude": 63.4305658,
            "longitude": 10.3951929,
            "type": "FN"
        },
        {
            "country_code": "PL",
            "city": "Warsaw",
            "latitude": 52.1656990051,
            "longitude": 20.9671001434,
            "type": "TP"
        },
        {
            "country_code": "PS",
            "city": "Gaza",
            "latitude": 31.7721276,
            "longitude": 35.2136806,
            "type": "FN"
        },
        {
            "country_code": "PT",
            "city": "Lisbon",
            "latitude": 38.7812995911,
            "longitude": -9.1359195709,
            "type": "TP"
        },
        {
            "country_code": "RO",
            "city": "Bucharest",
            "latitude": 44.503200531,
            "longitude": 26.1021003723,
            "type": "TP"
        },
        {
            "country_code": "RS",
            "city": "Belgrade",
            "latitude": 44.8184013367,
            "longitude": 20.3090991974,
            "type": "TP"
        },
        {
            "country_code": "SE",
            "city": "Gothenburg",
            "latitude": 57.7747001648,
            "longitude": 11.8704004288,
            "type": "FP"
        },
        {
            "country_code": "SE",
            "city": "Malm\u00f6",
            "latitude": 55.536305364,
            "longitude": 13.3761978149,
            "type": "FP"
        },
        {
            "country_code": "SE",
            "city": "Stockholm",
            "latitude": 59.6519012451,
            "longitude": 17.9186000824,
            "type": "TP"
        },
        {
            "country_code": "TN",
            "city": "Tunis",
            "latitude": 36.8510017395,
            "longitude": 10.2271995544,
            "type": "TP"
        },
        {
            "country_code": "TR",
            "city": "Istanbul",
            "latitude": 41.00527,
            "longitude": 28.97696,
            "type": "FN"
        },
        {
            "country_code": "UA",
            "city": "Kiev",
            "latitude": 50.6035003662,
            "longitude": 30.1919002533,
            "type": "TP"
        }
    ]
}