{
    "target": "192.36.148.17",
    "measurement_filepath": "datasets/measurements/campaigns/192.36.148.17_North-Central_20230410/192.36.148.17_North-Central_500_52072218.json",
    "probes_filepath": "datasets/probes_sets/North-Central_500.json",
    "alpha": 1,
    "threshold": 20.0,
    "noise": 0,
    "num_anycast_instances": 20,
    "anycast_instances": [
        {
            "marker": {
                "id": "DEX",
                "latitude": 50.121212,
                "longitude": 8.6365638,
                "city": "Frankfurt-am-Main",
                "country_code": "DE"
            },
            "circle": {
                "id": "1004538",
                "latitude": 50.1015,
                "longitude": 8.6285,
                "radius": 30.909621714157204
            }
        },
        {
            "marker": {
                "id": "WIE",
                "latitude": 48.1102981567,
                "longitude": 16.5697002411,
                "city": "Vienna",
                "country_code": "AT"
            },
            "circle": {
                "id": "11240",
                "latitude": 48.2075,
                "longitude": 16.3595,
                "radius": 34.5481428184116
            }
        },
        {
            "marker": {
                "id": "VAR",
                "latitude": 43.2321014404,
                "longitude": 27.8250999451,
                "city": "Varna",
                "country_code": "BG"
            },
            "circle": {
                "id": "1003038",
                "latitude": 43.2215,
                "longitude": 27.9285,
                "radius": 35.125782926486
            }
        },
        {
            "marker": {
                "id": "AMX",
                "latitude": 52.3086013794,
                "longitude": 4.7638897896,
                "city": "Amsterdam",
                "country_code": "NL"
            },
            "circle": {
                "id": "1004631",
                "latitude": 52.3775,
                "longitude": 4.8985,
                "radius": 37.988800900386
            }
        },
        {
            "marker": {
                "id": "ARN",
                "latitude": 59.6519012451,
                "longitude": 17.9186000824,
                "city": "Stockholm",
                "country_code": "SE"
            },
            "circle": {
                "id": "17609",
                "latitude": 59.3415,
                "longitude": 18.0575,
                "radius": 51.013883823112
            }
        },
        {
            "marker": {
                "id": "SOF",
                "latitude": 42.6966934204,
                "longitude": 23.4114360809,
                "city": "Sofia",
                "country_code": "BG"
            },
            "circle": {
                "id": "28797",
                "latitude": 42.6805,
                "longitude": 23.2615,
                "radius": 58.3366743607116
            }
        },
        {
            "marker": {
                "id": "SXF",
                "latitude": 52.3800010681,
                "longitude": 13.5225000381,
                "city": "Berlin",
                "country_code": "DE"
            },
            "circle": {
                "id": "11717",
                "latitude": 52.4505,
                "longitude": 13.4175,
                "radius": 61.90996062610521
            }
        },
        {
            "marker": {
                "id": "LIN",
                "latitude": 45.445098877,
                "longitude": 9.2767400742,
                "city": "Milan",
                "country_code": "IT"
            },
            "circle": {
                "id": "22979",
                "latitude": 45.4715,
                "longitude": 9.0405,
                "radius": 65.03679596304521
            }
        },
        {
            "marker": {
                "id": "PAR",
                "latitude": 49.0127983093,
                "longitude": 2.5499999523,
                "city": "Paris",
                "country_code": "FR"
            },
            "circle": {
                "id": "1001863",
                "latitude": 48.9085,
                "longitude": 2.3905,
                "radius": 67.87553074784721
            }
        },
        {
            "marker": {
                "id": "RIX",
                "latitude": 56.9235992432,
                "longitude": 23.9710998535,
                "city": "Riga",
                "country_code": "LV"
            },
            "circle": {
                "id": "23076",
                "latitude": 56.9405,
                "longitude": 24.1205,
                "radius": 68.34710428428122
            }
        },
        {
            "marker": {
                "id": "FICIX",
                "latitude": 60.1733244,
                "longitude": 24.9410248,
                "city": "Helsinki",
                "country_code": "FI"
            },
            "circle": {
                "id": "51685",
                "latitude": 59.4595,
                "longitude": 24.6915,
                "radius": 92.27611857240001
            }
        },
        {
            "marker": {
                "id": "LJU",
                "latitude": 46.2237014771,
                "longitude": 14.4575996399,
                "city": "Ljubljana",
                "country_code": "SI"
            },
            "circle": {
                "id": "19343",
                "latitude": 46.0585,
                "longitude": 14.5695,
                "radius": 110.31247226456242
            }
        },
        {
            "marker": {
                "id": "NIX",
                "latitude": 60.193901062,
                "longitude": 11.100399971,
                "city": "Oslo",
                "country_code": "NO"
            },
            "circle": {
                "id": "60959",
                "latitude": 59.9415,
                "longitude": 10.7795,
                "radius": 115.2076633942612
            }
        },
        {
            "marker": {
                "id": "SCN",
                "latitude": 49.2145996094,
                "longitude": 7.1095099449,
                "city": "Saarbr\u00fccken",
                "country_code": "DE"
            },
            "circle": {
                "id": "13911",
                "latitude": 49.5875,
                "longitude": 6.1375,
                "radius": 118.1628375697504
            }
        },
        {
            "marker": {
                "id": "BQH",
                "latitude": 51.3307991028,
                "longitude": 0.0324999988,
                "city": "London",
                "country_code": "GB"
            },
            "circle": {
                "id": "54438",
                "latitude": 51.5115,
                "longitude": -0.1315,
                "radius": 133.0579059284972
            }
        },
        {
            "marker": {
                "id": "GOT",
                "latitude": 57.6627998352,
                "longitude": 12.279800415,
                "city": "Gothenburg",
                "country_code": "SE"
            },
            "circle": {
                "id": "53698",
                "latitude": 57.4915,
                "longitude": 12.0815,
                "radius": 139.80569453165282
            }
        },
        {
            "marker": {
                "id": "BEG",
                "latitude": 44.8184013367,
                "longitude": 20.3090991974,
                "city": "Belgrade",
                "country_code": "RS"
            },
            "circle": {
                "id": "60080",
                "latitude": 44.8075,
                "longitude": 20.4615,
                "radius": 145.5976848202128
            }
        },
        {
            "marker": {
                "id": "BNX",
                "latitude": 50.4592018127,
                "longitude": 4.4538202286,
                "city": "Brussels",
                "country_code": "BE"
            },
            "circle": {
                "id": "12076",
                "latitude": 50.8105,
                "longitude": 3.2805,
                "radius": 175.4064086701024
            }
        },
        {
            "marker": {
                "id": "BBU",
                "latitude": 44.503200531,
                "longitude": 26.1021003723,
                "city": "Bucharest",
                "country_code": "RO"
            },
            "circle": {
                "id": "16970",
                "latitude": 44.5975,
                "longitude": 26.0305,
                "radius": 182.4023654699904
            }
        },
        {
            "marker": {
                "id": "MHP",
                "latitude": 53.8644981384,
                "longitude": 27.5396995544,
                "city": "Minsk",
                "country_code": "BY"
            },
            "circle": {
                "id": "1002099",
                "latitude": 54.6415,
                "longitude": 25.3015,
                "radius": 184.09853123886282
            }
        }
    ]
}