{
    "target": "192.33.4.12",
    "probes_filepath": "datasets/probes_sets/North-Central_100.json",
    "alpha": 0.0,
    "threshold": -1,
    "noise": 0,
    "results_filepath": "datasets/results/campaigns/192.33.4.12_North-Central_20230410_alpha_light-factor_0.40/192.33.4.12_North-Central_100_52069786_0.0_-1_0.json",
    "gt_filepath": "datasets/ground-truth/root_servers/root_servers_C.json",
    "statistics": {
        "TP": 1,
        "FP": 5,
        "TN": 0,
        "FN": 3,
        "accuracy": 0.1111111111111111,
        "precision": 0.16666666666666666,
        "recall": 0.25,
        "f1": 0.2,
        "OT": 0,
        "OF": 0
    },
    "instances": [
        {
            "country_code": "DE",
            "city": "Bayreuth",
            "latitude": 49.9850006104,
            "longitude": 11.6400003433,
            "type": "FP"
        },
        {
            "country_code": "DE",
            "city": "Cottbus",
            "latitude": 51.8894424438,
            "longitude": 14.5319442749,
            "type": "FP"
        },
        {
            "country_code": "DE",
            "city": "Egelsbach",
            "latitude": 49.9599990845,
            "longitude": 8.6458330154,
            "type": "TP"
        },
        {
            "country_code": "ES",
            "city": "Madrid",
            "latitude": 40.4167754,
            "longitude": -3.7037902,
            "type": "FN"
        },
        {
            "country_code": "FR",
            "city": "Calais/Dunkerque",
            "latitude": 50.9621009827,
            "longitude": 1.9547599554,
            "type": "FP"
        },
        {
            "country_code": "FR",
            "city": "Castres/Mazamet",
            "latitude": 43.5563011169,
            "longitude": 2.2891800404,
            "type": "FP"
        },
        {
            "country_code": "FR",
            "city": "Paris",
            "latitude": 48.856614,
            "longitude": 2.3522219,
            "type": "FN"
        },
        {
            "country_code": "IT",
            "city": "Ancona",
            "latitude": 43.6162986755,
            "longitude": 13.3622999191,
            "type": "FP"
        },
        {
            "country_code": "SK",
            "city": "Bratislava",
            "latitude": 48.1458923,
            "longitude": 17.1071373,
            "type": "FN"
        }
    ]
}