{
    "target": "198.97.190.53",
    "measurement_filepath": "datasets/measurements/campaigns/198.97.190.53_North-Central-section_20230425/198.97.190.53_North-Central-section_2_52652506.json",
    "probes_filepath": "datasets/probes_section/North-Central-section_2.json",
    "alpha": 0.0,
    "threshold": -1,
    "noise": 0,
    "num_anycast_instances": 7,
    "anycast_instances": [
        {
            "marker": {
                "id": "BZO",
                "latitude": 46.4602012634,
                "longitude": 11.3263998032,
                "city": "Bolzano",
                "country_code": "IT"
            },
            "circle": {
                "id": "7034",
                "latitude": 48.7095,
                "longitude": 8.7385,
                "radius": 316.82684533903483
            }
        },
        {
            "marker": {
                "id": "LEY",
                "latitude": 52.4603004456,
                "longitude": 5.5272197723,
                "city": "Lelystad",
                "country_code": "NL"
            },
            "circle": {
                "id": "430",
                "latitude": 51.9675,
                "longitude": -0.7715,
                "radius": 436.9046971719976
            }
        },
        {
            "marker": {
                "id": "VHY",
                "latitude": 46.1697006226,
                "longitude": 3.4037399292,
                "city": "Vichy/Charmeil",
                "country_code": "FR"
            },
            "circle": {
                "id": "21864",
                "latitude": 50.1495,
                "longitude": -5.0695,
                "radius": 769.485096552508
            }
        },
        {
            "marker": {
                "id": "CET",
                "latitude": 47.0820999146,
                "longitude": -0.8770639896,
                "city": "Cholet/Le Pontreau",
                "country_code": "FR"
            },
            "circle": {
                "id": "15889",
                "latitude": 52.4915,
                "longitude": -9.5785,
                "radius": 878.8525630309629
            }
        },
        {
            "marker": {
                "id": "OMO",
                "latitude": 43.2829017639,
                "longitude": 17.8458995819,
                "city": "Mostar",
                "country_code": "BA"
            },
            "circle": {
                "id": "32514",
                "latitude": 55.5695,
                "longitude": 38.2375,
                "radius": 1996.7252758554391
            }
        },
        {
            "marker": {
                "id": "LWR",
                "latitude": 53.2285995483,
                "longitude": 5.7605600357,
                "city": "Leeuwarden",
                "country_code": "NL"
            },
            "circle": {
                "id": "6734",
                "latitude": 60.3395,
                "longitude": 25.0285,
                "radius": 1408.767210754053
            }
        },
        {
            "marker": {
                "id": "IGS",
                "latitude": 48.7156982422,
                "longitude": 11.5340003967,
                "city": "Manching",
                "country_code": "DE"
            },
            "circle": {
                "id": "34154",
                "latitude": 59.2195,
                "longitude": 39.8595,
                "radius": 2165.3308926158115
            }
        }
    ]
}