{
    "target": "198.41.0.4",
    "measurement_filepath": "datasets/measurements/campaigns/198.41.0.4_North-Central-section_20230425/198.41.0.4_North-Central-section_1_52638506.json",
    "probes_filepath": "datasets/probes_section/North-Central-section_1.json",
    "alpha": 0.0,
    "threshold": -1,
    "noise": 0,
    "num_anycast_instances": 22,
    "anycast_instances": [
        {
            "marker": {
                "id": "BMA",
                "latitude": 59.3544006348,
                "longitude": 17.9416999817,
                "city": "Stockholm",
                "country_code": "SE"
            },
            "circle": {
                "id": "52699",
                "latitude": 59.5415,
                "longitude": 17.9415,
                "radius": 65.49843137949651
            }
        },
        {
            "marker": {
                "id": "CBG",
                "latitude": 52.2050018311,
                "longitude": 0.174999997,
                "city": "Cambridge",
                "country_code": "GB"
            },
            "circle": {
                "id": "20706",
                "latitude": 51.3905,
                "longitude": 0.1075,
                "radius": 106.941815721531
            }
        },
        {
            "marker": {
                "id": "DHR",
                "latitude": 52.9234008789,
                "longitude": 4.7806200981,
                "city": "Den Helder",
                "country_code": "NL"
            },
            "circle": {
                "id": "11698",
                "latitude": 52.0915,
                "longitude": 5.1815,
                "radius": 108.7274545494935
            }
        },
        {
            "marker": {
                "id": "NCL",
                "latitude": 55.0374984741,
                "longitude": -1.6916699409,
                "city": "Newcastle",
                "country_code": "GB"
            },
            "circle": {
                "id": "24889",
                "latitude": 55.5415,
                "longitude": -4.6585,
                "radius": 204.10886087591476
            }
        },
        {
            "marker": {
                "id": "LTN",
                "latitude": 51.8746986389,
                "longitude": -0.3683330119,
                "city": "London",
                "country_code": "GB"
            },
            "circle": {
                "id": "22278",
                "latitude": 51.5715,
                "longitude": -3.3195,
                "radius": 207.5489418574075
            }
        },
        {
            "marker": {
                "id": "BEQ",
                "latitude": 52.3426017761,
                "longitude": 0.7729390264,
                "city": "Thetford",
                "country_code": "GB"
            },
            "circle": {
                "id": "1000163",
                "latitude": 51.0185,
                "longitude": 2.1505,
                "radius": 181.822476918481
            }
        },
        {
            "marker": {
                "id": "AVN",
                "latitude": 43.9072990417,
                "longitude": 4.9018301964,
                "city": "Avignon/Caumont",
                "country_code": "FR"
            },
            "circle": {
                "id": "6495",
                "latitude": 45.7795,
                "longitude": 4.8715,
                "radius": 209.50332636516674
            }
        },
        {
            "marker": {
                "id": "LYS",
                "latitude": 45.726398468,
                "longitude": 5.0908298492,
                "city": "Lyon",
                "country_code": "FR"
            },
            "circle": {
                "id": "19856",
                "latitude": 47.0605,
                "longitude": 2.4095,
                "radius": 256.252849843515
            }
        },
        {
            "marker": {
                "id": "EPU",
                "latitude": 58.4189987183,
                "longitude": 24.4727993011,
                "city": "P\u00e4rnu",
                "country_code": "EE"
            },
            "circle": {
                "id": "6707",
                "latitude": 60.5705,
                "longitude": 27.1875,
                "radius": 291.49892449377353
            }
        },
        {
            "marker": {
                "id": "SVG",
                "latitude": 58.876701355,
                "longitude": 5.6377801895,
                "city": "Stavanger",
                "country_code": "NO"
            },
            "circle": {
                "id": "19479",
                "latitude": 59.9415,
                "longitude": 10.8005,
                "radius": 316.69468183392553
            }
        },
        {
            "marker": {
                "id": "RNE",
                "latitude": 46.0583000183,
                "longitude": 4.0013899803,
                "city": "Roanne/Renaison",
                "country_code": "FR"
            },
            "circle": {
                "id": "50382",
                "latitude": 47.1685,
                "longitude": 0.2415,
                "radius": 320.1768087076527
            }
        },
        {
            "marker": {
                "id": "XVS",
                "latitude": 50.3258018494,
                "longitude": 3.4612600803,
                "city": "Valenciennes/Denain",
                "country_code": "FR"
            },
            "circle": {
                "id": "1000487",
                "latitude": 48.0705,
                "longitude": -0.7785,
                "radius": 397.882751502852
            }
        },
        {
            "marker": {
                "id": "HVG",
                "latitude": 71.0096969604,
                "longitude": 25.9836006165,
                "city": "Honningsv\u00e5g",
                "country_code": "NO"
            },
            "circle": {
                "id": "12063",
                "latitude": 65.7385,
                "longitude": 24.5705,
                "radius": 590.0333034437765
            }
        },
        {
            "marker": {
                "id": "PES",
                "latitude": 61.8852005005,
                "longitude": 34.1547012329,
                "city": "Petrozavodsk",
                "country_code": "RU"
            },
            "circle": {
                "id": "30355",
                "latitude": 64.6695,
                "longitude": 24.5095,
                "radius": 576.4929147598057
            }
        },
        {
            "marker": {
                "id": "ALG",
                "latitude": 36.6910018921,
                "longitude": 3.2154099941,
                "city": "Algiers",
                "country_code": "DZ"
            },
            "circle": {
                "id": "567",
                "latitude": 36.8205,
                "longitude": 10.1805,
                "radius": 636.1549116188436
            }
        },
        {
            "marker": {
                "id": "QLP",
                "latitude": 44.0880012512,
                "longitude": 9.987950325,
                "city": "Sarzana",
                "country_code": "IT"
            },
            "circle": {
                "id": "30748",
                "latitude": 49.2215,
                "longitude": 17.6595,
                "radius": 818.5912510691369
            }
        },
        {
            "marker": {
                "id": "EIB",
                "latitude": 50.9927787781,
                "longitude": 10.4727783203,
                "city": "Eisenach",
                "country_code": "DE"
            },
            "circle": {
                "id": "6880",
                "latitude": 53.6075,
                "longitude": 10.0315,
                "radius": 297.3357337548045
            }
        },
        {
            "marker": {
                "id": "NBC",
                "latitude": 55.5647010803,
                "longitude": 52.0924987793,
                "city": "Nizhnekamsk",
                "country_code": "RU"
            },
            "circle": {
                "id": "14608",
                "latitude": 51.6515,
                "longitude": 39.1775,
                "radius": 958.5698583957528
            }
        },
        {
            "marker": {
                "id": "URS",
                "latitude": 51.7505989075,
                "longitude": 36.2956008911,
                "city": "Kursk",
                "country_code": "RU"
            },
            "circle": {
                "id": "13315",
                "latitude": 44.4595,
                "longitude": 26.1275,
                "radius": 1109.7956294729254
            }
        },
        {
            "marker": {
                "id": "ADX",
                "latitude": 56.3728981018,
                "longitude": -2.8684399128,
                "city": "St. Andrews",
                "country_code": "GB"
            },
            "circle": {
                "id": "1000959",
                "latitude": 64.0715,
                "longitude": -22.0205,
                "radius": 1351.6977516184959
            }
        },
        {
            "marker": {
                "id": "SOF",
                "latitude": 42.6966934204,
                "longitude": 23.4114360809,
                "city": "Sofia",
                "country_code": "BG"
            },
            "circle": {
                "id": "60548",
                "latitude": 33.8915,
                "longitude": 35.4995,
                "radius": 1439.6394708331318
            }
        },
        {
            "marker": {
                "id": "RGS",
                "latitude": 42.3576011658,
                "longitude": -3.620759964,
                "city": "Burgos",
                "country_code": "ES"
            },
            "circle": {
                "id": "1004118",
                "latitude": 32.6515,
                "longitude": -16.9325,
                "radius": 1603.4555133467588
            }
        }
    ]
}