{
    "target": "198.41.0.4",
    "measurement_filepath": "datasets/measurements/campaigns/198.41.0.4_North-Central-section_20230425/198.41.0.4_North-Central-section_2_52639249.json",
    "probes_filepath": "datasets/probes_section/North-Central-section_2.json",
    "alpha": 0.0,
    "threshold": -1,
    "noise": 0,
    "num_anycast_instances": 18,
    "anycast_instances": [
        {
            "marker": {
                "id": "KVB",
                "latitude": 58.456401825,
                "longitude": 13.972700119,
                "city": "Sk\u00f6vde",
                "country_code": "SE"
            },
            "circle": {
                "id": "32268",
                "latitude": 59.2715,
                "longitude": 15.2105,
                "radius": 115.733529344839
            }
        },
        {
            "marker": {
                "id": "BRU",
                "latitude": 50.9014015198,
                "longitude": 4.4844398499,
                "city": "Brussels",
                "country_code": "BE"
            },
            "circle": {
                "id": "1261",
                "latitude": 51.9875,
                "longitude": 5.9005,
                "radius": 159.5279985646812
            }
        },
        {
            "marker": {
                "id": "XCB",
                "latitude": 50.2218017578,
                "longitude": 3.154239893,
                "city": "Cambrai/\u00c9pinoy",
                "country_code": "FR"
            },
            "circle": {
                "id": "55711",
                "latitude": 48.7175,
                "longitude": 1.8975,
                "radius": 200.7610410233715
            }
        },
        {
            "marker": {
                "id": "EXT",
                "latitude": 50.7344017029,
                "longitude": -3.4138898849,
                "city": "Exeter",
                "country_code": "GB"
            },
            "circle": {
                "id": "6423",
                "latitude": 53.4685,
                "longitude": -2.2915,
                "radius": 314.78414197314873
            }
        },
        {
            "marker": {
                "id": "OST",
                "latitude": 51.1988983154,
                "longitude": 2.8622200489,
                "city": "Ostend",
                "country_code": "BE"
            },
            "circle": {
                "id": "54309",
                "latitude": 51.4115,
                "longitude": 0.0075,
                "radius": 204.5006146704062
            }
        },
        {
            "marker": {
                "id": "LED",
                "latitude": 59.8003005981,
                "longitude": 30.2625007629,
                "city": "St Petersburg",
                "country_code": "RU"
            },
            "circle": {
                "id": "115",
                "latitude": 60.2095,
                "longitude": 24.7175,
                "radius": 314.9404837399957
            }
        },
        {
            "marker": {
                "id": "VLC",
                "latitude": 39.4892997742,
                "longitude": -0.4816249907,
                "city": "Valencia",
                "country_code": "ES"
            },
            "circle": {
                "id": "50328",
                "latitude": 41.6715,
                "longitude": 2.7485,
                "radius": 380.3007857444687
            }
        },
        {
            "marker": {
                "id": "LYE",
                "latitude": 51.5051002502,
                "longitude": -1.9934300184,
                "city": "Lyneham",
                "country_code": "GB"
            },
            "circle": {
                "id": "54794",
                "latitude": 54.9995,
                "longitude": -1.4685,
                "radius": 392.12074046009195
            }
        },
        {
            "marker": {
                "id": "THN",
                "latitude": 58.3180999756,
                "longitude": 12.345000267,
                "city": "Trollh\u00e4ttan",
                "country_code": "SE"
            },
            "circle": {
                "id": "11558",
                "latitude": 61.6315,
                "longitude": 7.2595,
                "radius": 477.26891860296945
            }
        },
        {
            "marker": {
                "id": "GWY",
                "latitude": 53.300201416,
                "longitude": -8.9415903091,
                "city": "Galway",
                "country_code": "IE"
            },
            "circle": {
                "id": "570",
                "latitude": 56.0475,
                "longitude": -3.3395,
                "radius": 475.4757474894997
            }
        },
        {
            "marker": {
                "id": "TKU",
                "latitude": 60.5140991211,
                "longitude": 22.2628002167,
                "city": "Turku",
                "country_code": "FI"
            },
            "circle": {
                "id": "12063",
                "latitude": 65.7385,
                "longitude": 24.5705,
                "radius": 593.156016634419
            }
        },
        {
            "marker": {
                "id": "ENK",
                "latitude": 54.3988990784,
                "longitude": -7.6516699791,
                "city": "Enniskillen",
                "country_code": "GB"
            },
            "circle": {
                "id": "1000959",
                "latitude": 64.0715,
                "longitude": -22.0205,
                "radius": 1345.7932642100711
            }
        },
        {
            "marker": {
                "id": "ZRH",
                "latitude": 47.4646987915,
                "longitude": 8.5491695404,
                "city": "Zurich",
                "country_code": "CH"
            },
            "circle": {
                "id": "55080",
                "latitude": 44.4175,
                "longitude": 26.1715,
                "radius": 1407.7098127754407
            }
        },
        {
            "marker": {
                "id": "VNT",
                "latitude": 57.35779953,
                "longitude": 21.5442008972,
                "city": "Ventspils",
                "country_code": "LV"
            },
            "circle": {
                "id": "29566",
                "latitude": 57.6305,
                "longitude": 18.2805,
                "radius": 209.80525484442998
            }
        },
        {
            "marker": {
                "id": "ERF",
                "latitude": 50.979801178,
                "longitude": 10.9581003189,
                "city": "Erfurt",
                "country_code": "DE"
            },
            "circle": {
                "id": "3407",
                "latitude": 53.5505,
                "longitude": 10.0375,
                "radius": 304.7810794492345
            }
        },
        {
            "marker": {
                "id": "RDZ",
                "latitude": 44.4079017639,
                "longitude": 2.4826700687,
                "city": "Rodez/Marcillac",
                "country_code": "FR"
            },
            "circle": {
                "id": "53207",
                "latitude": 41.9305,
                "longitude": 8.7875,
                "radius": 583.403917871908
            }
        },
        {
            "marker": {
                "id": "ROM",
                "latitude": 41.799444,
                "longitude": 12.597222,
                "city": "Rome",
                "country_code": "IT"
            },
            "circle": {
                "id": "567",
                "latitude": 36.8205,
                "longitude": 10.1805,
                "radius": 612.9869504646036
            }
        },
        {
            "marker": {
                "id": "PVK",
                "latitude": 38.9254989624,
                "longitude": 20.7653007507,
                "city": "Preveza/Lefkada",
                "country_code": "GR"
            },
            "circle": {
                "id": "28543",
                "latitude": 44.7885,
                "longitude": 37.6895,
                "radius": 1543.6572608155598
            }
        }
    ]
}