{
    "target": "198.97.190.53",
    "measurement_filepath": "datasets/measurements/campaigns/198.97.190.53_North-Central-section_20230425/198.97.190.53_North-Central-section_1_52651836.json",
    "probes_filepath": "datasets/probes_section/North-Central-section_1.json",
    "alpha": 0.2,
    "threshold": -1,
    "noise": 0,
    "num_anycast_instances": 5,
    "anycast_instances": [
        {
            "marker": {
                "id": "QMZ",
                "latitude": 49.9674987793,
                "longitude": 8.1472215652,
                "city": "Mainz",
                "country_code": "DE"
            },
            "circle": {
                "id": "6940",
                "latitude": 50.0975,
                "longitude": 8.6395,
                "radius": 42.858929380595995
            }
        },
        {
            "marker": {
                "id": "BHX",
                "latitude": 52.4538993835,
                "longitude": -1.7480299473,
                "city": "Birmingham",
                "country_code": "GB"
            },
            "circle": {
                "id": "1002787",
                "latitude": 51.7705,
                "longitude": 0.1315,
                "radius": 156.8482961840368
            }
        },
        {
            "marker": {
                "id": "FCO",
                "latitude": 41.8045005798,
                "longitude": 12.2508001328,
                "city": "Rome",
                "country_code": "IT"
            },
            "circle": {
                "id": "6621",
                "latitude": 40.9475,
                "longitude": 17.2785,
                "radius": 537.6706983209913
            }
        },
        {
            "marker": {
                "id": "DME",
                "latitude": 55.4087982178,
                "longitude": 37.9062995911,
                "city": "Moscow",
                "country_code": "RU"
            },
            "circle": {
                "id": "1000902",
                "latitude": 60.3385,
                "longitude": 25.0275,
                "radius": 1405.1619066541448
            }
        },
        {
            "marker": {
                "id": "SXF",
                "latitude": 52.3800010681,
                "longitude": 13.5225000381,
                "city": "Berlin",
                "country_code": "DE"
            },
            "circle": {
                "id": "1003415",
                "latitude": 56.0195,
                "longitude": 12.1975,
                "radius": 714.1483254020193
            }
        }
    ]
}