{
    "target": "192.36.148.17",
    "measurement_filepath": "datasets/measurements/campaigns/192.36.148.17_North-Central_20230410/192.36.148.17_North-Central_100_52072179.json",
    "probes_filepath": "datasets/probes_sets/North-Central_100.json",
    "alpha": 1.0,
    "threshold": -1,
    "noise": 0,
    "num_anycast_instances": 11,
    "anycast_instances": [
        {
            "marker": {
                "id": "BQH",
                "latitude": 51.3307991028,
                "longitude": 0.0324999988,
                "city": "London",
                "country_code": "GB"
            },
            "circle": {
                "id": "15634",
                "latitude": 51.5095,
                "longitude": -0.0015,
                "radius": 25.462145423519345
            }
        },
        {
            "marker": {
                "id": "DEX",
                "latitude": 50.121212,
                "longitude": 8.6365638,
                "city": "Frankfurt-am-Main",
                "country_code": "DE"
            },
            "circle": {
                "id": "1004810",
                "latitude": 50.0975,
                "longitude": 8.6275,
                "radius": 43.44228802980675
            }
        },
        {
            "marker": {
                "id": "FICIX",
                "latitude": 60.1733244,
                "longitude": 24.9410248,
                "city": "Helsinki",
                "country_code": "FI"
            },
            "circle": {
                "id": "28294",
                "latitude": 60.1595,
                "longitude": 24.9315,
                "radius": 57.57479679757329
            }
        },
        {
            "marker": {
                "id": "ARN",
                "latitude": 59.6519012451,
                "longitude": 17.9186000824,
                "city": "Stockholm",
                "country_code": "SE"
            },
            "circle": {
                "id": "60336",
                "latitude": 59.3405,
                "longitude": 18.0885,
                "radius": 95.64517122578108
            }
        },
        {
            "marker": {
                "id": "LIN",
                "latitude": 45.445098877,
                "longitude": 9.2767400742,
                "city": "Milan",
                "country_code": "IT"
            },
            "circle": {
                "id": "51769",
                "latitude": 45.6015,
                "longitude": 9.8905,
                "radius": 128.1009875316962
            }
        },
        {
            "marker": {
                "id": "CPH",
                "latitude": 55.6179008484,
                "longitude": 12.6560001373,
                "city": "Copenhagen",
                "country_code": "DK"
            },
            "circle": {
                "id": "62426",
                "latitude": 55.6705,
                "longitude": 12.5685,
                "radius": 151.0848011686097
            }
        },
        {
            "marker": {
                "id": "RIX",
                "latitude": 56.9235992432,
                "longitude": 23.9710998535,
                "city": "Riga",
                "country_code": "LV"
            },
            "circle": {
                "id": "53256",
                "latitude": 56.6505,
                "longitude": 23.7195,
                "radius": 158.2851264871163
            }
        },
        {
            "marker": {
                "id": "BNX",
                "latitude": 50.4592018127,
                "longitude": 4.4538202286,
                "city": "Brussels",
                "country_code": "BE"
            },
            "circle": {
                "id": "61935",
                "latitude": 52.0495,
                "longitude": 5.2385,
                "radius": 203.35919236062847
            }
        },
        {
            "marker": {
                "id": "BEG",
                "latitude": 44.8184013367,
                "longitude": 20.3090991974,
                "city": "Belgrade",
                "country_code": "RS"
            },
            "circle": {
                "id": "60065",
                "latitude": 44.7595,
                "longitude": 20.4905,
                "radius": 204.4671203580362
            }
        },
        {
            "marker": {
                "id": "BIX",
                "latitude": 47.4812134,
                "longitude": 19.1303031,
                "city": "Budapest",
                "country_code": "HU"
            },
            "circle": {
                "id": "26894",
                "latitude": 48.3095,
                "longitude": 16.3215,
                "radius": 331.3517899291348
            }
        },
        {
            "marker": {
                "id": "CKL",
                "latitude": 55.8782997131,
                "longitude": 38.0616989136,
                "city": "Moscow",
                "country_code": "RU"
            },
            "circle": {
                "id": "53978",
                "latitude": 55.9615,
                "longitude": 38.0405,
                "radius": 748.5867291911798
            }
        }
    ]
}