{
    "target": "104.16.123.96",
    "measurement_filepath": "datasets/measurements/campaigns/104.16.123.96_Europe-countries_20230413/104.16.123.96_Europe_countries-5_52200263.json",
    "probes_filepath": "datasets/probes_sets/Europe_countries_5.json",
    "alpha": 0.0,
    "threshold": -1,
    "noise": 0,
    "num_anycast_instances": 30,
    "anycast_instances": [
        {
            "marker": {
                "id": "VNO",
                "latitude": 54.6341018677,
                "longitude": 25.2858009338,
                "city": "Vilnius",
                "country_code": "LT"
            },
            "circle": {
                "id": "16603",
                "latitude": 54.6885,
                "longitude": 25.2775,
                "radius": 22.524321736536898
            }
        },
        {
            "marker": {
                "id": "ZRH",
                "latitude": 47.4646987915,
                "longitude": 8.5491695404,
                "city": "Zurich",
                "country_code": "CH"
            },
            "circle": {
                "id": "1002086",
                "latitude": 47.3805,
                "longitude": 8.5415,
                "radius": 23.7626294739288
            }
        },
        {
            "marker": {
                "id": "RIX",
                "latitude": 56.9235992432,
                "longitude": 23.9710998535,
                "city": "Riga",
                "country_code": "LV"
            },
            "circle": {
                "id": "23076",
                "latitude": 56.9405,
                "longitude": 24.1205,
                "radius": 32.1944722306536
            }
        },
        {
            "marker": {
                "id": "STN",
                "latitude": 51.8849983215,
                "longitude": 0.2349999994,
                "city": "London",
                "country_code": "GB"
            },
            "circle": {
                "id": "15634",
                "latitude": 51.5095,
                "longitude": -0.0015,
                "radius": 44.8379643232143
            }
        },
        {
            "marker": {
                "id": "BUD",
                "latitude": 47.4369010925,
                "longitude": 19.2555999756,
                "city": "Budapest",
                "country_code": "HU"
            },
            "circle": {
                "id": "22945",
                "latitude": 47.4695,
                "longitude": 19.0495,
                "radius": 47.90241284964449
            }
        },
        {
            "marker": {
                "id": "ARN",
                "latitude": 59.6519012451,
                "longitude": 17.9186000824,
                "city": "Stockholm",
                "country_code": "SE"
            },
            "circle": {
                "id": "51501",
                "latitude": 59.3275,
                "longitude": 18.0675,
                "radius": 57.43271016210421
            }
        },
        {
            "marker": {
                "id": "TLL",
                "latitude": 59.4132995605,
                "longitude": 24.8327999115,
                "city": "Tallinn",
                "country_code": "EE"
            },
            "circle": {
                "id": "705",
                "latitude": 59.4395,
                "longitude": 24.7075,
                "radius": 63.2701190080512
            }
        },
        {
            "marker": {
                "id": "ATH",
                "latitude": 37.9364013672,
                "longitude": 23.9444999695,
                "city": "Athens",
                "country_code": "GR"
            },
            "circle": {
                "id": "12993",
                "latitude": 38.0385,
                "longitude": 23.7515,
                "radius": 63.430837744785
            }
        },
        {
            "marker": {
                "id": "SOF",
                "latitude": 42.6966934204,
                "longitude": 23.4114360809,
                "city": "Sofia",
                "country_code": "BG"
            },
            "circle": {
                "id": "1004017",
                "latitude": 42.7005,
                "longitude": 23.3175,
                "radius": 72.2931674815749
            }
        },
        {
            "marker": {
                "id": "AGH",
                "latitude": 56.2961006165,
                "longitude": 12.8471002579,
                "city": "\u00c4ngelholm",
                "country_code": "SE"
            },
            "circle": {
                "id": "11289",
                "latitude": 55.7115,
                "longitude": 12.5715,
                "radius": 73.5106996016274
            }
        },
        {
            "marker": {
                "id": "KEF",
                "latitude": 63.9850006104,
                "longitude": -22.6056003571,
                "city": "Reykjav\u00edk",
                "country_code": "IS"
            },
            "circle": {
                "id": "6740",
                "latitude": 64.1475,
                "longitude": -21.9105,
                "radius": 79.3986084871245
            }
        },
        {
            "marker": {
                "id": "SOB",
                "latitude": 46.6864013672,
                "longitude": 17.1590995789,
                "city": "S\u00e1rmell\u00e9k",
                "country_code": "HU"
            },
            "circle": {
                "id": "13593",
                "latitude": 46.3085,
                "longitude": 16.3415,
                "radius": 91.6726813233147
            }
        },
        {
            "marker": {
                "id": "UDE",
                "latitude": 51.6563987732,
                "longitude": 5.7086100578,
                "city": "Uden",
                "country_code": "NL"
            },
            "circle": {
                "id": "15817",
                "latitude": 50.8505,
                "longitude": 4.4575,
                "radius": 128.6585415450846
            }
        },
        {
            "marker": {
                "id": "THN",
                "latitude": 58.3180999756,
                "longitude": 12.345000267,
                "city": "Trollh\u00e4ttan",
                "country_code": "SE"
            },
            "circle": {
                "id": "54513",
                "latitude": 59.0485,
                "longitude": 10.1175,
                "radius": 159.6975836633604
            }
        },
        {
            "marker": {
                "id": "MHG",
                "latitude": 49.4730567932,
                "longitude": 8.514166832,
                "city": "Mannheim",
                "country_code": "DE"
            },
            "circle": {
                "id": "1005088",
                "latitude": 49.4515,
                "longitude": 11.0815,
                "radius": 186.33057602641017
            }
        },
        {
            "marker": {
                "id": "SVO",
                "latitude": 55.9725990295,
                "longitude": 37.4146003723,
                "city": "Moscow",
                "country_code": "RU"
            },
            "circle": {
                "id": "1001634",
                "latitude": 56.0495,
                "longitude": 40.2785,
                "radius": 188.939399975172
            }
        },
        {
            "marker": {
                "id": "XVS",
                "latitude": 50.3258018494,
                "longitude": 3.4612600803,
                "city": "Valenciennes/Denain",
                "country_code": "FR"
            },
            "circle": {
                "id": "1000601",
                "latitude": 49.4275,
                "longitude": 1.0675,
                "radius": 198.762399654
            }
        },
        {
            "marker": {
                "id": "BLQ",
                "latitude": 44.5354003906,
                "longitude": 11.2887001038,
                "city": "Bologna",
                "country_code": "IT"
            },
            "circle": {
                "id": "1004676",
                "latitude": 45.3205,
                "longitude": 9.2105,
                "radius": 200.3143202817057
            }
        },
        {
            "marker": {
                "id": "CLJ",
                "latitude": 46.7851982117,
                "longitude": 23.6861991882,
                "city": "Cluj-Napoca",
                "country_code": "RO"
            },
            "circle": {
                "id": "12933",
                "latitude": 45.0985,
                "longitude": 24.3785,
                "radius": 207.08038123517642
            }
        },
        {
            "marker": {
                "id": "OTP",
                "latitude": 44.5722007751,
                "longitude": 26.1021995544,
                "city": "Bucharest",
                "country_code": "RO"
            },
            "circle": {
                "id": "29662",
                "latitude": 43.9585,
                "longitude": 28.6405,
                "radius": 218.49572855467142
            }
        },
        {
            "marker": {
                "id": "GRZ",
                "latitude": 46.9911003113,
                "longitude": 15.4395999908,
                "city": "Graz",
                "country_code": "AT"
            },
            "circle": {
                "id": "1003575",
                "latitude": 48.9295,
                "longitude": 14.4905,
                "radius": 232.5755263135101
            }
        },
        {
            "marker": {
                "id": "ZAZ",
                "latitude": 41.6661987305,
                "longitude": -1.0415500402,
                "city": "Zaragoza",
                "country_code": "ES"
            },
            "circle": {
                "id": "1002246",
                "latitude": 42.5105,
                "longitude": 1.5395,
                "radius": 257.4365204054364
            }
        },
        {
            "marker": {
                "id": "KGD",
                "latitude": 54.8899993896,
                "longitude": 20.5925998688,
                "city": "Kaliningrad",
                "country_code": "RU"
            },
            "circle": {
                "id": "23884",
                "latitude": 53.1395,
                "longitude": 18.1315,
                "radius": 273.5243130583362
            }
        },
        {
            "marker": {
                "id": "LNZ",
                "latitude": 48.2332000732,
                "longitude": 14.1875,
                "city": "Linz",
                "country_code": "AT"
            },
            "circle": {
                "id": "1002478",
                "latitude": 49.5715,
                "longitude": 16.0905,
                "radius": 215.6182156154271
            }
        },
        {
            "marker": {
                "id": "PRG",
                "latitude": 50.1007995605,
                "longitude": 14.2600002289,
                "city": "Prague",
                "country_code": "CZ"
            },
            "circle": {
                "id": "17962",
                "latitude": 52.3685,
                "longitude": 16.8805,
                "radius": 316.7173611333732
            }
        },
        {
            "marker": {
                "id": "TPS",
                "latitude": 37.9113998413,
                "longitude": 12.4879999161,
                "city": "Trapani",
                "country_code": "IT"
            },
            "circle": {
                "id": "22897",
                "latitude": 35.9405,
                "longitude": 14.3815,
                "radius": 324.64573243613285
            }
        },
        {
            "marker": {
                "id": "BGZ",
                "latitude": 41.5871009827,
                "longitude": -8.445139885,
                "city": "Braga",
                "country_code": "PT"
            },
            "circle": {
                "id": "1001920",
                "latitude": 38.7475,
                "longitude": -9.1015,
                "radius": 330.1947559271067
            }
        },
        {
            "marker": {
                "id": "MEK",
                "latitude": 33.8791007996,
                "longitude": -5.5151200294,
                "city": "Meknes",
                "country_code": "MA"
            },
            "circle": {
                "id": "60464",
                "latitude": 28.1195,
                "longitude": -15.4295,
                "radius": 1168.0392932235427
            }
        },
        {
            "marker": {
                "id": "OER",
                "latitude": 63.4082984924,
                "longitude": 18.9899997711,
                "city": "\u00d6rnsk\u00f6ldsvik",
                "country_code": "SE"
            },
            "circle": {
                "id": "4842",
                "latitude": 78.2085,
                "longitude": 15.6195,
                "radius": 1669.8894395966327
            }
        },
        {
            "marker": {
                "id": "KDU",
                "latitude": 35.3354988098,
                "longitude": 75.5360031128,
                "city": "Skardu",
                "country_code": "PK"
            },
            "circle": {
                "id": "14015",
                "latitude": 55.0395,
                "longitude": 82.9375,
                "radius": 2265.092843854094
            }
        }
    ]
}