{
    "target": "192.33.4.12",
    "measurement_filepath": "datasets/measurements/campaigns/192.33.4.12_North-Central_20230410/192.33.4.12_North-Central_100_52069786.json",
    "probes_filepath": "datasets/probes_sets/North-Central_100.json",
    "alpha": 0.1,
    "threshold": -1,
    "noise": 0,
    "num_anycast_instances": 9,
    "anycast_instances": [
        {
            "marker": {
                "id": "QEF",
                "latitude": 49.9599990845,
                "longitude": 8.6458330154,
                "city": "Egelsbach",
                "country_code": "DE"
            },
            "circle": {
                "id": "1004809",
                "latitude": 50.1015,
                "longitude": 8.6275,
                "radius": 25.1383171051992
            }
        },
        {
            "marker": {
                "id": "XCZ",
                "latitude": 49.7839012146,
                "longitude": 4.6470799446,
                "city": "Charleville-M\u00e9zi\u00e8res",
                "country_code": "FR"
            },
            "circle": {
                "id": "12392",
                "latitude": 48.8485,
                "longitude": 2.6415,
                "radius": 186.4502831548896
            }
        },
        {
            "marker": {
                "id": "MUC",
                "latitude": 48.3538017273,
                "longitude": 11.7861003876,
                "city": "Munich",
                "country_code": "DE"
            },
            "circle": {
                "id": "62877",
                "latitude": 48.0505,
                "longitude": 14.5105,
                "radius": 226.9809043896744
            }
        },
        {
            "marker": {
                "id": "TOJ",
                "latitude": 40.4967002869,
                "longitude": -3.4458699226,
                "city": "Madrid",
                "country_code": "ES"
            },
            "circle": {
                "id": "23268",
                "latitude": 41.6515,
                "longitude": -0.8895,
                "radius": 253.84238357458892
            }
        },
        {
            "marker": {
                "id": "BRU",
                "latitude": 50.9014015198,
                "longitude": 4.4844398499,
                "city": "Brussels",
                "country_code": "BE"
            },
            "circle": {
                "id": "1003587",
                "latitude": 51.5105,
                "longitude": -0.0185,
                "radius": 331.269017231481
            }
        },
        {
            "marker": {
                "id": "PAR",
                "latitude": 49.0127983093,
                "longitude": 2.5499999523,
                "city": "Paris",
                "country_code": "FR"
            },
            "circle": {
                "id": "50617",
                "latitude": 45.7605,
                "longitude": 4.8775,
                "radius": 405.72037562857497
            }
        },
        {
            "marker": {
                "id": "CKL",
                "latitude": 55.8782997131,
                "longitude": 38.0616989136,
                "city": "Moscow",
                "country_code": "RU"
            },
            "circle": {
                "id": "1005121",
                "latitude": 50.5075,
                "longitude": 30.4985,
                "radius": 840.7597341476509
            }
        },
        {
            "marker": {
                "id": "WMI",
                "latitude": 52.4510993958,
                "longitude": 20.6518001556,
                "city": "Warsaw",
                "country_code": "PL"
            },
            "circle": {
                "id": "13370",
                "latitude": 47.5375,
                "longitude": 21.6105,
                "radius": 604.9121380409226
            }
        },
        {
            "marker": {
                "id": "SAW",
                "latitude": 40.898601532,
                "longitude": 29.3092002869,
                "city": "Istanbul",
                "country_code": "TR"
            },
            "circle": {
                "id": "19423",
                "latitude": 45.4485,
                "longitude": 28.0485,
                "radius": 890.975840260779
            }
        }
    ]
}