{
    "target": "192.33.4.12",
    "measurement_filepath": "datasets/measurements/campaigns/192.33.4.12_North-Central_20230410/192.33.4.12_North-Central_1000_52070052.json",
    "probes_filepath": "datasets/probes_sets/North-Central_1000.json",
    "alpha": 0.0,
    "threshold": -1,
    "noise": 0,
    "num_anycast_instances": 10,
    "anycast_instances": [
        {
            "marker": {
                "id": "ORY",
                "latitude": 48.7252998352,
                "longitude": 2.3594400883,
                "city": "Paris",
                "country_code": "FR"
            },
            "circle": {
                "id": "6363",
                "latitude": 48.9285,
                "longitude": 2.3505,
                "radius": 28.960056370160295
            }
        },
        {
            "marker": {
                "id": "QEF",
                "latitude": 49.9599990845,
                "longitude": 8.6458330154,
                "city": "Egelsbach",
                "country_code": "DE"
            },
            "circle": {
                "id": "1002660",
                "latitude": 50.1075,
                "longitude": 8.6805,
                "radius": 32.87017445173979
            }
        },
        {
            "marker": {
                "id": "TOJ",
                "latitude": 40.4967002869,
                "longitude": -3.4458699226,
                "city": "Madrid",
                "country_code": "ES"
            },
            "circle": {
                "id": "32868",
                "latitude": 40.5015,
                "longitude": -3.6595,
                "radius": 69.47009685270339
            }
        },
        {
            "marker": {
                "id": "PRV",
                "latitude": 49.4258003235,
                "longitude": 17.4046993256,
                "city": "P\u0159erov",
                "country_code": "CZ"
            },
            "circle": {
                "id": "50818",
                "latitude": 48.2715,
                "longitude": 16.4075,
                "radius": 153.97213980566494
            }
        },
        {
            "marker": {
                "id": "PUY",
                "latitude": 44.8935012817,
                "longitude": 13.9222002029,
                "city": "Pula",
                "country_code": "HR"
            },
            "circle": {
                "id": "11254",
                "latitude": 47.0695,
                "longitude": 15.4395,
                "radius": 280.6951687782214
            }
        },
        {
            "marker": {
                "id": "PGX",
                "latitude": 45.1981010437,
                "longitude": 0.8155559897,
                "city": "P\u00e9rigueux/Bassillac",
                "country_code": "FR"
            },
            "circle": {
                "id": "55290",
                "latitude": 45.7775,
                "longitude": 4.9215,
                "radius": 328.68275266518367
            }
        },
        {
            "marker": {
                "id": "PLQ",
                "latitude": 55.9732017517,
                "longitude": 21.0939006805,
                "city": "Palanga",
                "country_code": "LT"
            },
            "circle": {
                "id": "1004113",
                "latitude": 50.4485,
                "longitude": 30.5275,
                "radius": 880.4676724140033
            }
        },
        {
            "marker": {
                "id": "TSR",
                "latitude": 45.8098983765,
                "longitude": 21.3379001617,
                "city": "Timi\u015foara",
                "country_code": "RO"
            },
            "circle": {
                "id": "61616",
                "latitude": 47.4105,
                "longitude": 19.2475,
                "radius": 250.54539353329955
            }
        },
        {
            "marker": {
                "id": "LBC",
                "latitude": 53.8054008484,
                "longitude": 10.7192001343,
                "city": "L\u00fcbeck",
                "country_code": "DE"
            },
            "circle": {
                "id": "4371",
                "latitude": 64.1175,
                "longitude": -21.9295,
                "radius": 2159.5364440290955
            }
        },
        {
            "marker": {
                "id": "DEX",
                "latitude": 50.121212,
                "longitude": 8.6365638,
                "city": "Frankfurt-am-Main",
                "country_code": "DE"
            },
            "circle": {
                "id": "1004439",
                "latitude": 52.3515,
                "longitude": 4.9385,
                "radius": 358.19094956555114
            }
        }
    ]
}