{
    "target": "199.7.83.42",
    "probes_filepath": "datasets/probes_sets/North-Central_300.json",
    "alpha": 0.0,
    "threshold": -1,
    "noise": 0,
    "results_filepath": "datasets/results/campaigns/199.7.83.42_North-Central_20230410_alpha_light-factor_0.18/199.7.83.42_North-Central_300_52100151_0.0_-1_0.json",
    "gt_filepath": "datasets/ground-truth/root_servers/root_servers_L.json",
    "statistics": {
        "TP": 14,
        "FP": 13,
        "TN": 0,
        "FN": 14,
        "accuracy": 0.34146341463414637,
        "precision": 0.5185185185185185,
        "recall": 0.5,
        "f1": 0.509090909090909,
        "OT": 1,
        "OF": 2
    },
    "instances": [
        {
            "country_code": "BG",
            "city": "Sofia",
            "latitude": 42.6966934204,
            "longitude": 23.4114360809,
            "type": "TP"
        },
        {
            "country_code": "BY",
            "city": "Minsk",
            "latitude": 53.8644981384,
            "longitude": 27.5396995544,
            "type": "TP"
        },
        {
            "country_code": "CZ",
            "city": "Prague",
            "latitude": 50.1007995605,
            "longitude": 14.2600002289,
            "type": "TP"
        },
        {
            "country_code": "DE",
            "city": "Altenburg",
            "latitude": 50.9819450378,
            "longitude": 12.5063886642,
            "type": "FP"
        },
        {
            "country_code": "DE",
            "city": "Dortmund",
            "latitude": 51.5142273,
            "longitude": 7.4652789,
            "type": "FN"
        },
        {
            "country_code": "DE",
            "city": "Dusseldorf",
            "latitude": 51.2254018,
            "longitude": 6.7763137,
            "type": "FN"
        },
        {
            "country_code": "DE",
            "city": "Hamburg",
            "latitude": 53.5437641,
            "longitude": 10.0099133,
            "type": "FN"
        },
        {
            "country_code": "DK",
            "city": "Skive",
            "latitude": 56.550201416,
            "longitude": 9.1729803085,
            "type": "FP"
        },
        {
            "country_code": "ES",
            "city": "Madrid",
            "latitude": 40.4936,
            "longitude": -3.56676,
            "type": "TP"
        },
        {
            "country_code": "ES",
            "city": "Pamplona",
            "latitude": 42.7700004578,
            "longitude": -1.646329999,
            "type": "FP"
        },
        {
            "country_code": "ES",
            "city": "Reus",
            "latitude": 41.1473999023,
            "longitude": 1.1671700478,
            "type": "TP"
        },
        {
            "country_code": "FI",
            "city": "Helsinki-Vantaa",
            "latitude": 60.32135905,
            "longitude": 24.947206800038444,
            "type": "FN"
        },
        {
            "country_code": "FI",
            "city": "Tampere/Pirkkala",
            "latitude": 61.414100647,
            "longitude": 23.6044006348,
            "type": "TP"
        },
        {
            "country_code": "FR",
            "city": "Annecy/Meythet",
            "latitude": 45.9291992188,
            "longitude": 6.098760128,
            "type": "TP"
        },
        {
            "country_code": "FR",
            "city": "Creil",
            "latitude": 49.2535018921,
            "longitude": 2.5191400051,
            "type": "TP"
        },
        {
            "country_code": "FR",
            "city": "Lannion",
            "latitude": 48.7543983459,
            "longitude": -3.4716598988,
            "type": "FP"
        },
        {
            "country_code": "FR",
            "city": "Marseille",
            "latitude": 43.2961743,
            "longitude": 5.3699525,
            "type": "FN"
        },
        {
            "country_code": "FR",
            "city": "Nancy/Essey",
            "latitude": 48.6921005249,
            "longitude": 6.2304601669,
            "type": "FP"
        },
        {
            "country_code": "GB",
            "city": "Dundee",
            "latitude": 56.4605938,
            "longitude": -2.97019,
            "type": "FN"
        },
        {
            "country_code": "GB",
            "city": "Leeds-Bradford",
            "latitude": 53.8665524,
            "longitude": -1.6567664615412192,
            "type": "FN"
        },
        {
            "country_code": "GR",
            "city": "Heraklion",
            "latitude": 35.3400127,
            "longitude": 25.1343475,
            "type": "FN"
        },
        {
            "country_code": "GR",
            "city": "Ioannina",
            "latitude": 39.6963996887,
            "longitude": 20.8225002289,
            "type": "FP"
        },
        {
            "country_code": "GR",
            "city": "Mytilene",
            "latitude": 39.0567016602,
            "longitude": 26.5983009338,
            "type": "FP"
        },
        {
            "country_code": "HR",
            "city": "Rijeka",
            "latitude": 45.2168998718,
            "longitude": 14.5703001022,
            "type": "FP"
        },
        {
            "country_code": "IT",
            "city": "Ancona",
            "latitude": 43.480120400000004,
            "longitude": 13.218790609151764,
            "type": "FN"
        },
        {
            "country_code": "IT",
            "city": "Bari",
            "latitude": 41.1389007568,
            "longitude": 16.7605991364,
            "type": "FP"
        },
        {
            "country_code": "IT",
            "city": "Florence",
            "latitude": 43.7698712,
            "longitude": 11.2555757,
            "type": "FN"
        },
        {
            "country_code": "IT",
            "city": "Latina",
            "latitude": 41.45952605,
            "longitude": 13.012591212188894,
            "type": "FN"
        },
        {
            "country_code": "IT",
            "city": "Pescara",
            "latitude": 42.4317016602,
            "longitude": 14.1810998917,
            "type": "FP"
        },
        {
            "country_code": "NL",
            "city": "Amsterdam",
            "latitude": 52.3747158,
            "longitude": 4.8986167,
            "type": "FP"
        },
        {
            "country_code": "NL",
            "city": "Breda",
            "latitude": 51.567401886,
            "longitude": 4.9318299294,
            "type": "TP"
        },
        {
            "country_code": "PT",
            "city": "Porto",
            "latitude": 41.1494512,
            "longitude": -8.6107884,
            "type": "FN"
        },
        {
            "country_code": "RO",
            "city": "Bucharest",
            "latitude": 44.5722007751,
            "longitude": 26.1021995544,
            "type": "TP"
        },
        {
            "country_code": "RS",
            "city": "Belgrade",
            "latitude": 44.8184013367,
            "longitude": 20.3090991974,
            "type": "TP"
        },
        {
            "country_code": "RU",
            "city": "Cherepovets",
            "latitude": 59.273601532,
            "longitude": 38.0158004761,
            "type": "FP"
        },
        {
            "country_code": "RU",
            "city": "Moscow",
            "latitude": 55.9725990295,
            "longitude": 37.4146003723,
            "type": "TP"
        },
        {
            "country_code": "RU",
            "city": "Rostov-on-Don",
            "latitude": 47.2213858,
            "longitude": 39.7114196,
            "type": "FN"
        },
        {
            "country_code": "RU",
            "city": "St Petersburg",
            "latitude": 59.8003005981,
            "longitude": 30.2625007629,
            "type": "TP"
        },
        {
            "country_code": "SE",
            "city": "Halmstad",
            "latitude": 56.6911010742,
            "longitude": 12.8201999664,
            "type": "FP"
        },
        {
            "country_code": "SE",
            "city": "Stockholm",
            "latitude": 59.3293235,
            "longitude": 18.0685808,
            "type": "FN"
        },
        {
            "country_code": "SK",
            "city": "Bratislava",
            "latitude": 48.1702003479,
            "longitude": 17.2126998901,
            "type": "TP"
        },
        {
            "country_code": "TR",
            "city": "Mardin",
            "latitude": 37.2233009338,
            "longitude": 40.6316986084,
            "type": "OF"
        },
        {
            "country_code": "UA",
            "city": "Chernivtsi",
            "latitude": 48.2593002319,
            "longitude": 25.9808006287,
            "type": "OF"
        },
        {
            "country_code": "UA",
            "city": "Kiev",
            "latitude": 50.6035003662,
            "longitude": 30.1919002533,
            "type": "OT"
        }
    ]
}