{
    "target": "199.7.83.42",
    "probes_filepath": "datasets/probes_sets/North-Central_1000.json",
    "alpha": 0.2,
    "threshold": -1,
    "noise": 0,
    "results_filepath": "datasets/results/campaigns/199.7.83.42_North-Central_20230410_alpha_light-factor_0.18/199.7.83.42_North-Central_1000_52100828_0.2_-1_0.json",
    "gt_filepath": "datasets/ground-truth/root_servers/root_servers_L.json",
    "statistics": {
        "TP": 18,
        "FP": 19,
        "TN": 0,
        "FN": 10,
        "accuracy": 0.3829787234042553,
        "precision": 0.4864864864864865,
        "recall": 0.6428571428571429,
        "f1": 0.5538461538461539,
        "OT": 4,
        "OF": 7
    },
    "instances": [
        {
            "country_code": "AM",
            "city": "Yerevan",
            "latitude": 40.1473007202,
            "longitude": 44.3959007263,
            "type": "OT"
        },
        {
            "country_code": "AT",
            "city": "Linz",
            "latitude": 48.2332000732,
            "longitude": 14.1875,
            "type": "FP"
        },
        {
            "country_code": "AT",
            "city": "Vienna",
            "latitude": 48.1102981567,
            "longitude": 16.5697002411,
            "type": "TP"
        },
        {
            "country_code": "BE",
            "city": "Brussels",
            "latitude": 50.9014015198,
            "longitude": 4.4844398499,
            "type": "FP"
        },
        {
            "country_code": "BG",
            "city": "Plovdiv",
            "latitude": 42.0677986145,
            "longitude": 24.8507995605,
            "type": "FP"
        },
        {
            "country_code": "BG",
            "city": "Sofia",
            "latitude": 42.6966934204,
            "longitude": 23.4114360809,
            "type": "TP"
        },
        {
            "country_code": "BG",
            "city": "Varna",
            "latitude": 43.2321014404,
            "longitude": 27.8250999451,
            "type": "FP"
        },
        {
            "country_code": "BY",
            "city": "Brest",
            "latitude": 52.1082992554,
            "longitude": 23.8980998993,
            "type": "FP"
        },
        {
            "country_code": "BY",
            "city": "Minsk",
            "latitude": 53.8644981384,
            "longitude": 27.5396995544,
            "type": "TP"
        },
        {
            "country_code": "CH",
            "city": "Geneva",
            "latitude": 46.2043907,
            "longitude": 6.1431577,
            "type": "FN"
        },
        {
            "country_code": "CZ",
            "city": "Prague",
            "latitude": 50.1007995605,
            "longitude": 14.2600002289,
            "type": "TP"
        },
        {
            "country_code": "DE",
            "city": "D\u00fcsseldorf",
            "latitude": 51.2895011902,
            "longitude": 6.7667798996,
            "type": "TP"
        },
        {
            "country_code": "DE",
            "city": "Hamburg",
            "latitude": 53.6304016113,
            "longitude": 9.9882297516,
            "type": "TP"
        },
        {
            "country_code": "DE",
            "city": "Rostock",
            "latitude": 53.9182014465,
            "longitude": 12.2783002853,
            "type": "FP"
        },
        {
            "country_code": "DE",
            "city": "Stuttgart",
            "latitude": 48.6898994446,
            "longitude": 9.2219600677,
            "type": "FP"
        },
        {
            "country_code": "DK",
            "city": "Aarhus",
            "latitude": 56.2999992371,
            "longitude": 10.6190004349,
            "type": "FP"
        },
        {
            "country_code": "ES",
            "city": "Barcelona",
            "latitude": 41.2971000671,
            "longitude": 2.0784599781,
            "type": "TP"
        },
        {
            "country_code": "ES",
            "city": "Burgos",
            "latitude": 42.3576011658,
            "longitude": -3.620759964,
            "type": "FP"
        },
        {
            "country_code": "ES",
            "city": "Madrid",
            "latitude": 40.4967002869,
            "longitude": -3.4458699226,
            "type": "TP"
        },
        {
            "country_code": "FI",
            "city": "Helsinki-Vantaa",
            "latitude": 60.32135905,
            "longitude": 24.947206800038444,
            "type": "FN"
        },
        {
            "country_code": "FI",
            "city": "Kajaani",
            "latitude": 64.2854995728,
            "longitude": 27.6923999786,
            "type": "FP"
        },
        {
            "country_code": "FI",
            "city": "Tampere/Pirkkala",
            "latitude": 61.414100647,
            "longitude": 23.6044006348,
            "type": "TP"
        },
        {
            "country_code": "FR",
            "city": "Lorient/Lann/Bihou\u00e9",
            "latitude": 47.7606010437,
            "longitude": -3.4400000572,
            "type": "FP"
        },
        {
            "country_code": "FR",
            "city": "Lyon",
            "latitude": 45.726398468,
            "longitude": 5.0908298492,
            "type": "TP"
        },
        {
            "country_code": "FR",
            "city": "Marseille",
            "latitude": 43.2961743,
            "longitude": 5.3699525,
            "type": "FN"
        },
        {
            "country_code": "FR",
            "city": "Paris",
            "latitude": 48.9693984985,
            "longitude": 2.4413900375,
            "type": "TP"
        },
        {
            "country_code": "FR",
            "city": "Paris",
            "latitude": 48.7252998352,
            "longitude": 2.3594400883,
            "type": "TP"
        },
        {
            "country_code": "FR",
            "city": "Strasbourg",
            "latitude": 48.5382995605,
            "longitude": 7.6282300949,
            "type": "FP"
        },
        {
            "country_code": "GB",
            "city": "Bristol",
            "latitude": 51.5194015503,
            "longitude": -2.5908300877,
            "type": "FP"
        },
        {
            "country_code": "GB",
            "city": "Dundee",
            "latitude": 56.4605938,
            "longitude": -2.97019,
            "type": "FN"
        },
        {
            "country_code": "GB",
            "city": "Leeds-Bradford",
            "latitude": 53.8665524,
            "longitude": -1.6567664615412192,
            "type": "FN"
        },
        {
            "country_code": "GR",
            "city": "Heraklion",
            "latitude": 35.3396987915,
            "longitude": 25.1802997589,
            "type": "TP"
        },
        {
            "country_code": "IT",
            "city": "Ancona",
            "latitude": 43.480120400000004,
            "longitude": 13.218790609151764,
            "type": "FN"
        },
        {
            "country_code": "IT",
            "city": "Florence",
            "latitude": 43.7698712,
            "longitude": 11.2555757,
            "type": "FN"
        },
        {
            "country_code": "IT",
            "city": "Genova",
            "latitude": 44.4132995605,
            "longitude": 8.8374996185,
            "type": "FP"
        },
        {
            "country_code": "IT",
            "city": "Rome",
            "latitude": 41.8045005798,
            "longitude": 12.2508001328,
            "type": "TP"
        },
        {
            "country_code": "IT",
            "city": "Salerno",
            "latitude": 40.6203994751,
            "longitude": 14.9112997055,
            "type": "FP"
        },
        {
            "country_code": "MD",
            "city": "Chi\u015fin\u0103u",
            "latitude": 46.9277000427,
            "longitude": 28.9309997559,
            "type": "FP"
        },
        {
            "country_code": "MK",
            "city": "Ohrid",
            "latitude": 41.1800003052,
            "longitude": 20.7423000336,
            "type": "FP"
        },
        {
            "country_code": "N/A",
            "city": "N/A",
            "latitude": 59.3215,
            "longitude": 18.0775,
            "type": "OT"
        },
        {
            "country_code": "N/A",
            "city": "N/A",
            "latitude": 44.8495,
            "longitude": 24.8705,
            "type": "OF"
        },
        {
            "country_code": "N/A",
            "city": "N/A",
            "latitude": 59.3675,
            "longitude": 28.6075,
            "type": "OF"
        },
        {
            "country_code": "NL",
            "city": "Breda",
            "latitude": 51.567401886,
            "longitude": 4.9318299294,
            "type": "TP"
        },
        {
            "country_code": "PL",
            "city": "Krak\u00f3w",
            "latitude": 50.0777015686,
            "longitude": 19.7847995758,
            "type": "FP"
        },
        {
            "country_code": "PT",
            "city": "Porto",
            "latitude": 41.1494512,
            "longitude": -8.6107884,
            "type": "FN"
        },
        {
            "country_code": "RO",
            "city": "Otopeni",
            "latitude": 44.5507941,
            "longitude": 26.0729271,
            "type": "FN"
        },
        {
            "country_code": "RS",
            "city": "Belgrade",
            "latitude": 44.8184013367,
            "longitude": 20.3090991974,
            "type": "TP"
        },
        {
            "country_code": "RU",
            "city": "Moscow",
            "latitude": 55.8782997131,
            "longitude": 38.0616989136,
            "type": "TP"
        },
        {
            "country_code": "RU",
            "city": "Rostov-on-Don",
            "latitude": 47.2213858,
            "longitude": 39.7114196,
            "type": "FN"
        },
        {
            "country_code": "RU",
            "city": "St Petersburg",
            "latitude": 59.8003005981,
            "longitude": 30.2625007629,
            "type": "TP"
        },
        {
            "country_code": "SE",
            "city": "\u00d6rebro",
            "latitude": 59.2237014771,
            "longitude": 15.0380001068,
            "type": "FP"
        },
        {
            "country_code": "TR",
            "city": "Ankara",
            "latitude": 39.949798584,
            "longitude": 32.6885986328,
            "type": "OT"
        },
        {
            "country_code": "TR",
            "city": "Van",
            "latitude": 38.4682006836,
            "longitude": 43.3322982788,
            "type": "OF"
        },
        {
            "country_code": "TR",
            "city": "\u00c7orlu",
            "latitude": 41.1381988525,
            "longitude": 27.9190998077,
            "type": "OF"
        },
        {
            "country_code": "TR",
            "city": "\u0130zmir",
            "latitude": 38.2924003601,
            "longitude": 27.156999588,
            "type": "OF"
        },
        {
            "country_code": "UA",
            "city": "Dnipropetrovsk",
            "latitude": 48.3572006226,
            "longitude": 35.1006011963,
            "type": "OF"
        },
        {
            "country_code": "UA",
            "city": "Kiev",
            "latitude": 50.4016990662,
            "longitude": 30.4496994019,
            "type": "OT"
        },
        {
            "country_code": "UA",
            "city": "Lviv",
            "latitude": 49.8125,
            "longitude": 23.9561004639,
            "type": "OF"
        }
    ]
}