{
    "target": "199.7.83.42",
    "measurement_filepath": "datasets/measurements/campaigns/199.7.83.42_North-Central_20230410/199.7.83.42_North-Central_500_52100434.json",
    "probes_filepath": "datasets/probes_sets/North-Central_500.json",
    "alpha": 1,
    "threshold": 1.0,
    "noise": 0,
    "num_anycast_instances": 7,
    "anycast_instances": [
        {
            "marker": {
                "id": "BBU",
                "latitude": 44.503200531,
                "longitude": 26.1021003723,
                "city": "Bucharest",
                "country_code": "RO"
            },
            "circle": {
                "id": "13315",
                "latitude": 44.4595,
                "longitude": 26.1275,
                "radius": 24.307022598411
            }
        },
        {
            "marker": {
                "id": "BCN",
                "latitude": 41.2971000671,
                "longitude": 2.0784599781,
                "city": "Barcelona",
                "country_code": "ES"
            },
            "circle": {
                "id": "32626",
                "latitude": 41.3905,
                "longitude": 2.1085,
                "radius": 25.397067975699002
            }
        },
        {
            "marker": {
                "id": "ADJ",
                "latitude": 31.972700119,
                "longitude": 35.9916000366,
                "city": "Amman",
                "country_code": "JO"
            },
            "circle": {
                "id": "51488",
                "latitude": 31.9715,
                "longitude": 35.9015,
                "radius": 34.6016557721646
            }
        },
        {
            "marker": {
                "id": "BEG",
                "latitude": 44.8184013367,
                "longitude": 20.3090991974,
                "city": "Belgrade",
                "country_code": "RS"
            },
            "circle": {
                "id": "18859",
                "latitude": 44.8115,
                "longitude": 20.4695,
                "radius": 36.7031859131217
            }
        },
        {
            "marker": {
                "id": "PRG",
                "latitude": 50.1007995605,
                "longitude": 14.2600002289,
                "city": "Prague",
                "country_code": "CZ"
            },
            "circle": {
                "id": "1004987",
                "latitude": 50.0905,
                "longitude": 14.4115,
                "radius": 39.4323915233934
            }
        },
        {
            "marker": {
                "id": "CERN",
                "latitude": 46.204705,
                "longitude": 6.1431301,
                "city": "Geneva",
                "country_code": "CH"
            },
            "circle": {
                "id": "54597",
                "latitude": 46.2205,
                "longitude": 6.1015,
                "radius": 44.170671280575
            }
        },
        {
            "marker": {
                "id": "MHP",
                "latitude": 53.8644981384,
                "longitude": 27.5396995544,
                "city": "Minsk",
                "country_code": "BY"
            },
            "circle": {
                "id": "1004856",
                "latitude": 53.8705,
                "longitude": 27.5895,
                "radius": 44.734580894073
            }
        }
    ]
}