{
    "target": "192.36.148.17",
    "probes_filepath": "datasets/probes_section/North-Central-section_1.json",
    "alpha": 0.0,
    "threshold": -1,
    "noise": 0,
    "results_filepath": "datasets/results/campaigns/192.36.148.17_North-Central-section_20230425_alpha_light-factor_0.40/192.36.148.17_North-Central-section_1_52653005_0.0_-1_0.json",
    "gt_filepath": "datasets/ground-truth/root_servers/root_servers_I.json",
    "statistics": {
        "TP": 11,
        "FP": 11,
        "TN": 0,
        "FN": 16,
        "accuracy": 0.2894736842105263,
        "precision": 0.5,
        "recall": 0.4074074074074074,
        "f1": 0.44897959183673464,
        "OT": 0,
        "OF": 0
    },
    "instances": [
        {
            "country_code": "AM",
            "city": "Gyumri",
            "latitude": 40.7504005432,
            "longitude": 43.8592987061,
            "type": "TP"
        },
        {
            "country_code": "AT",
            "city": "Vienna",
            "latitude": 48.1102981567,
            "longitude": 16.5697002411,
            "type": "TP"
        },
        {
            "country_code": "BE",
            "city": "Brussels",
            "latitude": 50.4592018127,
            "longitude": 4.4538202286,
            "type": "TP"
        },
        {
            "country_code": "BG",
            "city": "Dolna Mitropoliya",
            "latitude": 43.4514007568,
            "longitude": 24.5027999878,
            "type": "FP"
        },
        {
            "country_code": "BG",
            "city": "Sofia",
            "latitude": 42.691467,
            "longitude": 23.335126,
            "type": "FN"
        },
        {
            "country_code": "BG",
            "city": "Yambol",
            "latitude": 42.4548988342,
            "longitude": 26.3521995544,
            "type": "FP"
        },
        {
            "country_code": "CH",
            "city": "Zurich",
            "latitude": 47.4646987915,
            "longitude": 8.5491695404,
            "type": "FP"
        },
        {
            "country_code": "DE",
            "city": "Berlin",
            "latitude": 52.514029,
            "longitude": 13.41072,
            "type": "FN"
        },
        {
            "country_code": "DE",
            "city": "Frankfurt",
            "latitude": 50.119606,
            "longitude": 8.685439,
            "type": "FN"
        },
        {
            "country_code": "DE",
            "city": "Rostock",
            "latitude": 53.9182014465,
            "longitude": 12.2783002853,
            "type": "FP"
        },
        {
            "country_code": "EE",
            "city": "Tallinn",
            "latitude": 59.4132995605,
            "longitude": 24.8327999115,
            "type": "TP"
        },
        {
            "country_code": "FI",
            "city": "Helsinki",
            "latitude": 60.172566,
            "longitude": 24.940254,
            "type": "FN"
        },
        {
            "country_code": "FR",
            "city": "Auxerre/Branches",
            "latitude": 47.8502006531,
            "longitude": 3.49710989,
            "type": "FP"
        },
        {
            "country_code": "FR",
            "city": "Cambrai/\u00c9pinoy",
            "latitude": 50.2218017578,
            "longitude": 3.154239893,
            "type": "FP"
        },
        {
            "country_code": "FR",
            "city": "Paris",
            "latitude": 48.855725,
            "longitude": 2.349194,
            "type": "FN"
        },
        {
            "country_code": "GB",
            "city": "Bournemouth",
            "latitude": 50.7799987793,
            "longitude": -1.8424999714,
            "type": "FP"
        },
        {
            "country_code": "GB",
            "city": "London",
            "latitude": 51.505088,
            "longitude": -0.119949,
            "type": "FN"
        },
        {
            "country_code": "HR",
            "city": "Rijeka",
            "latitude": 45.2168998718,
            "longitude": 14.5703001022,
            "type": "TP"
        },
        {
            "country_code": "HU",
            "city": "S\u00e1rmell\u00e9k",
            "latitude": 46.6864013672,
            "longitude": 17.1590995789,
            "type": "FP"
        },
        {
            "country_code": "IS",
            "city": "Reykjavik",
            "latitude": 64.147725,
            "longitude": -21.947503,
            "type": "FN"
        },
        {
            "country_code": "IS",
            "city": "Vestmannaeyjar",
            "latitude": 63.4243011475,
            "longitude": -20.2789001465,
            "type": "FP"
        },
        {
            "country_code": "IT",
            "city": "Milan",
            "latitude": 45.445098877,
            "longitude": 9.2767400742,
            "type": "TP"
        },
        {
            "country_code": "LT",
            "city": "Vilnius",
            "latitude": 54.755187,
            "longitude": 25.296416,
            "type": "FN"
        },
        {
            "country_code": "LU",
            "city": "Luxembourg",
            "latitude": 49.617173,
            "longitude": 6.136898,
            "type": "FN"
        },
        {
            "country_code": "LV",
            "city": "Riga",
            "latitude": 56.9235992432,
            "longitude": 23.9710998535,
            "type": "TP"
        },
        {
            "country_code": "MA",
            "city": "Rabat",
            "latitude": 34.011544,
            "longitude": -6.836315,
            "type": "FN"
        },
        {
            "country_code": "NL",
            "city": "Amsterdam",
            "latitude": 52.376051,
            "longitude": 4.902197,
            "type": "FN"
        },
        {
            "country_code": "NO",
            "city": "Rygge",
            "latitude": 59.3788986206,
            "longitude": 10.7855997086,
            "type": "TP"
        },
        {
            "country_code": "NO",
            "city": "Vard\u00f8",
            "latitude": 70.3554000854,
            "longitude": 31.0449008942,
            "type": "FP"
        },
        {
            "country_code": "PT",
            "city": "Beja",
            "latitude": 38.0788993835,
            "longitude": -7.9324002266,
            "type": "FP"
        },
        {
            "country_code": "RO",
            "city": "Bucharest",
            "latitude": 44.432301,
            "longitude": 26.110193,
            "type": "FN"
        },
        {
            "country_code": "RS",
            "city": "Belgrade",
            "latitude": 44.810497,
            "longitude": 20.455291,
            "type": "FN"
        },
        {
            "country_code": "SE",
            "city": "Eskilstuna",
            "latitude": 59.3511009216,
            "longitude": 16.7084007263,
            "type": "TP"
        },
        {
            "country_code": "SE",
            "city": "Gothenburg",
            "latitude": 57.717614,
            "longitude": 11.98341,
            "type": "FN"
        },
        {
            "country_code": "SE",
            "city": "Sundsvall",
            "latitude": 62.387574,
            "longitude": 17.27741,
            "type": "FN"
        },
        {
            "country_code": "SE",
            "city": "\u00c4ngelholm",
            "latitude": 56.2961006165,
            "longitude": 12.8471002579,
            "type": "TP"
        },
        {
            "country_code": "SK",
            "city": "Bratislava",
            "latitude": 48.155683,
            "longitude": 17.104361,
            "type": "FN"
        },
        {
            "country_code": "TR",
            "city": "Ankara",
            "latitude": 40.1281013489,
            "longitude": 32.995098114,
            "type": "TP"
        }
    ]
}