{
    "target": "192.58.128.30",
    "measurement_filepath": "datasets/measurements/campaigns/North-Central_20230410_192.58.128.30/192.58.128.30_North-Central_500_52096939.json",
    "probes_filepath": "datasets/probes_sets/North-Central_500.json",
    "alpha": 1,
    "threshold": 1.0,
    "noise": 0,
    "num_anycast_instances": 9,
    "anycast_instances": [
        {
            "marker": {
                "id": "LIS",
                "latitude": 38.7812995911,
                "longitude": -9.1359195709,
                "city": "Lisbon",
                "country_code": "PT"
            },
            "circle": {
                "id": "1004057",
                "latitude": 38.7305,
                "longitude": -9.1405,
                "radius": 36.68404495360592
            }
        },
        {
            "marker": {
                "id": "VNO",
                "latitude": 54.6341018677,
                "longitude": 25.2858009338,
                "city": "Vilnius",
                "country_code": "LT"
            },
            "circle": {
                "id": "1002006",
                "latitude": 54.6405,
                "longitude": 25.3075,
                "radius": 38.77904198576118
            }
        },
        {
            "marker": {
                "id": "LJU",
                "latitude": 46.2237014771,
                "longitude": 14.4575996399,
                "city": "Ljubljana",
                "country_code": "SI"
            },
            "circle": {
                "id": "6827",
                "latitude": 46.6205,
                "longitude": 14.2685,
                "radius": 55.166841684946704
            }
        },
        {
            "marker": {
                "id": "SOF",
                "latitude": 42.6966934204,
                "longitude": 23.4114360809,
                "city": "Sofia",
                "country_code": "BG"
            },
            "circle": {
                "id": "6897",
                "latitude": 42.6605,
                "longitude": 23.3715,
                "radius": 58.70044805174144
            }
        },
        {
            "marker": {
                "id": "FICIX",
                "latitude": 60.1733244,
                "longitude": 24.9410248,
                "city": "Helsinki",
                "country_code": "FI"
            },
            "circle": {
                "id": "6330",
                "latitude": 60.2075,
                "longitude": 24.8985,
                "radius": 61.424220318175664
            }
        },
        {
            "marker": {
                "id": "LED",
                "latitude": 59.8003005981,
                "longitude": 30.2625007629,
                "city": "St Petersburg",
                "country_code": "RU"
            },
            "circle": {
                "id": "15943",
                "latitude": 59.9485,
                "longitude": 30.2795,
                "radius": 70.13378291871643
            }
        },
        {
            "marker": {
                "id": "DEX",
                "latitude": 50.121212,
                "longitude": 8.6365638,
                "city": "Frankfurt-am-Main",
                "country_code": "DE"
            },
            "circle": {
                "id": "1004810",
                "latitude": 50.0975,
                "longitude": 8.6275,
                "radius": 89.85549170593026
            }
        },
        {
            "marker": {
                "id": "WIE",
                "latitude": 48.1102981567,
                "longitude": 16.5697002411,
                "city": "Vienna",
                "country_code": "AT"
            },
            "circle": {
                "id": "11226",
                "latitude": 48.2105,
                "longitude": 16.3685,
                "radius": 91.99368251986316
            }
        },
        {
            "marker": {
                "id": "SXF",
                "latitude": 52.3800010681,
                "longitude": 13.5225000381,
                "city": "Berlin",
                "country_code": "DE"
            },
            "circle": {
                "id": "1001869",
                "latitude": 52.4715,
                "longitude": 13.3705,
                "radius": 94.56243052841053
            }
        }
    ]
}