{
    "target": "104.16.123.96",
    "measurement_filepath": "datasets/measurements/campaigns/104.16.123.96_Europe-countries_20230413/104.16.123.96_Europe_countries-5_52200263.json",
    "probes_filepath": "datasets/probes_sets/Europe_countries_5.json",
    "alpha": 0.0,
    "threshold": -1,
    "noise": 0,
    "num_anycast_instances": 24,
    "anycast_instances": [
        {
            "marker": {
                "id": "VNO",
                "latitude": 54.6341018677,
                "longitude": 25.2858009338,
                "city": "Vilnius",
                "country_code": "LT"
            },
            "circle": {
                "id": "16603",
                "latitude": 54.6885,
                "longitude": 25.2775,
                "radius": 30.0324289820492
            }
        },
        {
            "marker": {
                "id": "ZRH",
                "latitude": 47.4646987915,
                "longitude": 8.5491695404,
                "city": "Zurich",
                "country_code": "CH"
            },
            "circle": {
                "id": "1002086",
                "latitude": 47.3805,
                "longitude": 8.5415,
                "radius": 31.6835059652384
            }
        },
        {
            "marker": {
                "id": "RIX",
                "latitude": 56.9235992432,
                "longitude": 23.9710998535,
                "city": "Riga",
                "country_code": "LV"
            },
            "circle": {
                "id": "23076",
                "latitude": 56.9405,
                "longitude": 24.1205,
                "radius": 42.9259629742048
            }
        },
        {
            "marker": {
                "id": "FAB",
                "latitude": 51.2757987976,
                "longitude": -0.7763329744,
                "city": "Farnborough",
                "country_code": "GB"
            },
            "circle": {
                "id": "15634",
                "latitude": 51.5095,
                "longitude": -0.0015,
                "radius": 59.783952430952404
            }
        },
        {
            "marker": {
                "id": "BUD",
                "latitude": 47.4369010925,
                "longitude": 19.2555999756,
                "city": "Budapest",
                "country_code": "HU"
            },
            "circle": {
                "id": "22945",
                "latitude": 47.4695,
                "longitude": 19.0495,
                "radius": 63.869883799525994
            }
        },
        {
            "marker": {
                "id": "ARN",
                "latitude": 59.6519012451,
                "longitude": 17.9186000824,
                "city": "Stockholm",
                "country_code": "SE"
            },
            "circle": {
                "id": "51501",
                "latitude": 59.3275,
                "longitude": 18.0675,
                "radius": 76.57694688280561
            }
        },
        {
            "marker": {
                "id": "FICIX",
                "latitude": 60.1733244,
                "longitude": 24.9410248,
                "city": "Helsinki",
                "country_code": "FI"
            },
            "circle": {
                "id": "705",
                "latitude": 59.4395,
                "longitude": 24.7075,
                "radius": 84.36015867740161
            }
        },
        {
            "marker": {
                "id": "ATH",
                "latitude": 37.9364013672,
                "longitude": 23.9444999695,
                "city": "Athens",
                "country_code": "GR"
            },
            "circle": {
                "id": "12993",
                "latitude": 38.0385,
                "longitude": 23.7515,
                "radius": 84.57445032638
            }
        },
        {
            "marker": {
                "id": "SOF",
                "latitude": 42.6966934204,
                "longitude": 23.4114360809,
                "city": "Sofia",
                "country_code": "BG"
            },
            "circle": {
                "id": "1004017",
                "latitude": 42.7005,
                "longitude": 23.3175,
                "radius": 96.3908899754332
            }
        },
        {
            "marker": {
                "id": "KID",
                "latitude": 55.9216995239,
                "longitude": 14.0854997635,
                "city": "Kristianstad",
                "country_code": "SE"
            },
            "circle": {
                "id": "11289",
                "latitude": 55.7115,
                "longitude": 12.5715,
                "radius": 98.0142661355032
            }
        },
        {
            "marker": {
                "id": "KEF",
                "latitude": 63.9850006104,
                "longitude": -22.6056003571,
                "city": "Reykjav\u00edk",
                "country_code": "IS"
            },
            "circle": {
                "id": "6740",
                "latitude": 64.1475,
                "longitude": -21.9105,
                "radius": 105.86481131616601
            }
        },
        {
            "marker": {
                "id": "TZR",
                "latitude": 46.3931007385,
                "longitude": 17.9174995422,
                "city": "Tasz\u00e1r",
                "country_code": "HU"
            },
            "circle": {
                "id": "13593",
                "latitude": 46.3085,
                "longitude": 16.3415,
                "radius": 122.23024176441962
            }
        },
        {
            "marker": {
                "id": "DUS",
                "latitude": 51.2895011902,
                "longitude": 6.7667798996,
                "city": "D\u00fcsseldorf",
                "country_code": "DE"
            },
            "circle": {
                "id": "15817",
                "latitude": 50.8505,
                "longitude": 4.4575,
                "radius": 171.5447220601128
            }
        },
        {
            "marker": {
                "id": "GOT",
                "latitude": 57.6627998352,
                "longitude": 12.279800415,
                "city": "Gothenburg",
                "country_code": "SE"
            },
            "circle": {
                "id": "54513",
                "latitude": 59.0485,
                "longitude": 10.1175,
                "radius": 212.9301115511472
            }
        },
        {
            "marker": {
                "id": "INN",
                "latitude": 47.2602005005,
                "longitude": 11.3439998627,
                "city": "Innsbruck",
                "country_code": "AT"
            },
            "circle": {
                "id": "1005088",
                "latitude": 49.4515,
                "longitude": 11.0815,
                "radius": 248.44076803521358
            }
        },
        {
            "marker": {
                "id": "RYB",
                "latitude": 58.1041984558,
                "longitude": 38.9294013977,
                "city": "Rybinsk",
                "country_code": "RU"
            },
            "circle": {
                "id": "1001634",
                "latitude": 56.0495,
                "longitude": 40.2785,
                "radius": 251.919199966896
            }
        },
        {
            "marker": {
                "id": "JAM",
                "latitude": 42.4548988342,
                "longitude": 26.3521995544,
                "city": "Yambol",
                "country_code": "BG"
            },
            "circle": {
                "id": "29662",
                "latitude": 43.9585,
                "longitude": 28.6405,
                "radius": 291.32763807289524
            }
        },
        {
            "marker": {
                "id": "XOG",
                "latitude": 44.140499115,
                "longitude": 4.8667201996,
                "city": "Orange/Caritat",
                "country_code": "FR"
            },
            "circle": {
                "id": "1002246",
                "latitude": 42.5105,
                "longitude": 1.5395,
                "radius": 343.24869387391516
            }
        },
        {
            "marker": {
                "id": "BXP",
                "latitude": 52.0057983398,
                "longitude": 23.1436004639,
                "city": "Bia\u0142a Podlaska",
                "country_code": "PL"
            },
            "circle": {
                "id": "23884",
                "latitude": 53.1395,
                "longitude": 18.1315,
                "radius": 364.6990840777816
            }
        },
        {
            "marker": {
                "id": "IEG",
                "latitude": 52.1385002136,
                "longitude": 15.7986001968,
                "city": "Babimost",
                "country_code": "PL"
            },
            "circle": {
                "id": "1002478",
                "latitude": 49.5715,
                "longitude": 16.0905,
                "radius": 287.4909541539028
            }
        },
        {
            "marker": {
                "id": "CRV",
                "latitude": 38.9972000122,
                "longitude": 17.0802001953,
                "city": "Crotone",
                "country_code": "IT"
            },
            "circle": {
                "id": "22897",
                "latitude": 35.9405,
                "longitude": 14.3815,
                "radius": 432.86097658151044
            }
        },
        {
            "marker": {
                "id": "GIB",
                "latitude": 36.1511993408,
                "longitude": -5.3496599197,
                "city": "Gibraltar",
                "country_code": "GI"
            },
            "circle": {
                "id": "1001920",
                "latitude": 38.7475,
                "longitude": -9.1015,
                "radius": 440.25967456947564
            }
        },
        {
            "marker": {
                "id": "UDJ",
                "latitude": 48.6343002319,
                "longitude": 22.2633991241,
                "city": "Uzhhorod",
                "country_code": "UA"
            },
            "circle": {
                "id": "26285",
                "latitude": 47.0195,
                "longitude": 28.8415,
                "radius": 523.7540925866648
            }
        },
        {
            "marker": {
                "id": "PGX",
                "latitude": 45.1981010437,
                "longitude": 0.8155559897,
                "city": "P\u00e9rigueux/Bassillac",
                "country_code": "FR"
            },
            "circle": {
                "id": "33948",
                "latitude": 39.9915,
                "longitude": -0.0505,
                "radius": 590.9552701794868
            }
        }
    ]
}