{
    "target": "192.33.4.12",
    "probes_filepath": "datasets/probes_sets/North-Central_300.json",
    "alpha": 0.1,
    "threshold": -1,
    "noise": 0,
    "results_filepath": "datasets/results/campaigns/192.33.4.12_North-Central_20230410_alpha_light-factor_0.18/192.33.4.12_North-Central_300_52069826_0.1_-1_0.json",
    "gt_filepath": "datasets/ground-truth/root_servers/root_servers_C.json",
    "statistics": {
        "TP": 4,
        "FP": 24,
        "TN": 0,
        "FN": 0,
        "accuracy": 0.14285714285714285,
        "precision": 0.14285714285714285,
        "recall": 1.0,
        "f1": 0.25,
        "OT": 0,
        "OF": 2
    },
    "instances": [
        {
            "country_code": "AT",
            "city": "Salzburg",
            "latitude": 47.7933006287,
            "longitude": 13.0043001175,
            "type": "FP"
        },
        {
            "country_code": "AT",
            "city": "Vienna",
            "latitude": 48.1102981567,
            "longitude": 16.5697002411,
            "type": "FP"
        },
        {
            "country_code": "BA",
            "city": "Sarajevo",
            "latitude": 43.8246002197,
            "longitude": 18.3314990997,
            "type": "FP"
        },
        {
            "country_code": "BE",
            "city": "Brussels",
            "latitude": 50.9014015198,
            "longitude": 4.4844398499,
            "type": "FP"
        },
        {
            "country_code": "BE",
            "city": "Ostend",
            "latitude": 51.1988983154,
            "longitude": 2.8622200489,
            "type": "FP"
        },
        {
            "country_code": "BY",
            "city": "Brest",
            "latitude": 52.1082992554,
            "longitude": 23.8980998993,
            "type": "FP"
        },
        {
            "country_code": "BY",
            "city": "Minsk",
            "latitude": 53.8644981384,
            "longitude": 27.5396995544,
            "type": "FP"
        },
        {
            "country_code": "DE",
            "city": "Egelsbach",
            "latitude": 49.9599990845,
            "longitude": 8.6458330154,
            "type": "TP"
        },
        {
            "country_code": "DE",
            "city": "Hamburg",
            "latitude": 53.5352783203,
            "longitude": 9.8355560303,
            "type": "FP"
        },
        {
            "country_code": "DE",
            "city": "Munich",
            "latitude": 48.3538017273,
            "longitude": 11.7861003876,
            "type": "FP"
        },
        {
            "country_code": "DK",
            "city": "Copenhagen",
            "latitude": 55.5856018066,
            "longitude": 12.1314001083,
            "type": "FP"
        },
        {
            "country_code": "ES",
            "city": "Almer\u00eda",
            "latitude": 36.8438987732,
            "longitude": -2.3701000214,
            "type": "FP"
        },
        {
            "country_code": "ES",
            "city": "Madrid",
            "latitude": 40.4967002869,
            "longitude": -3.4458699226,
            "type": "TP"
        },
        {
            "country_code": "ES",
            "city": "Zaragoza",
            "latitude": 41.6661987305,
            "longitude": -1.0415500402,
            "type": "FP"
        },
        {
            "country_code": "FR",
            "city": "Nantes",
            "latitude": 47.1531982422,
            "longitude": -1.610730052,
            "type": "FP"
        },
        {
            "country_code": "FR",
            "city": "Paris",
            "latitude": 49.0127983093,
            "longitude": 2.5499999523,
            "type": "TP"
        },
        {
            "country_code": "FR",
            "city": "Paris",
            "latitude": 48.7252998352,
            "longitude": 2.3594400883,
            "type": "FP"
        },
        {
            "country_code": "FR",
            "city": "Strasbourg",
            "latitude": 48.5382995605,
            "longitude": 7.6282300949,
            "type": "FP"
        },
        {
            "country_code": "GB",
            "city": "Inverness",
            "latitude": 57.5424995422,
            "longitude": -4.0475001335,
            "type": "FP"
        },
        {
            "country_code": "GB",
            "city": "London",
            "latitude": 51.1481018066,
            "longitude": -0.1902779937,
            "type": "FP"
        },
        {
            "country_code": "HU",
            "city": "Budapest",
            "latitude": 47.4369010925,
            "longitude": 19.2555999756,
            "type": "FP"
        },
        {
            "country_code": "HU",
            "city": "Gy\u0151r",
            "latitude": 47.6244010925,
            "longitude": 17.8136005402,
            "type": "FP"
        },
        {
            "country_code": "IT",
            "city": "Milan",
            "latitude": 45.6305999756,
            "longitude": 8.7281103134,
            "type": "FP"
        },
        {
            "country_code": "IT",
            "city": "Rome",
            "latitude": 41.799444,
            "longitude": 12.597222,
            "type": "FP"
        },
        {
            "country_code": "MA",
            "city": "Tangier",
            "latitude": 35.7268981934,
            "longitude": -5.9168901444,
            "type": "OF"
        },
        {
            "country_code": "NL",
            "city": "Leeuwarden",
            "latitude": 53.2285995483,
            "longitude": 5.7605600357,
            "type": "FP"
        },
        {
            "country_code": "PL",
            "city": "Poznan",
            "latitude": 52.4005285,
            "longitude": 16.9016658,
            "type": "FP"
        },
        {
            "country_code": "RU",
            "city": "St Petersburg",
            "latitude": 59.8003005981,
            "longitude": 30.2625007629,
            "type": "FP"
        },
        {
            "country_code": "SK",
            "city": "Bratislava",
            "latitude": 48.1702003479,
            "longitude": 17.2126998901,
            "type": "TP"
        },
        {
            "country_code": "TR",
            "city": "Istanbul",
            "latitude": 40.898601532,
            "longitude": 29.3092002869,
            "type": "OF"
        }
    ]
}