{
    "target": "198.41.0.4",
    "probes_filepath": "datasets/probes_sets/North-Central_100.json",
    "alpha": 0.7,
    "threshold": -1,
    "noise": 0,
    "results_filepath": "datasets/results/campaigns/198.41.0.4_North-Central_20230410_alpha_light-factor_0.18/198.41.0.4_North-Central_100_52069359_0.7_-1_0.json",
    "gt_filepath": "datasets/ground-truth/root_servers/root_servers_A.json",
    "statistics": {
        "TP": 2,
        "FP": 10,
        "TN": 0,
        "FN": 4,
        "accuracy": 0.125,
        "precision": 0.16666666666666666,
        "recall": 0.3333333333333333,
        "f1": 0.2222222222222222,
        "OT": 0,
        "OF": 2
    },
    "instances": [
        {
            "country_code": "AT",
            "city": "Vienna",
            "latitude": 48.1102981567,
            "longitude": 16.5697002411,
            "type": "FP"
        },
        {
            "country_code": "BE",
            "city": "Brussels",
            "latitude": 50.4592018127,
            "longitude": 4.4538202286,
            "type": "FP"
        },
        {
            "country_code": "CZ",
            "city": "Prague",
            "latitude": 50.1007995605,
            "longitude": 14.2600002289,
            "type": "FP"
        },
        {
            "country_code": "DE",
            "city": "Frankfurt",
            "latitude": 50.1109221,
            "longitude": 8.6821267,
            "type": "FN"
        },
        {
            "country_code": "DE",
            "city": "Hamburg",
            "latitude": 53.6304016113,
            "longitude": 9.9882297516,
            "type": "FP"
        },
        {
            "country_code": "DE",
            "city": "Nuremberg",
            "latitude": 49.4986991882,
            "longitude": 11.0669002533,
            "type": "FP"
        },
        {
            "country_code": "DE",
            "city": "Stuttgart",
            "latitude": 48.6898994446,
            "longitude": 9.2219600677,
            "type": "FP"
        },
        {
            "country_code": "FR",
            "city": "Marseille",
            "latitude": 43.2961743,
            "longitude": 5.3699525,
            "type": "FN"
        },
        {
            "country_code": "FR",
            "city": "Paris",
            "latitude": 48.7252998352,
            "longitude": 2.3594400883,
            "type": "TP"
        },
        {
            "country_code": "GB",
            "city": "London",
            "latitude": 51.1481018066,
            "longitude": -0.1902779937,
            "type": "TP"
        },
        {
            "country_code": "IT",
            "city": "Rome",
            "latitude": 41.8045005798,
            "longitude": 12.2508001328,
            "type": "FP"
        },
        {
            "country_code": "MA",
            "city": "Casablanca",
            "latitude": 33.3675003052,
            "longitude": -7.5899701118,
            "type": "OF"
        },
        {
            "country_code": "NL",
            "city": "Amsterdam",
            "latitude": 52.3702157,
            "longitude": 4.8951679,
            "type": "FN"
        },
        {
            "country_code": "NO",
            "city": "Oslo",
            "latitude": 60.193901062,
            "longitude": 11.100399971,
            "type": "FP"
        },
        {
            "country_code": "RU",
            "city": "Moscow",
            "latitude": 55.4087982178,
            "longitude": 37.9062995911,
            "type": "FP"
        },
        {
            "country_code": "SE",
            "city": "Stockholm",
            "latitude": 59.3293235,
            "longitude": 18.0685808,
            "type": "FN"
        },
        {
            "country_code": "SE",
            "city": "\u00d6rebro",
            "latitude": 59.2237014771,
            "longitude": 15.0380001068,
            "type": "FP"
        },
        {
            "country_code": "TR",
            "city": "Istanbul",
            "latitude": 40.898601532,
            "longitude": 29.3092002869,
            "type": "OF"
        }
    ]
}