{
    "target": "193.0.14.129",
    "probes_filepath": "datasets/probes_section/North-Central-section_1.5.json",
    "alpha": 0.1,
    "threshold": -1,
    "noise": 0,
    "results_filepath": "datasets/results/campaigns/193.0.14.129_North-Central-section_20230425_alpha_light-factor_0.18/193.0.14.129_North-Central-section_1.5_52654714_0.1_-1_0.json",
    "gt_filepath": "datasets/ground-truth/root_servers/root_servers_K.json",
    "statistics": {
        "TP": 17,
        "FP": 35,
        "TN": 0,
        "FN": 26,
        "accuracy": 0.21794871794871795,
        "precision": 0.3269230769230769,
        "recall": 0.3953488372093023,
        "f1": 0.3578947368421052,
        "OT": 0,
        "OF": 1
    },
    "instances": [
        {
            "country_code": "AM",
            "city": "Abovyan",
            "latitude": 40.2714761,
            "longitude": 44.6333951,
            "type": "FN"
        },
        {
            "country_code": "AM",
            "city": "Yerevan",
            "latitude": 40.1473007202,
            "longitude": 44.3959007263,
            "type": "TP"
        },
        {
            "country_code": "AT",
            "city": "Feldkirch",
            "latitude": 47.2375671,
            "longitude": 9.5981724,
            "type": "FN"
        },
        {
            "country_code": "AT",
            "city": "Salzburg",
            "latitude": 47.811195,
            "longitude": 13.033229,
            "type": "FN"
        },
        {
            "country_code": "AT",
            "city": "Vienna",
            "latitude": 48.2083537,
            "longitude": 16.3725042,
            "type": "FN"
        },
        {
            "country_code": "BA",
            "city": "Sarajevo",
            "latitude": 43.8246002197,
            "longitude": 18.3314990997,
            "type": "TP"
        },
        {
            "country_code": "BG",
            "city": "Plovdiv",
            "latitude": 42.0677986145,
            "longitude": 24.8507995605,
            "type": "FP"
        },
        {
            "country_code": "BG",
            "city": "Sofia",
            "latitude": 42.6978634,
            "longitude": 23.3221789,
            "type": "FN"
        },
        {
            "country_code": "CH",
            "city": "Geneva",
            "latitude": 46.2017559,
            "longitude": 6.1466014,
            "type": "FN"
        },
        {
            "country_code": "CH",
            "city": "Zurich",
            "latitude": 47.3744489,
            "longitude": 8.5410422,
            "type": "FN"
        },
        {
            "country_code": "CZ",
            "city": "Prague",
            "latitude": 50.0596288,
            "longitude": 14.446459273258009,
            "type": "FN"
        },
        {
            "country_code": "DE",
            "city": "Augsburg",
            "latitude": 48.42527771,
            "longitude": 10.9316673279,
            "type": "FP"
        },
        {
            "country_code": "DE",
            "city": "Berlin",
            "latitude": 52.5170365,
            "longitude": 13.3888599,
            "type": "FN"
        },
        {
            "country_code": "DE",
            "city": "Dortmund",
            "latitude": 51.5182991028,
            "longitude": 7.6122398377,
            "type": "FP"
        },
        {
            "country_code": "DE",
            "city": "Frankfurt",
            "latitude": 50.1106444,
            "longitude": 8.6820917,
            "type": "FN"
        },
        {
            "country_code": "DE",
            "city": "Hamburg",
            "latitude": 53.5352783203,
            "longitude": 9.8355560303,
            "type": "TP"
        },
        {
            "country_code": "DE",
            "city": "Hamburg",
            "latitude": 53.6304016113,
            "longitude": 9.9882297516,
            "type": "FP"
        },
        {
            "country_code": "DE",
            "city": "Karlsruhe",
            "latitude": 49.0068705,
            "longitude": 8.4034195,
            "type": "FN"
        },
        {
            "country_code": "EE",
            "city": "Tallinn",
            "latitude": 59.4132995605,
            "longitude": 24.8327999115,
            "type": "TP"
        },
        {
            "country_code": "EE",
            "city": "Tartu",
            "latitude": 58.3074989319,
            "longitude": 26.6903991699,
            "type": "FP"
        },
        {
            "country_code": "ES",
            "city": "Barcelona",
            "latitude": 41.2971000671,
            "longitude": 2.0784599781,
            "type": "TP"
        },
        {
            "country_code": "ES",
            "city": "Bilbao",
            "latitude": 43.3011016846,
            "longitude": -2.9106099606,
            "type": "FP"
        },
        {
            "country_code": "ES",
            "city": "Ibiza",
            "latitude": 38.8728981018,
            "longitude": 1.3731199503,
            "type": "FP"
        },
        {
            "country_code": "ES",
            "city": "Madrid",
            "latitude": 40.4167047,
            "longitude": -3.7035825,
            "type": "FN"
        },
        {
            "country_code": "FI",
            "city": "Helsinki",
            "latitude": 60.317199707,
            "longitude": 24.963300705,
            "type": "TP"
        },
        {
            "country_code": "FI",
            "city": "Kuusamo",
            "latitude": 65.9876022339,
            "longitude": 29.2394008636,
            "type": "FP"
        },
        {
            "country_code": "FI",
            "city": "Tampere/Pirkkala",
            "latitude": 61.414100647,
            "longitude": 23.6044006348,
            "type": "FP"
        },
        {
            "country_code": "FO",
            "city": "Torshavn",
            "latitude": 62.012,
            "longitude": -6.768,
            "type": "FN"
        },
        {
            "country_code": "FR",
            "city": "Lyon",
            "latitude": 45.7578137,
            "longitude": 4.8320114,
            "type": "FN"
        },
        {
            "country_code": "FR",
            "city": "Mende/Br\u00e9noux",
            "latitude": 44.5021018982,
            "longitude": 3.5328199863,
            "type": "FP"
        },
        {
            "country_code": "FR",
            "city": "Pontoise",
            "latitude": 49.0965995789,
            "longitude": 2.0408298969,
            "type": "TP"
        },
        {
            "country_code": "FR",
            "city": "Vesoul/Frotey",
            "latitude": 47.6375999451,
            "longitude": 6.2039198875,
            "type": "FP"
        },
        {
            "country_code": "GB",
            "city": "Birmingham",
            "latitude": 52.4538993835,
            "longitude": -1.7480299473,
            "type": "FP"
        },
        {
            "country_code": "GB",
            "city": "Leeds",
            "latitude": 53.8658981323,
            "longitude": -1.6605700254,
            "type": "FP"
        },
        {
            "country_code": "GB",
            "city": "London",
            "latitude": 51.5052986145,
            "longitude": 0.0552779995,
            "type": "TP"
        },
        {
            "country_code": "GB",
            "city": "Plymouth",
            "latitude": 50.4227981567,
            "longitude": -4.1058301926,
            "type": "FP"
        },
        {
            "country_code": "GE",
            "city": "Kutaisi",
            "latitude": 42.176700592,
            "longitude": 42.4826011658,
            "type": "FP"
        },
        {
            "country_code": "GE",
            "city": "Tbilisi",
            "latitude": 41.6934591,
            "longitude": 44.8014495,
            "type": "FN"
        },
        {
            "country_code": "GR",
            "city": "Athens",
            "latitude": 37.9839412,
            "longitude": 23.7283052,
            "type": "FN"
        },
        {
            "country_code": "GR",
            "city": "Nea Anchialos",
            "latitude": 39.2196006775,
            "longitude": 22.7943000793,
            "type": "FP"
        },
        {
            "country_code": "HU",
            "city": "Budapest",
            "latitude": 47.4369010925,
            "longitude": 19.2555999756,
            "type": "TP"
        },
        {
            "country_code": "HU",
            "city": "Gy\u0151r",
            "latitude": 47.6244010925,
            "longitude": 17.8136005402,
            "type": "FP"
        },
        {
            "country_code": "IE",
            "city": "Cork",
            "latitude": 51.897077,
            "longitude": -8.4654674,
            "type": "FN"
        },
        {
            "country_code": "IR",
            "city": "Urmia",
            "latitude": 37.6680984497,
            "longitude": 45.0686988831,
            "type": "OF"
        },
        {
            "country_code": "IS",
            "city": "Reykjav\u00edk",
            "latitude": 63.9850006104,
            "longitude": -22.6056003571,
            "type": "TP"
        },
        {
            "country_code": "IT",
            "city": "Bologna",
            "latitude": 44.5354003906,
            "longitude": 11.2887001038,
            "type": "TP"
        },
        {
            "country_code": "IT",
            "city": "Bolzano",
            "latitude": 46.4602012634,
            "longitude": 11.3263998032,
            "type": "FP"
        },
        {
            "country_code": "IT",
            "city": "Milan",
            "latitude": 45.445098877,
            "longitude": 9.2767400742,
            "type": "TP"
        },
        {
            "country_code": "IT",
            "city": "Milan",
            "latitude": 45.6305999756,
            "longitude": 8.7281103134,
            "type": "FP"
        },
        {
            "country_code": "IT",
            "city": "Palermo",
            "latitude": 38.1112268,
            "longitude": 13.3524434,
            "type": "FN"
        },
        {
            "country_code": "IT",
            "city": "Piacenza",
            "latitude": 44.9131011963,
            "longitude": 9.7233295441,
            "type": "FP"
        },
        {
            "country_code": "IT",
            "city": "Rome",
            "latitude": 41.8045005798,
            "longitude": 12.2508001328,
            "type": "FP"
        },
        {
            "country_code": "KS",
            "city": "Prishtina",
            "latitude": 42.5727996826,
            "longitude": 21.0358009338,
            "type": "FP"
        },
        {
            "country_code": "LB",
            "city": "Beirut",
            "latitude": 33.8959203,
            "longitude": 35.47843,
            "type": "FN"
        },
        {
            "country_code": "LT",
            "city": "Vilnius",
            "latitude": 54.6870458,
            "longitude": 25.2829111,
            "type": "FN"
        },
        {
            "country_code": "LU",
            "city": "Kirchberg",
            "latitude": 49.6278334,
            "longitude": 6.1596669,
            "type": "FN"
        },
        {
            "country_code": "LV",
            "city": "Riga",
            "latitude": 56.9235992432,
            "longitude": 23.9710998535,
            "type": "TP"
        },
        {
            "country_code": "MA",
            "city": "Casablanca",
            "latitude": 33.3675003052,
            "longitude": -7.5899701118,
            "type": "FP"
        },
        {
            "country_code": "N/A",
            "city": "N/A",
            "latitude": 59.1315,
            "longitude": 31.6695,
            "type": "FP"
        },
        {
            "country_code": "N/A",
            "city": "N/A",
            "latitude": 60.9805,
            "longitude": 25.5975,
            "type": "FP"
        },
        {
            "country_code": "N/A",
            "city": "N/A",
            "latitude": 59.3685,
            "longitude": 28.1875,
            "type": "FP"
        },
        {
            "country_code": "NL",
            "city": "Amsterdam",
            "latitude": 52.3727598,
            "longitude": 4.8936041,
            "type": "FN"
        },
        {
            "country_code": "NO",
            "city": "Oslo",
            "latitude": 60.193901062,
            "longitude": 11.100399971,
            "type": "FP"
        },
        {
            "country_code": "PL",
            "city": "Bydgoszcz",
            "latitude": 53.0968017578,
            "longitude": 17.9776992798,
            "type": "FP"
        },
        {
            "country_code": "PL",
            "city": "Gdynia",
            "latitude": 54.50383255,
            "longitude": 18.462806155884614,
            "type": "FN"
        },
        {
            "country_code": "PL",
            "city": "Poznan",
            "latitude": 52.4006632,
            "longitude": 16.91973259178088,
            "type": "FN"
        },
        {
            "country_code": "PL",
            "city": "Warsaw",
            "latitude": 52.4510993958,
            "longitude": 20.6518001556,
            "type": "TP"
        },
        {
            "country_code": "RO",
            "city": "Bucharest",
            "latitude": 44.5722007751,
            "longitude": 26.1021995544,
            "type": "TP"
        },
        {
            "country_code": "RO",
            "city": "Cluj-Napoca",
            "latitude": 46.7851982117,
            "longitude": 23.6861991882,
            "type": "FP"
        },
        {
            "country_code": "RS",
            "city": "Belgrade",
            "latitude": 44.8178131,
            "longitude": 20.4568974,
            "type": "FN"
        },
        {
            "country_code": "RU",
            "city": "Kostroma",
            "latitude": 57.7969017029,
            "longitude": 41.0194015503,
            "type": "FP"
        },
        {
            "country_code": "RU",
            "city": "Moscow",
            "latitude": 55.5914993286,
            "longitude": 37.2615013123,
            "type": "TP"
        },
        {
            "country_code": "RU",
            "city": "Moscow",
            "latitude": 55.4087982178,
            "longitude": 37.9062995911,
            "type": "FP"
        },
        {
            "country_code": "RU",
            "city": "Petrozavodsk",
            "latitude": 61.8852005005,
            "longitude": 34.1547012329,
            "type": "FP"
        },
        {
            "country_code": "RU",
            "city": "St Petersburg",
            "latitude": 59.8003005981,
            "longitude": 30.2625007629,
            "type": "TP"
        },
        {
            "country_code": "SE",
            "city": "Skellefte\u00e5",
            "latitude": 64.6248016357,
            "longitude": 21.0769004822,
            "type": "FP"
        },
        {
            "country_code": "SE",
            "city": "Stockholm",
            "latitude": 59.3544006348,
            "longitude": 17.9416999817,
            "type": "FP"
        },
        {
            "country_code": "UA",
            "city": "Kiev",
            "latitude": 50.6035003662,
            "longitude": 30.1919002533,
            "type": "FP"
        },
        {
            "country_code": "UA",
            "city": "Lugansk",
            "latitude": 48.5717084,
            "longitude": 39.2973153,
            "type": "FN"
        }
    ]
}