{
    "count": 12,
    "countGT": 0,
    "instances": [
        {
            "circle": {
                "id": "1004258",
                "latitude": 52.3815,
                "longitude": 4.8995,
                "radius": 83.83656641593947
            },
            "marker": {
                "city": "Amsterdam",
                "code_country": "NL",
                "id": "AMX",
                "latitude": 52.3086013794,
                "longitude": 4.7638897896
            }
        },
        {
            "circle": {
                "id": "33422",
                "latitude": 60.1785,
                "longitude": 24.8085,
                "radius": 86.80599098924145
            },
            "marker": {
                "city": "Helsinki",
                "code_country": "FI",
                "id": "HEL",
                "latitude": 60.317199707,
                "longitude": 24.963300705
            }
        },
        {
            "circle": {
                "id": "1001345",
                "latitude": 59.9395,
                "longitude": 10.7095,
                "radius": 161.58004835490922
            },
            "marker": {
                "city": "Oslo",
                "code_country": "NO",
                "id": "NIX",
                "latitude": 60.193901062,
                "longitude": 11.100399971
            }
        },
        {
            "circle": {
                "id": "16211",
                "latitude": 42.6775,
                "longitude": 23.3075,
                "radius": 167.55114491393618
            },
            "marker": {
                "city": "Sofia",
                "code_country": "BG",
                "id": "SOF",
                "latitude": 42.6966934204,
                "longitude": 23.4114360809
            }
        },
        {
            "circle": {
                "id": "62426",
                "latitude": 55.6705,
                "longitude": 12.5685,
                "radius": 167.80843390173945
            },
            "marker": {
                "city": "Copenhagen",
                "code_country": "DK",
                "id": "RKE",
                "latitude": 55.5856018066,
                "longitude": 12.1314001083
            }
        },
        {
            "circle": {
                "id": "1005282",
                "latitude": 48.9285,
                "longitude": 2.2215,
                "radius": 175.75766760386577
            },
            "marker": {
                "city": "Paris",
                "code_country": "FR",
                "id": "PAR",
                "latitude": 49.0127983093,
                "longitude": 2.5499999523
            }
        },
        {
            "circle": {
                "id": "13593",
                "latitude": 46.3085,
                "longitude": 16.3415,
                "radius": 176.44600686598423
            },
            "marker": {
                "city": "Zagreb",
                "code_country": "HR",
                "id": "ZAG",
                "latitude": 45.7429008484,
                "longitude": 16.0687999725
            }
        },
        {
            "circle": {
                "id": "53256",
                "latitude": 56.6505,
                "longitude": 23.7195,
                "radius": 194.06384318643092
            },
            "marker": {
                "city": "Riga",
                "code_country": "LV",
                "id": "RIX",
                "latitude": 56.9235992432,
                "longitude": 23.9710998535
            }
        },
        {
            "circle": {
                "id": "19396",
                "latitude": 55.9205,
                "longitude": 37.7515,
                "radius": 273.77915084833154
            },
            "marker": {
                "city": "Moscow",
                "code_country": "RU",
                "id": "DME",
                "latitude": 55.4087982178,
                "longitude": 37.9062995911
            }
        },
        {
            "circle": {
                "id": "62784",
                "latitude": 59.3495,
                "longitude": 18.1515,
                "radius": 277.0911671976507
            },
            "marker": {
                "city": "Stockholm",
                "code_country": "SE",
                "id": "ARN",
                "latitude": 59.6519012451,
                "longitude": 17.9186000824
            }
        },
        {
            "circle": {
                "id": "1005076",
                "latitude": 40.2905,
                "longitude": -3.7995,
                "radius": 301.24970574732436
            },
            "marker": {
                "city": "Madrid",
                "code_country": "ES",
                "id": "TOJ",
                "latitude": 40.4967002869,
                "longitude": -3.4458699226
            }
        },
        {
            "circle": {
                "id": "60555",
                "latitude": 41.3895,
                "longitude": 2.1695,
                "radius": 341.57563736998947
            },
            "marker": {
                "city": "Barcelona",
                "code_country": "ES",
                "id": "BCN",
                "latitude": 41.2971000671,
                "longitude": 2.0784599781
            }
        }
    ],
    "markerGT": []
}