{
    "count": 39,
    "countGT": 0,
    "instances": [
        {
            "circle": {
                "id": "1004045",
                "latitude": 32.0695,
                "longitude": 34.7695,
                "radius": 43.745340730787504
            },
            "marker": {
                "city": "Tel Aviv",
                "code_country": "IL",
                "id": "TLV",
                "latitude": 32.0113983154,
                "longitude": 34.8866996765
            }
        },
        {
            "circle": {
                "id": "1003956",
                "latitude": 42.7005,
                "longitude": 23.3195,
                "radius": 47.05449721784276
            },
            "marker": {
                "city": "Sofia",
                "code_country": "BG",
                "id": "SOF",
                "latitude": 42.6966934204,
                "longitude": 23.4114360809
            }
        },
        {
            "circle": {
                "id": "28037",
                "latitude": 59.8905,
                "longitude": 30.3285,
                "radius": 53.33495198106249
            },
            "marker": {
                "city": "St Petersburg",
                "code_country": "RU",
                "id": "LED",
                "latitude": 59.8003005981,
                "longitude": 30.2625007629
            }
        },
        {
            "circle": {
                "id": "6621",
                "latitude": 40.9475,
                "longitude": 17.2785,
                "radius": 55.850545997878946
            },
            "marker": {
                "city": "Bari",
                "code_country": "IT",
                "id": "BRI",
                "latitude": 41.1389007568,
                "longitude": 16.7605991364
            }
        },
        {
            "circle": {
                "id": "1003944",
                "latitude": 50.1095,
                "longitude": 8.6795,
                "radius": 56.27952533745132
            },
            "marker": {
                "city": "Mainz",
                "code_country": "DE",
                "id": "QMZ",
                "latitude": 49.9674987793,
                "longitude": 8.1472215652
            }
        },
        {
            "circle": {
                "id": "1005247",
                "latitude": 40.4205,
                "longitude": -3.6905,
                "radius": 59.28376133761973
            },
            "marker": {
                "city": "Madrid",
                "code_country": "ES",
                "id": "TOJ",
                "latitude": 40.4967002869,
                "longitude": -3.4458699226
            }
        },
        {
            "circle": {
                "id": "6892",
                "latitude": 53.4685,
                "longitude": -2.3085,
                "radius": 59.437602204225
            },
            "marker": {
                "city": "Liverpool",
                "code_country": "GB",
                "id": "LPL",
                "latitude": 53.3335990906,
                "longitude": -2.8497200012
            }
        },
        {
            "circle": {
                "id": "22872",
                "latitude": 48.8585,
                "longitude": 2.3805,
                "radius": 62.15141426070593
            },
            "marker": {
                "city": "Paris",
                "code_country": "FR",
                "id": "PAR",
                "latitude": 49.0127983093,
                "longitude": 2.5499999523
            }
        },
        {
            "circle": {
                "id": "30605",
                "latitude": 35.1595,
                "longitude": 33.3275,
                "radius": 68.60099536125131
            },
            "marker": {
                "city": "Nicosia",
                "code_country": "CY",
                "id": "ECN",
                "latitude": 35.1547012329,
                "longitude": 33.4961013794
            }
        },
        {
            "circle": {
                "id": "30144",
                "latitude": 50.0795,
                "longitude": 14.5295,
                "radius": 72.7293544629796
            },
            "marker": {
                "city": "Prague",
                "code_country": "CZ",
                "id": "PRG",
                "latitude": 50.1007995605,
                "longitude": 14.2600002289
            }
        },
        {
            "circle": {
                "id": "1001780",
                "latitude": 54.6375,
                "longitude": 25.3115,
                "radius": 74.17457106560789
            },
            "marker": {
                "city": "Vilnius",
                "code_country": "LT",
                "id": "VNO",
                "latitude": 54.6341018677,
                "longitude": 25.2858009338
            }
        },
        {
            "circle": {
                "id": "6330",
                "latitude": 60.2075,
                "longitude": 24.8985,
                "radius": 75.17779102456645
            },
            "marker": {
                "city": "Helsinki",
                "code_country": "FI",
                "id": "HEL",
                "latitude": 60.317199707,
                "longitude": 24.963300705
            }
        },
        {
            "circle": {
                "id": "54408",
                "latitude": 45.0915,
                "longitude": 7.6575,
                "radius": 75.79453511414933
            },
            "marker": {
                "city": "Torino",
                "code_country": "IT",
                "id": "TRN",
                "latitude": 45.2008018494,
                "longitude": 7.6496300697
            }
        },
        {
            "circle": {
                "id": "35643",
                "latitude": 50.4485,
                "longitude": 30.4795,
                "radius": 76.35349026281513
            },
            "marker": {
                "city": "Kiev",
                "code_country": "UA",
                "id": "KBP",
                "latitude": 50.3450012207,
                "longitude": 30.8946990967
            }
        },
        {
            "circle": {
                "id": "1003038",
                "latitude": 43.2215,
                "longitude": 27.9285,
                "radius": 76.70199899524012
            },
            "marker": {
                "city": "Varna",
                "code_country": "BG",
                "id": "VAR",
                "latitude": 43.2321014404,
                "longitude": 27.8250999451
            }
        },
        {
            "circle": {
                "id": "1000720",
                "latitude": 48.1375,
                "longitude": 11.5785,
                "radius": 77.09577244418553
            },
            "marker": {
                "city": "Munich",
                "code_country": "DE",
                "id": "MUC",
                "latitude": 48.3538017273,
                "longitude": 11.7861003876
            }
        },
        {
            "circle": {
                "id": "1003342",
                "latitude": 52.5185,
                "longitude": 13.3995,
                "radius": 77.69170857040065
            },
            "marker": {
                "city": "Berlin",
                "code_country": "DE",
                "id": "SXF",
                "latitude": 52.3800010681,
                "longitude": 13.5225000381
            }
        },
        {
            "circle": {
                "id": "23076",
                "latitude": 56.9405,
                "longitude": 24.1205,
                "radius": 77.84939545867104
            },
            "marker": {
                "city": "Riga",
                "code_country": "LV",
                "id": "RIX",
                "latitude": 56.9235992432,
                "longitude": 23.9710998535
            }
        },
        {
            "circle": {
                "id": "7081",
                "latitude": 51.5075,
                "longitude": 0.0015,
                "radius": 82.8232876310875
            },
            "marker": {
                "city": "London",
                "code_country": "GB",
                "id": "LTN",
                "latitude": 51.8746986389,
                "longitude": -0.3683330119
            }
        },
        {
            "circle": {
                "id": "50644",
                "latitude": 47.5195,
                "longitude": 19.0595,
                "radius": 83.83183285081316
            },
            "marker": {
                "city": "Budapest",
                "code_country": "HU",
                "id": "BUD",
                "latitude": 47.4369010925,
                "longitude": 19.2555999756
            }
        },
        {
            "circle": {
                "id": "1004258",
                "latitude": 52.3815,
                "longitude": 4.8995,
                "radius": 83.8460335461921
            },
            "marker": {
                "city": "Rotterdam",
                "code_country": "NL",
                "id": "RTM",
                "latitude": 51.9569015503,
                "longitude": 4.4372200966
            }
        },
        {
            "circle": {
                "id": "33283",
                "latitude": 45.4785,
                "longitude": 9.1015,
                "radius": 87.33723505873026
            },
            "marker": {
                "city": "Milan",
                "code_country": "IT",
                "id": "MXP",
                "latitude": 45.6305999756,
                "longitude": 8.7281103134
            }
        },
        {
            "circle": {
                "id": "1001120",
                "latitude": 53.3475,
                "longitude": -6.2615,
                "radius": 91.83836241415591
            },
            "marker": {
                "city": "Dublin",
                "code_country": "IE",
                "id": "DUB",
                "latitude": 53.4212989807,
                "longitude": -6.270070076
            }
        },
        {
            "circle": {
                "id": "11662",
                "latitude": 53.5985,
                "longitude": 10.0505,
                "radius": 95.24169712403683
            },
            "marker": {
                "city": "Kiel",
                "code_country": "DE",
                "id": "KEL",
                "latitude": 54.3794441223,
                "longitude": 10.145277977
            }
        },
        {
            "circle": {
                "id": "23973",
                "latitude": 55.7785,
                "longitude": 37.6105,
                "radius": 102.20003785972104
            },
            "marker": {
                "city": "Moscow",
                "code_country": "RU",
                "id": "DME",
                "latitude": 55.4087982178,
                "longitude": 37.9062995911
            }
        },
        {
            "circle": {
                "id": "61257",
                "latitude": 44.8105,
                "longitude": 20.3895,
                "radius": 102.22656554761645
            },
            "marker": {
                "city": "Belgrade",
                "code_country": "RS",
                "id": "BEG",
                "latitude": 44.8184013367,
                "longitude": 20.3090991974
            }
        },
        {
            "circle": {
                "id": "1002174",
                "latitude": 41.3695,
                "longitude": 2.0705,
                "radius": 102.82555876797565
            },
            "marker": {
                "city": "Barcelona",
                "code_country": "ES",
                "id": "BCN",
                "latitude": 41.2971000671,
                "longitude": 2.0784599781
            }
        },
        {
            "circle": {
                "id": "53382",
                "latitude": 50.8785,
                "longitude": 4.5015,
                "radius": 107.34759270270919
            },
            "marker": {
                "city": "Brussels",
                "code_country": "BE",
                "id": "BNX",
                "latitude": 50.4592018127,
                "longitude": 4.4538202286
            }
        },
        {
            "circle": {
                "id": "14306",
                "latitude": 55.7205,
                "longitude": 12.5475,
                "radius": 108.94536816472105
            },
            "marker": {
                "city": "Copenhagen",
                "code_country": "DK",
                "id": "RKE",
                "latitude": 55.5856018066,
                "longitude": 12.1314001083
            }
        },
        {
            "circle": {
                "id": "1005267",
                "latitude": 51.2305,
                "longitude": 6.7705,
                "radius": 110.48860901184011
            },
            "marker": {
                "city": "Cologne",
                "code_country": "DE",
                "id": "CGN",
                "latitude": 50.8658981323,
                "longitude": 7.1427397728
            }
        },
        {
            "circle": {
                "id": "51501",
                "latitude": 59.3275,
                "longitude": 18.0675,
                "radius": 111.97840001940789
            },
            "marker": {
                "city": "Eskilstuna",
                "code_country": "SE",
                "id": "EKT",
                "latitude": 59.3511009216,
                "longitude": 16.7084007263
            }
        },
        {
            "circle": {
                "id": "6662",
                "latitude": 40.9885,
                "longitude": 28.8305,
                "radius": 114.88885226051119
            },
            "marker": {
                "city": "Bursa",
                "code_country": "TR",
                "id": "YEI",
                "latitude": 40.2551994324,
                "longitude": 29.5625991821
            }
        },
        {
            "circle": {
                "id": "52321",
                "latitude": 59.9075,
                "longitude": 10.7485,
                "radius": 146.60492199810855
            },
            "marker": {
                "city": "Oslo",
                "code_country": "NO",
                "id": "NIX",
                "latitude": 60.193901062,
                "longitude": 11.100399971
            }
        },
        {
            "circle": {
                "id": "32589",
                "latitude": 38.6615,
                "longitude": -9.0685,
                "radius": 158.17503717404605
            },
            "marker": {
                "city": "Beja",
                "code_country": "PT",
                "id": "BYJ",
                "latitude": 38.0788993835,
                "longitude": -7.9324002266
            }
        },
        {
            "circle": {
                "id": "13593",
                "latitude": 46.3085,
                "longitude": 16.3415,
                "radius": 179.17865456703024
            },
            "marker": {
                "city": "Zagreb",
                "code_country": "HR",
                "id": "ZAG",
                "latitude": 45.7429008484,
                "longitude": 16.0687999725
            }
        },
        {
            "circle": {
                "id": "33893",
                "latitude": 64.1485,
                "longitude": -21.9385,
                "radius": 212.23718309763885
            },
            "marker": {
                "city": "Vestmannaeyjar",
                "code_country": "IS",
                "id": "VEY",
                "latitude": 63.4243011475,
                "longitude": -20.2789001465
            }
        },
        {
            "circle": {
                "id": "28055",
                "latitude": 37.9395,
                "longitude": 23.7095,
                "radius": 281.275836001194
            },
            "marker": {
                "city": "Athens",
                "code_country": "GR",
                "id": "ATH",
                "latitude": 37.9364013672,
                "longitude": 23.9444999695
            }
        },
        {
            "circle": {
                "id": "60131",
                "latitude": 36.8575,
                "longitude": 42.9885,
                "radius": 335.6973384106263
            },
            "marker": {
                "city": "Tabriz",
                "code_country": "IR",
                "id": "TBZ",
                "latitude": 38.1338996887,
                "longitude": 46.2350006104
            }
        },
        {
            "circle": {
                "id": "25742",
                "latitude": 52.1785,
                "longitude": 21.1795,
                "radius": 354.4854500926145
            },
            "marker": {
                "city": "Warsaw",
                "code_country": "PL",
                "id": "WMI",
                "latitude": 52.4510993958,
                "longitude": 20.6518001556
            }
        }
    ],
    "markerGT": []
}