{
    "count": 20,
    "countGT": 0,
    "instances": [
        {
            "circle": {
                "id": "1004306",
                "latitude": 22.2905,
                "longitude": 114.1475,
                "radius": 98.07493308401709
            },
            "marker": {
                "city": "Huizhou",
                "code_country": "CN",
                "id": "HUZ",
                "latitude": 23.0499992371,
                "longitude": 114.599998474
            }
        },
        {
            "circle": {
                "id": "1002178",
                "latitude": 52.3715,
                "longitude": 4.9005,
                "radius": 106.03225329323422
            },
            "marker": {
                "city": "Uden",
                "code_country": "NL",
                "id": "UDE",
                "latitude": 51.6563987732,
                "longitude": 5.7086100578
            }
        },
        {
            "circle": {
                "id": "13593",
                "latitude": 46.3085,
                "longitude": 16.3415,
                "radius": 172.90658215872173
            },
            "marker": {
                "city": "Klagenfurt am W\u00f6rthersee",
                "code_country": "AT",
                "id": "KLU",
                "latitude": 46.6425018311,
                "longitude": 14.3376998901
            }
        },
        {
            "circle": {
                "id": "1004374",
                "latitude": 37.9295,
                "longitude": -76.8495,
                "radius": 178.04131692949275
            },
            "marker": {
                "city": "Baltimore",
                "code_country": "US",
                "id": "BWI",
                "latitude": 39.17539978,
                "longitude": -76.66829681
            }
        },
        {
            "circle": {
                "id": "1004154",
                "latitude": -34.5005,
                "longitude": -58.5205,
                "radius": 184.50204163127304
            },
            "marker": {
                "city": "Gualeguaychu",
                "code_country": "AR",
                "id": "GHU",
                "latitude": -33.0103,
                "longitude": -58.6131
            }
        },
        {
            "circle": {
                "id": "1005282",
                "latitude": 48.9285,
                "longitude": 2.2215,
                "radius": 193.50054893639935
            },
            "marker": {
                "city": "Lille/Lesquin",
                "code_country": "FR",
                "id": "LIL",
                "latitude": 50.5619010925,
                "longitude": 3.0894401073
            }
        },
        {
            "circle": {
                "id": "62022",
                "latitude": -20.9815,
                "longitude": 55.3385,
                "radius": 197.51964157646188
            },
            "marker": {
                "city": "Saint-Denis",
                "code_country": "RE",
                "id": "RUN",
                "latitude": -20.8871002197,
                "longitude": 55.5102996826
            }
        },
        {
            "circle": {
                "id": "15706",
                "latitude": 55.6705,
                "longitude": 37.8575,
                "radius": 218.84957911534144
            },
            "marker": {
                "city": "Tver",
                "code_country": "RU",
                "id": "KLD",
                "latitude": 56.8246994019,
                "longitude": 35.7577018738
            }
        },
        {
            "circle": {
                "id": "33915",
                "latitude": 55.7295,
                "longitude": 12.5475,
                "radius": 281.46291043962367
            },
            "marker": {
                "city": "Gothenburg",
                "code_country": "SE",
                "id": "GSE",
                "latitude": 57.7747001648,
                "longitude": 11.8704004288
            }
        },
        {
            "circle": {
                "id": "61083",
                "latitude": 38.7985,
                "longitude": -9.1885,
                "radius": 286.22675065955985
            },
            "marker": {
                "city": "Porto",
                "code_country": "PT",
                "id": "OPO",
                "latitude": 41.2481002808,
                "longitude": -8.6813898087
            }
        },
        {
            "circle": {
                "id": "61674",
                "latitude": 44.8495,
                "longitude": 24.8705,
                "radius": 288.275200967973
            },
            "marker": {
                "city": "Sofia",
                "code_country": "BG",
                "id": "SOF",
                "latitude": 42.6966934204,
                "longitude": 23.4114360809
            }
        },
        {
            "circle": {
                "id": "55763",
                "latitude": 50.0585,
                "longitude": 14.5005,
                "radius": 318.7965385908763
            },
            "marker": {
                "city": "Berlin",
                "code_country": "DE",
                "id": "TXL",
                "latitude": 52.5597000122,
                "longitude": 13.2876996994
            }
        },
        {
            "circle": {
                "id": "1005037",
                "latitude": 32.8805,
                "longitude": -117.2315,
                "radius": 319.0800594187546
            },
            "marker": {
                "city": "Santa Barbara",
                "code_country": "US",
                "id": "SBA",
                "latitude": 34.42620087,
                "longitude": -119.8399963
            }
        },
        {
            "circle": {
                "id": "61223",
                "latitude": 33.6785,
                "longitude": 73.0485,
                "radius": 359.92214687206837
            },
            "marker": {
                "city": "Lahore",
                "code_country": "PK",
                "id": "LHE",
                "latitude": 31.5216007233,
                "longitude": 74.4036026001
            }
        },
        {
            "circle": {
                "id": "30219",
                "latitude": -37.7385,
                "longitude": 175.2575,
                "radius": 475.7386792813974
            },
            "marker": {
                "city": "Wellington",
                "code_country": "NZ",
                "id": "WEL",
                "latitude": -41.3272018433,
                "longitude": 174.804992676
            }
        },
        {
            "circle": {
                "id": "20088",
                "latitude": 45.6715,
                "longitude": 4.7515,
                "radius": 482.7839006603375
            },
            "marker": {
                "city": "Paris",
                "code_country": "FR",
                "id": "PAR",
                "latitude": 49.0127983093,
                "longitude": 2.5499999523
            }
        },
        {
            "circle": {
                "id": "20313",
                "latitude": 55.9185,
                "longitude": 23.2875,
                "radius": 492.582972167452
            },
            "marker": {
                "city": "Warsaw",
                "code_country": "PL",
                "id": "WAW",
                "latitude": 52.1656990051,
                "longitude": 20.9671001434
            }
        },
        {
            "circle": {
                "id": "52427",
                "latitude": 45.5105,
                "longitude": -122.6815,
                "radius": 675.1493801258224
            },
            "marker": {
                "city": "Vancouver",
                "code_country": "CA",
                "id": "YVR",
                "latitude": 49.193901062,
                "longitude": -123.183998108
            }
        },
        {
            "circle": {
                "id": "62828",
                "latitude": 28.6715,
                "longitude": -81.2115,
                "radius": 807.7756898421597
            },
            "marker": {
                "city": "Havana",
                "code_country": "CU",
                "id": "HAV",
                "latitude": 22.989200592,
                "longitude": -82.4091033936
            }
        },
        {
            "circle": {
                "id": "62659",
                "latitude": 30.3715,
                "longitude": -97.6505,
                "radius": 963.222714264346
            },
            "marker": {
                "city": "Ciudad Ju\u00e1rez",
                "code_country": "MX",
                "id": "CJS",
                "latitude": 31.636100769,
                "longitude": -106.4290008545
            }
        }
    ],
    "markerGT": []
}