{
    "target": "199.9.14.201",
    "measurement_filepath": "datasets/measurements/campaigns/199.9.14.201_North-Central-section_20230425/199.9.14.201_North-Central-section_2_52640650.json",
    "probes_filepath": "datasets/probes_section/North-Central-section_2.json",
    "alpha": 0.3,
    "threshold": -1,
    "noise": 0,
    "num_anycast_instances": 18,
    "anycast_instances": [
        {
            "marker": {
                "id": "RTM",
                "latitude": 51.9569015503,
                "longitude": 4.4372200966,
                "city": "Rotterdam",
                "country_code": "NL"
            },
            "circle": {
                "id": "24010",
                "latitude": 52.3775,
                "longitude": 6.2875,
                "radius": 170.3007302577172
            }
        },
        {
            "marker": {
                "id": "STN",
                "latitude": 51.8849983215,
                "longitude": 0.2349999994,
                "city": "London",
                "country_code": "GB"
            },
            "circle": {
                "id": "558",
                "latitude": 51.5015,
                "longitude": -0.1205,
                "radius": 279.1621860400876
            }
        },
        {
            "marker": {
                "id": "MUC",
                "latitude": 48.3538017273,
                "longitude": 11.7861003876,
                "city": "Munich",
                "country_code": "DE"
            },
            "circle": {
                "id": "2367",
                "latitude": 47.3805,
                "longitude": 8.5205,
                "radius": 364.01738900545996
            }
        },
        {
            "marker": {
                "id": "BRU",
                "latitude": 50.9014015198,
                "longitude": 4.4844398499,
                "city": "Brussels",
                "country_code": "BE"
            },
            "circle": {
                "id": "788",
                "latitude": 49.5015,
                "longitude": 6.3715,
                "radius": 257.6531084646431
            }
        },
        {
            "marker": {
                "id": "SXF",
                "latitude": 52.3800010681,
                "longitude": 13.5225000381,
                "city": "Berlin",
                "country_code": "DE"
            },
            "circle": {
                "id": "11603",
                "latitude": 55.5085,
                "longitude": 13.1275,
                "radius": 377.74804846771184
            }
        },
        {
            "marker": {
                "id": "RKE",
                "latitude": 55.5856018066,
                "longitude": 12.1314001083,
                "city": "Copenhagen",
                "country_code": "DK"
            },
            "circle": {
                "id": "50412",
                "latitude": 54.0285,
                "longitude": 9.1675,
                "radius": 283.39042888847376
            }
        },
        {
            "marker": {
                "id": "WMI",
                "latitude": 52.4510993958,
                "longitude": 20.6518001556,
                "city": "Warsaw",
                "country_code": "PL"
            },
            "circle": {
                "id": "12454",
                "latitude": 47.5495,
                "longitude": 21.5995,
                "radius": 564.995368845214
            }
        },
        {
            "marker": {
                "id": "ECV",
                "latitude": 40.3707008362,
                "longitude": -3.7851400375,
                "city": "Madrid",
                "country_code": "ES"
            },
            "circle": {
                "id": "18651",
                "latitude": 40.6775,
                "longitude": -3.6205,
                "radius": 759.6831662876282
            }
        },
        {
            "marker": {
                "id": "PAR",
                "latitude": 49.0127983093,
                "longitude": 2.5499999523,
                "city": "Paris",
                "country_code": "FR"
            },
            "circle": {
                "id": "19856",
                "latitude": 47.0605,
                "longitude": 2.4095,
                "radius": 443.01683582645575
            }
        },
        {
            "marker": {
                "id": "LED",
                "latitude": 59.8003005981,
                "longitude": 30.2625007629,
                "city": "St Petersburg",
                "country_code": "RU"
            },
            "circle": {
                "id": "12063",
                "latitude": 65.7385,
                "longitude": 24.5705,
                "radius": 891.3804791351151
            }
        },
        {
            "marker": {
                "id": "RIX",
                "latitude": 56.9235992432,
                "longitude": 23.9710998535,
                "city": "Riga",
                "country_code": "LV"
            },
            "circle": {
                "id": "22557",
                "latitude": 60.1305,
                "longitude": 18.6395,
                "radius": 526.5306893886972
            }
        },
        {
            "marker": {
                "id": "BMA",
                "latitude": 59.3544006348,
                "longitude": 17.9416999817,
                "city": "Stockholm",
                "country_code": "SE"
            },
            "circle": {
                "id": "53998",
                "latitude": 63.1615,
                "longitude": 14.7015,
                "radius": 818.1332341476536
            }
        },
        {
            "marker": {
                "id": "EGS",
                "latitude": 65.2833023071,
                "longitude": -14.4013996124,
                "city": "Egilssta\u00f0ir",
                "country_code": "IS"
            },
            "circle": {
                "id": "1000959",
                "latitude": 64.0715,
                "longitude": -22.0205,
                "radius": 969.6495146093645
            }
        },
        {
            "marker": {
                "id": "BHX",
                "latitude": 52.4538993835,
                "longitude": -1.7480299473,
                "city": "Birmingham",
                "country_code": "GB"
            },
            "circle": {
                "id": "14051",
                "latitude": 55.8275,
                "longitude": -4.1205,
                "radius": 470.1040857135655
            }
        },
        {
            "marker": {
                "id": "SAW",
                "latitude": 40.898601532,
                "longitude": 29.3092002869,
                "city": "Istanbul",
                "country_code": "TR"
            },
            "circle": {
                "id": "16348",
                "latitude": 42.6515,
                "longitude": 23.3595,
                "radius": 974.6871701130295
            }
        },
        {
            "marker": {
                "id": "LIN",
                "latitude": 45.445098877,
                "longitude": 9.2767400742,
                "city": "Milan",
                "country_code": "IT"
            },
            "circle": {
                "id": "6316",
                "latitude": 45.0905,
                "longitude": 7.6575,
                "radius": 447.6040111910317
            }
        },
        {
            "marker": {
                "id": "FICIX",
                "latitude": 60.1733244,
                "longitude": 24.9410248,
                "city": "Helsinki",
                "country_code": "FI"
            },
            "circle": {
                "id": "30485",
                "latitude": 70.6595,
                "longitude": 23.6815,
                "radius": 1197.771270204184
            }
        },
        {
            "marker": {
                "id": "MMK",
                "latitude": 68.7817001343,
                "longitude": 32.7508010864,
                "city": "Murmansk",
                "country_code": "RU"
            },
            "circle": {
                "id": "4842",
                "latitude": 78.2085,
                "longitude": 15.6195,
                "radius": 1424.2410404446669
            }
        }
    ]
}