{
    "target": "199.9.14.201",
    "measurement_filepath": "datasets/measurements/campaigns/199.9.14.201_North-Central-section_20230425/199.9.14.201_North-Central-section_1_52639768.json",
    "probes_filepath": "datasets/probes_section/North-Central-section_1.json",
    "alpha": 0.0,
    "threshold": -1,
    "noise": 0,
    "num_anycast_instances": 15,
    "anycast_instances": [
        {
            "marker": {
                "id": "QAR",
                "latitude": 52.0606002808,
                "longitude": 5.8730602264,
                "city": "Arnhem",
                "country_code": "NL"
            },
            "circle": {
                "id": "6863",
                "latitude": 52.5385,
                "longitude": 5.7005,
                "radius": 54.70905371023008
            }
        },
        {
            "marker": {
                "id": "XVS",
                "latitude": 50.3258018494,
                "longitude": 3.4612600803,
                "city": "Valenciennes/Denain",
                "country_code": "FR"
            },
            "circle": {
                "id": "6737",
                "latitude": 50.8805,
                "longitude": 4.4985,
                "radius": 101.97182937148577
            }
        },
        {
            "marker": {
                "id": "LUX",
                "latitude": 49.6265983582,
                "longitude": 6.211520195,
                "city": "Luxembourg",
                "country_code": "LU"
            },
            "circle": {
                "id": "2325",
                "latitude": 50.1095,
                "longitude": 8.6785,
                "radius": 185.70749637547672
            }
        },
        {
            "marker": {
                "id": "MMX",
                "latitude": 55.536305364,
                "longitude": 13.3761978149,
                "city": "Malm\u00f6",
                "country_code": "SE"
            },
            "circle": {
                "id": "53696",
                "latitude": 54.3105,
                "longitude": 10.1315,
                "radius": 254.87343878991624
            }
        },
        {
            "marker": {
                "id": "DUB",
                "latitude": 53.4212989807,
                "longitude": -6.270070076,
                "city": "Dublin",
                "country_code": "IE"
            },
            "circle": {
                "id": "22278",
                "latitude": 51.5715,
                "longitude": -3.3195,
                "radius": 287.126883194983
            }
        },
        {
            "marker": {
                "id": "NIT",
                "latitude": 46.3112983704,
                "longitude": -0.4015029967,
                "city": "Niort/Souch\u00e9",
                "country_code": "FR"
            },
            "circle": {
                "id": "12018",
                "latitude": 44.9915,
                "longitude": 4.9775,
                "radius": 445.7628867749425
            }
        },
        {
            "marker": {
                "id": "TRD",
                "latitude": 63.4578018188,
                "longitude": 10.9239997864,
                "city": "Trondheim",
                "country_code": "NO"
            },
            "circle": {
                "id": "110",
                "latitude": 60.1475,
                "longitude": 19.9475,
                "radius": 601.8398469437911
            }
        },
        {
            "marker": {
                "id": "QPA",
                "latitude": 45.3958015442,
                "longitude": 11.8479003906,
                "city": "Padova",
                "country_code": "IT"
            },
            "circle": {
                "id": "60971",
                "latitude": 47.4675,
                "longitude": 19.1205,
                "radius": 612.151352437081
            }
        },
        {
            "marker": {
                "id": "CGN",
                "latitude": 50.8658981323,
                "longitude": 7.1427397728,
                "city": "Cologne",
                "country_code": "DE"
            },
            "circle": {
                "id": "2631",
                "latitude": 49.5975,
                "longitude": 10.9485,
                "radius": 307.1986118263956
            }
        },
        {
            "marker": {
                "id": "KAO",
                "latitude": 65.9876022339,
                "longitude": 29.2394008636,
                "city": "Kuusamo",
                "country_code": "FI"
            },
            "circle": {
                "id": "1003320",
                "latitude": 60.3375,
                "longitude": 25.0285,
                "radius": 674.7372251389929
            }
        },
        {
            "marker": {
                "id": "FOG",
                "latitude": 41.4328994751,
                "longitude": 15.5349998474,
                "city": "Foggia",
                "country_code": "IT"
            },
            "circle": {
                "id": "11518",
                "latitude": 42.1715,
                "longitude": 26.5675,
                "radius": 917.7629499306374
            }
        },
        {
            "marker": {
                "id": "ERF",
                "latitude": 50.979801178,
                "longitude": 10.9581003189,
                "city": "Erfurt",
                "country_code": "DE"
            },
            "circle": {
                "id": "33606",
                "latitude": 50.8805,
                "longitude": 20.6275,
                "radius": 682.9160190777691
            }
        },
        {
            "marker": {
                "id": "CKC",
                "latitude": 49.415599823,
                "longitude": 31.995300293,
                "city": "Cherkasy",
                "country_code": "UA"
            },
            "circle": {
                "id": "16302",
                "latitude": 51.2385,
                "longitude": 22.2975,
                "radius": 723.2315901886567
            }
        },
        {
            "marker": {
                "id": "EGS",
                "latitude": 65.2833023071,
                "longitude": -14.4013996124,
                "city": "Egilssta\u00f0ir",
                "country_code": "IS"
            },
            "circle": {
                "id": "1000959",
                "latitude": 64.0715,
                "longitude": -22.0205,
                "radius": 969.3932460204169
            }
        },
        {
            "marker": {
                "id": "LEI",
                "latitude": 36.8438987732,
                "longitude": -2.3701000214,
                "city": "Almer\u00eda",
                "country_code": "ES"
            },
            "circle": {
                "id": "50252",
                "latitude": 32.6485,
                "longitude": -16.9005,
                "radius": 1418.6295192199734
            }
        }
    ]
}