{
    "target": "198.41.0.4",
    "probes_filepath": "datasets/probes_sets/North-Central_100.json",
    "alpha": 0.9,
    "threshold": -1,
    "noise": 0,
    "results_filepath": "datasets/results/campaigns/North-Central_20230410_198.41.0.4/198.41.0.4_North-Central_100_52069359_0.9_-1_0.json",
    "gt_filepath": "datasets/ground-truth/root_servers/root_servers_A.json",
    "statistics": {
        "TP": 3,
        "FP": 0,
        "TN": 0,
        "FN": 3,
        "accuracy": 0.5,
        "precision": 1.0,
        "recall": 0.5,
        "f1": 0.6666666666666666
    },
    "instances": [
        {
            "country_code": "DE",
            "city": "Frankfurt-am-Main",
            "latitude": 50.121212,
            "longitude": 8.6365638,
            "type": "TP"
        },
        {
            "country_code": "FR",
            "city": "Marseille",
            "latitude": 43.2961743,
            "longitude": 5.3699525,
            "type": "FN"
        },
        {
            "country_code": "FR",
            "city": "Paris",
            "latitude": 48.7252998352,
            "longitude": 2.3594400883,
            "type": "TP"
        },
        {
            "country_code": "GB",
            "city": "London",
            "latitude": 51.5073509,
            "longitude": -0.1277583,
            "type": "FN"
        },
        {
            "country_code": "NL",
            "city": "Amsterdam",
            "latitude": 52.3702157,
            "longitude": 4.8951679,
            "type": "FN"
        },
        {
            "country_code": "SE",
            "city": "Stockholm",
            "latitude": 59.6519012451,
            "longitude": 17.9186000824,
            "type": "TP"
        }
    ]
}