{
    "target": "199.7.91.13",
    "measurement_filepath": "datasets/measurements/campaigns/199.7.91.13_North-Central_20230410/199.7.91.13_North-Central_500_52070203.json",
    "probes_filepath": "datasets/probes_sets/North-Central_500.json",
    "alpha": 1,
    "threshold": 5.0,
    "noise": 0,
    "num_anycast_instances": 25,
    "anycast_instances": [
        {
            "marker": {
                "id": "WAW",
                "latitude": 52.1656990051,
                "longitude": 20.9671001434,
                "city": "Warsaw",
                "country_code": "PL"
            },
            "circle": {
                "id": "1004056",
                "latitude": 52.2305,
                "longitude": 21.0095,
                "radius": 16.121339428949998
            }
        },
        {
            "marker": {
                "id": "MAN",
                "latitude": 53.3536987305,
                "longitude": -2.2749500275,
                "city": "Manchester",
                "country_code": "GB"
            },
            "circle": {
                "id": "12174",
                "latitude": 53.4795,
                "longitude": -2.2495,
                "radius": 34.2479306509704
            }
        },
        {
            "marker": {
                "id": "PAR",
                "latitude": 49.0127983093,
                "longitude": 2.5499999523,
                "city": "Paris",
                "country_code": "FR"
            },
            "circle": {
                "id": "6593",
                "latitude": 48.8585,
                "longitude": 2.3815,
                "radius": 41.37591604936161
            }
        },
        {
            "marker": {
                "id": "RIX",
                "latitude": 56.9235992432,
                "longitude": 23.9710998535,
                "city": "Riga",
                "country_code": "LV"
            },
            "circle": {
                "id": "1005505",
                "latitude": 56.9495,
                "longitude": 24.0975,
                "radius": 42.957980808719206
            }
        },
        {
            "marker": {
                "id": "LIS",
                "latitude": 38.7812995911,
                "longitude": -9.1359195709,
                "city": "Lisbon",
                "country_code": "PT"
            },
            "circle": {
                "id": "30716",
                "latitude": 38.7405,
                "longitude": -9.1425,
                "radius": 45.9804284117836
            }
        },
        {
            "marker": {
                "id": "DEX",
                "latitude": 50.121212,
                "longitude": 8.6365638,
                "city": "Frankfurt-am-Main",
                "country_code": "DE"
            },
            "circle": {
                "id": "27908",
                "latitude": 50.1415,
                "longitude": 8.7375,
                "radius": 46.7850713690556
            }
        },
        {
            "marker": {
                "id": "BQH",
                "latitude": 51.3307991028,
                "longitude": 0.0324999988,
                "city": "London",
                "country_code": "GB"
            },
            "circle": {
                "id": "7081",
                "latitude": 51.5075,
                "longitude": 0.0015,
                "radius": 48.150206305804396
            }
        },
        {
            "marker": {
                "id": "ARN",
                "latitude": 59.6519012451,
                "longitude": 17.9186000824,
                "city": "Stockholm",
                "country_code": "SE"
            },
            "circle": {
                "id": "51501",
                "latitude": 59.3275,
                "longitude": 18.0675,
                "radius": 50.22273152645
            }
        },
        {
            "marker": {
                "id": "PRG",
                "latitude": 50.1007995605,
                "longitude": 14.2600002289,
                "city": "Prague",
                "country_code": "CZ"
            },
            "circle": {
                "id": "30144",
                "latitude": 50.0795,
                "longitude": 14.5295,
                "radius": 54.88006731997161
            }
        },
        {
            "marker": {
                "id": "BEG",
                "latitude": 44.8184013367,
                "longitude": 20.3090991974,
                "city": "Belgrade",
                "country_code": "RS"
            },
            "circle": {
                "id": "61257",
                "latitude": 44.8105,
                "longitude": 20.3895,
                "radius": 55.213496491759194
            }
        },
        {
            "marker": {
                "id": "SPM",
                "latitude": 49.9726982117,
                "longitude": 6.6925001144,
                "city": "Trier",
                "country_code": "DE"
            },
            "circle": {
                "id": "1005179",
                "latitude": 49.7915,
                "longitude": 6.0805,
                "radius": 58.194512777128
            }
        },
        {
            "marker": {
                "id": "WIE",
                "latitude": 48.1102981567,
                "longitude": 16.5697002411,
                "city": "Vienna",
                "country_code": "AT"
            },
            "circle": {
                "id": "26895",
                "latitude": 48.1895,
                "longitude": 16.3715,
                "radius": 59.477384663401594
            }
        },
        {
            "marker": {
                "id": "NIX",
                "latitude": 60.193901062,
                "longitude": 11.100399971,
                "city": "Oslo",
                "country_code": "NO"
            },
            "circle": {
                "id": "12876",
                "latitude": 59.9405,
                "longitude": 11.1605,
                "radius": 71.39599358214122
            }
        },
        {
            "marker": {
                "id": "ECV",
                "latitude": 40.3707008362,
                "longitude": -3.7851400375,
                "city": "Madrid",
                "country_code": "ES"
            },
            "circle": {
                "id": "32868",
                "latitude": 40.5015,
                "longitude": -3.6595,
                "radius": 75.39276667370561
            }
        },
        {
            "marker": {
                "id": "AMX",
                "latitude": 52.3086013794,
                "longitude": 4.7638897896,
                "city": "Amsterdam",
                "country_code": "NL"
            },
            "circle": {
                "id": "20482",
                "latitude": 52.3585,
                "longitude": 4.9515,
                "radius": 78.59041298922521
            }
        },
        {
            "marker": {
                "id": "KEF",
                "latitude": 63.9850006104,
                "longitude": -22.6056003571,
                "city": "Reykjav\u00edk",
                "country_code": "IS"
            },
            "circle": {
                "id": "62763",
                "latitude": 64.1485,
                "longitude": -21.9295,
                "radius": 84.01227950913841
            }
        },
        {
            "marker": {
                "id": "ZRH",
                "latitude": 47.4646987915,
                "longitude": 8.5491695404,
                "city": "Zurich",
                "country_code": "CH"
            },
            "circle": {
                "id": "33852",
                "latitude": 47.3785,
                "longitude": 8.5395,
                "radius": 89.96777660429161
            }
        },
        {
            "marker": {
                "id": "SXF",
                "latitude": 52.3800010681,
                "longitude": 13.5225000381,
                "city": "Berlin",
                "country_code": "DE"
            },
            "circle": {
                "id": "52523",
                "latitude": 52.5385,
                "longitude": 13.2385,
                "radius": 91.80142719440279
            }
        },
        {
            "marker": {
                "id": "ZAG",
                "latitude": 45.7429008484,
                "longitude": 16.0687999725,
                "city": "Zagreb",
                "country_code": "HR"
            },
            "circle": {
                "id": "53811",
                "latitude": 45.8175,
                "longitude": 15.9975,
                "radius": 92.07873521805281
            }
        },
        {
            "marker": {
                "id": "GML",
                "latitude": 50.6035003662,
                "longitude": 30.1919002533,
                "city": "Kiev",
                "country_code": "UA"
            },
            "circle": {
                "id": "20338",
                "latitude": 50.4615,
                "longitude": 30.3385,
                "radius": 98.103184578546
            }
        },
        {
            "marker": {
                "id": "SOF",
                "latitude": 42.6966934204,
                "longitude": 23.4114360809,
                "city": "Sofia",
                "country_code": "BG"
            },
            "circle": {
                "id": "1004017",
                "latitude": 42.7005,
                "longitude": 23.3175,
                "radius": 103.9733607401524
            }
        },
        {
            "marker": {
                "id": "TIA",
                "latitude": 41.4146995544,
                "longitude": 19.7206001282,
                "city": "Tirana",
                "country_code": "AL"
            },
            "circle": {
                "id": "53055",
                "latitude": 41.3295,
                "longitude": 19.7995,
                "radius": 114.7505398543028
            }
        },
        {
            "marker": {
                "id": "ATH",
                "latitude": 37.9364013672,
                "longitude": 23.9444999695,
                "city": "Athens",
                "country_code": "GR"
            },
            "circle": {
                "id": "51299",
                "latitude": 38.0015,
                "longitude": 23.7015,
                "radius": 130.6445766415972
            }
        },
        {
            "marker": {
                "id": "BBU",
                "latitude": 44.503200531,
                "longitude": 26.1021003723,
                "city": "Bucharest",
                "country_code": "RO"
            },
            "circle": {
                "id": "33742",
                "latitude": 44.3785,
                "longitude": 26.1395,
                "radius": 135.2250456488876
            }
        },
        {
            "marker": {
                "id": "FICIX",
                "latitude": 60.1733244,
                "longitude": 24.9410248,
                "city": "Helsinki",
                "country_code": "FI"
            },
            "circle": {
                "id": "6330",
                "latitude": 60.2075,
                "longitude": 24.8985,
                "radius": 203.38819728094
            }
        }
    ]
}