{
    "target": "199.7.83.42",
    "measurement_filepath": "datasets/measurements/campaigns/199.7.83.42_North-Central_20230410/199.7.83.42_North-Central_300_52100151.json",
    "probes_filepath": "datasets/probes_sets/North-Central_300.json",
    "alpha": 0.3,
    "threshold": -1,
    "noise": 0,
    "num_anycast_instances": 17,
    "anycast_instances": [
        {
            "marker": {
                "id": "TOJ",
                "latitude": 40.4967002869,
                "longitude": -3.4458699226,
                "city": "Madrid",
                "country_code": "ES"
            },
            "circle": {
                "id": "1005357",
                "latitude": 40.4905,
                "longitude": -3.6905,
                "radius": 29.771144865279297
            }
        },
        {
            "marker": {
                "id": "PRG",
                "latitude": 50.1007995605,
                "longitude": 14.2600002289,
                "city": "Prague",
                "country_code": "CZ"
            },
            "circle": {
                "id": "1004988",
                "latitude": 50.0915,
                "longitude": 14.4115,
                "radius": 35.92623628415745
            }
        },
        {
            "marker": {
                "id": "MHP",
                "latitude": 53.8644981384,
                "longitude": 27.5396995544,
                "city": "Minsk",
                "country_code": "BY"
            },
            "circle": {
                "id": "1000444",
                "latitude": 53.9595,
                "longitude": 27.7795,
                "radius": 52.53445365452235
            }
        },
        {
            "marker": {
                "id": "TMP",
                "latitude": 61.414100647,
                "longitude": 23.6044006348,
                "city": "Tampere/Pirkkala",
                "country_code": "FI"
            },
            "circle": {
                "id": "14572",
                "latitude": 61.4685,
                "longitude": 23.4605,
                "radius": 55.87959036456649
            }
        },
        {
            "marker": {
                "id": "SOF",
                "latitude": 42.6966934204,
                "longitude": 23.4114360809,
                "city": "Sofia",
                "country_code": "BG"
            },
            "circle": {
                "id": "27804",
                "latitude": 42.6595,
                "longitude": 23.3875,
                "radius": 67.72006587393984
            }
        },
        {
            "marker": {
                "id": "LED",
                "latitude": 59.8003005981,
                "longitude": 30.2625007629,
                "city": "St Petersburg",
                "country_code": "RU"
            },
            "circle": {
                "id": "11072",
                "latitude": 59.9985,
                "longitude": 30.2405,
                "radius": 67.9685863268104
            }
        },
        {
            "marker": {
                "id": "BVA",
                "latitude": 49.4543991089,
                "longitude": 2.1127800941,
                "city": "Beauvais/Till\u00e9",
                "country_code": "FR"
            },
            "circle": {
                "id": "52786",
                "latitude": 48.9305,
                "longitude": 2.3615,
                "radius": 74.42628825279374
            }
        },
        {
            "marker": {
                "id": "BEG",
                "latitude": 44.8184013367,
                "longitude": 20.3090991974,
                "city": "Belgrade",
                "country_code": "RS"
            },
            "circle": {
                "id": "53530",
                "latitude": 44.8175,
                "longitude": 20.4485,
                "radius": 86.14751381718614
            }
        },
        {
            "marker": {
                "id": "DME",
                "latitude": 55.4087982178,
                "longitude": 37.9062995911,
                "city": "Moscow",
                "country_code": "RU"
            },
            "circle": {
                "id": "20904",
                "latitude": 55.9995,
                "longitude": 37.8675,
                "radius": 109.06086873165818
            }
        },
        {
            "marker": {
                "id": "AMX",
                "latitude": 52.3086013794,
                "longitude": 4.7638897896,
                "city": "Amsterdam",
                "country_code": "NL"
            },
            "circle": {
                "id": "11833",
                "latitude": 51.1985,
                "longitude": 4.3985,
                "radius": 130.45330155858173
            }
        },
        {
            "marker": {
                "id": "OTP",
                "latitude": 44.5722007751,
                "longitude": 26.1021995544,
                "city": "Bucharest",
                "country_code": "RO"
            },
            "circle": {
                "id": "61012",
                "latitude": 44.3785,
                "longitude": 26.1275,
                "radius": 149.39678225978344
            }
        },
        {
            "marker": {
                "id": "BCN",
                "latitude": 41.2971000671,
                "longitude": 2.0784599781,
                "city": "Barcelona",
                "country_code": "ES"
            },
            "circle": {
                "id": "1005149",
                "latitude": 41.6115,
                "longitude": 0.6295,
                "radius": 212.99467185697748
            }
        },
        {
            "marker": {
                "id": "LIN",
                "latitude": 45.445098877,
                "longitude": 9.2767400742,
                "city": "Milan",
                "country_code": "IT"
            },
            "circle": {
                "id": "62166",
                "latitude": 46.7705,
                "longitude": 7.2405,
                "radius": 263.65297184565566
            }
        },
        {
            "marker": {
                "id": "FCO",
                "latitude": 41.8045005798,
                "longitude": 12.2508001328,
                "city": "Rome",
                "country_code": "IT"
            },
            "circle": {
                "id": "6961",
                "latitude": 40.5875,
                "longitude": 14.9805,
                "radius": 327.4123971140316
            }
        },
        {
            "marker": {
                "id": "ARN",
                "latitude": 59.6519012451,
                "longitude": 17.9186000824,
                "city": "Stockholm",
                "country_code": "SE"
            },
            "circle": {
                "id": "51263",
                "latitude": 57.6785,
                "longitude": 12.0005,
                "radius": 423.7294706914937
            }
        },
        {
            "marker": {
                "id": "GML",
                "latitude": 50.6035003662,
                "longitude": 30.1919002533,
                "city": "Kiev",
                "country_code": "UA"
            },
            "circle": {
                "id": "53752",
                "latitude": 49.8085,
                "longitude": 24.0195,
                "radius": 452.5932037448987
            }
        },
        {
            "marker": {
                "id": "IST",
                "latitude": 40.9768981934,
                "longitude": 28.8145999908,
                "city": "Istanbul",
                "country_code": "TR"
            },
            "circle": {
                "id": "50282",
                "latitude": 40.1985,
                "longitude": 28.9915,
                "radius": 509.44856609657495
            }
        }
    ]
}