{
    "target": "192.203.230.10",
    "measurement_filepath": "datasets/measurements/campaigns/192.203.230.10_North-Central_20230410/192.203.230.10_North-Central_300_52070338.json",
    "probes_filepath": "datasets/probes_sets/North-Central_300.json",
    "alpha": 1,
    "threshold": 5.0,
    "noise": 0,
    "num_anycast_instances": 32,
    "anycast_instances": [
        {
            "marker": {
                "id": "MAN",
                "latitude": 53.3536987305,
                "longitude": -2.2749500275,
                "city": "Manchester",
                "country_code": "GB"
            },
            "circle": {
                "id": "12174",
                "latitude": 53.4795,
                "longitude": -2.2495,
                "radius": 24.826113239438
            }
        },
        {
            "marker": {
                "id": "VNO",
                "latitude": 54.6341018677,
                "longitude": 25.2858009338,
                "city": "Vilnius",
                "country_code": "LT"
            },
            "circle": {
                "id": "19789",
                "latitude": 54.7215,
                "longitude": 25.2915,
                "radius": 39.5725444975084
            }
        },
        {
            "marker": {
                "id": "ZRH",
                "latitude": 47.4646987915,
                "longitude": 8.5491695404,
                "city": "Zurich",
                "country_code": "CH"
            },
            "circle": {
                "id": "1002086",
                "latitude": 47.3805,
                "longitude": 8.5415,
                "radius": 39.6077401320776
            }
        },
        {
            "marker": {
                "id": "NIX",
                "latitude": 60.193901062,
                "longitude": 11.100399971,
                "city": "Oslo",
                "country_code": "NO"
            },
            "circle": {
                "id": "28320",
                "latitude": 59.9075,
                "longitude": 10.7485,
                "radius": 40.7895220015136
            }
        },
        {
            "marker": {
                "id": "DEX",
                "latitude": 50.121212,
                "longitude": 8.6365638,
                "city": "Frankfurt-am-Main",
                "country_code": "DE"
            },
            "circle": {
                "id": "1004809",
                "latitude": 50.1015,
                "longitude": 8.6275,
                "radius": 45.033024286012
            }
        },
        {
            "marker": {
                "id": "AMX",
                "latitude": 52.3086013794,
                "longitude": 4.7638897896,
                "city": "Amsterdam",
                "country_code": "NL"
            },
            "circle": {
                "id": "1004028",
                "latitude": 52.3315,
                "longitude": 4.9185,
                "radius": 49.1708797083112
            }
        },
        {
            "marker": {
                "id": "PAR",
                "latitude": 49.0127983093,
                "longitude": 2.5499999523,
                "city": "Paris",
                "country_code": "FR"
            },
            "circle": {
                "id": "1001863",
                "latitude": 48.9085,
                "longitude": 2.3905,
                "radius": 50.008020168030406
            }
        },
        {
            "marker": {
                "id": "HAM",
                "latitude": 53.6304016113,
                "longitude": 9.9882297516,
                "city": "Hamburg",
                "country_code": "DE"
            },
            "circle": {
                "id": "11662",
                "latitude": 53.5985,
                "longitude": 10.0505,
                "radius": 57.73990749381681
            }
        },
        {
            "marker": {
                "id": "TLL",
                "latitude": 59.4132995605,
                "longitude": 24.8327999115,
                "city": "Tallinn",
                "country_code": "EE"
            },
            "circle": {
                "id": "11447",
                "latitude": 59.4305,
                "longitude": 24.6995,
                "radius": 58.7825856627408
            }
        },
        {
            "marker": {
                "id": "PRG",
                "latitude": 50.1007995605,
                "longitude": 14.2600002289,
                "city": "Prague",
                "country_code": "CZ"
            },
            "circle": {
                "id": "20144",
                "latitude": 50.0995,
                "longitude": 14.4695,
                "radius": 62.02645997528399
            }
        },
        {
            "marker": {
                "id": "CKL",
                "latitude": 55.8782997131,
                "longitude": 38.0616989136,
                "city": "Moscow",
                "country_code": "RU"
            },
            "circle": {
                "id": "31213",
                "latitude": 55.6485,
                "longitude": 37.5275,
                "radius": 65.76960864738041
            }
        },
        {
            "marker": {
                "id": "ZAG",
                "latitude": 45.7429008484,
                "longitude": 16.0687999725,
                "city": "Zagreb",
                "country_code": "HR"
            },
            "circle": {
                "id": "53811",
                "latitude": 45.8175,
                "longitude": 15.9975,
                "radius": 68.6224936362
            }
        },
        {
            "marker": {
                "id": "BCN",
                "latitude": 41.2971000671,
                "longitude": 2.0784599781,
                "city": "Barcelona",
                "country_code": "ES"
            },
            "circle": {
                "id": "1002174",
                "latitude": 41.3695,
                "longitude": 2.0705,
                "radius": 76.27817371916281
            }
        },
        {
            "marker": {
                "id": "RIX",
                "latitude": 56.9235992432,
                "longitude": 23.9710998535,
                "city": "Riga",
                "country_code": "LV"
            },
            "circle": {
                "id": "35695",
                "latitude": 56.9395,
                "longitude": 24.0915,
                "radius": 78.4817082439544
            }
        },
        {
            "marker": {
                "id": "ARN",
                "latitude": 59.6519012451,
                "longitude": 17.9186000824,
                "city": "Stockholm",
                "country_code": "SE"
            },
            "circle": {
                "id": "61033",
                "latitude": 59.2185,
                "longitude": 18.1485,
                "radius": 90.2728454095524
            }
        },
        {
            "marker": {
                "id": "HFA",
                "latitude": 32.8093986511,
                "longitude": 35.0430984497,
                "city": "Haifa",
                "country_code": "IL"
            },
            "circle": {
                "id": "55452",
                "latitude": 32.0785,
                "longitude": 34.7795,
                "radius": 91.4666789358
            }
        },
        {
            "marker": {
                "id": "BIX",
                "latitude": 47.4812134,
                "longitude": 19.1303031,
                "city": "Budapest",
                "country_code": "HU"
            },
            "circle": {
                "id": "61616",
                "latitude": 47.4105,
                "longitude": 19.2475,
                "radius": 121.99148705086841
            }
        },
        {
            "marker": {
                "id": "CPH",
                "latitude": 55.6179008484,
                "longitude": 12.6560001373,
                "city": "Copenhagen",
                "country_code": "DK"
            },
            "circle": {
                "id": "55469",
                "latitude": 55.6115,
                "longitude": 13.0105,
                "radius": 123.69184991415281
            }
        },
        {
            "marker": {
                "id": "KEF",
                "latitude": 63.9850006104,
                "longitude": -22.6056003571,
                "city": "Reykjav\u00edk",
                "country_code": "IS"
            },
            "circle": {
                "id": "60821",
                "latitude": 64.1675,
                "longitude": -21.6715,
                "radius": 129.8971340853116
            }
        },
        {
            "marker": {
                "id": "BBU",
                "latitude": 44.503200531,
                "longitude": 26.1021003723,
                "city": "Bucharest",
                "country_code": "RO"
            },
            "circle": {
                "id": "61956",
                "latitude": 44.4405,
                "longitude": 26.0495,
                "radius": 133.13956939405642
            }
        },
        {
            "marker": {
                "id": "MRS",
                "latitude": 43.439271922,
                "longitude": 5.2214241028,
                "city": "Marseille",
                "country_code": "FR"
            },
            "circle": {
                "id": "54733",
                "latitude": 43.2985,
                "longitude": 5.3685,
                "radius": 136.0358043723028
            }
        },
        {
            "marker": {
                "id": "TIA",
                "latitude": 41.4146995544,
                "longitude": 19.7206001282,
                "city": "Tirana",
                "country_code": "AL"
            },
            "circle": {
                "id": "62311",
                "latitude": 41.3275,
                "longitude": 19.8175,
                "radius": 138.8491167566664
            }
        },
        {
            "marker": {
                "id": "SXF",
                "latitude": 52.3800010681,
                "longitude": 13.5225000381,
                "city": "Berlin",
                "country_code": "DE"
            },
            "circle": {
                "id": "1000983",
                "latitude": 52.5285,
                "longitude": 13.3215,
                "radius": 140.59774620568882
            }
        },
        {
            "marker": {
                "id": "LIS",
                "latitude": 38.7812995911,
                "longitude": -9.1359195709,
                "city": "Lisbon",
                "country_code": "PT"
            },
            "circle": {
                "id": "1003848",
                "latitude": 39.6715,
                "longitude": -8.3205,
                "radius": 142.57751563982922
            }
        },
        {
            "marker": {
                "id": "ATH",
                "latitude": 37.9364013672,
                "longitude": 23.9444999695,
                "city": "Athens",
                "country_code": "GR"
            },
            "circle": {
                "id": "62380",
                "latitude": 37.9675,
                "longitude": 23.7215,
                "radius": 149.0138198791228
            }
        },
        {
            "marker": {
                "id": "LIN",
                "latitude": 45.445098877,
                "longitude": 9.2767400742,
                "city": "Milan",
                "country_code": "IT"
            },
            "circle": {
                "id": "33560",
                "latitude": 45.0375,
                "longitude": 9.7105,
                "radius": 157.3828261366508
            }
        },
        {
            "marker": {
                "id": "HEL",
                "latitude": 60.317199707,
                "longitude": 24.963300705,
                "city": "Helsinki",
                "country_code": "FI"
            },
            "circle": {
                "id": "18110",
                "latitude": 61.4775,
                "longitude": 23.5075,
                "radius": 161.5392087328544
            }
        },
        {
            "marker": {
                "id": "GML",
                "latitude": 50.6035003662,
                "longitude": 30.1919002533,
                "city": "Kiev",
                "country_code": "UA"
            },
            "circle": {
                "id": "1005121",
                "latitude": 50.5075,
                "longitude": 30.4985,
                "radius": 169.52250201391962
            }
        },
        {
            "marker": {
                "id": "DUB",
                "latitude": 53.4212989807,
                "longitude": -6.270070076,
                "city": "Dublin",
                "country_code": "IE"
            },
            "circle": {
                "id": "62081",
                "latitude": 53.2175,
                "longitude": -6.6485,
                "radius": 216.2842495297428
            }
        },
        {
            "marker": {
                "id": "BEG",
                "latitude": 44.8184013367,
                "longitude": 20.3090991974,
                "city": "Belgrade",
                "country_code": "RS"
            },
            "circle": {
                "id": "61112",
                "latitude": 44.8685,
                "longitude": 20.6475,
                "radius": 218.56812843327842
            }
        },
        {
            "marker": {
                "id": "ECV",
                "latitude": 40.3707008362,
                "longitude": -3.7851400375,
                "city": "Madrid",
                "country_code": "ES"
            },
            "circle": {
                "id": "22338",
                "latitude": 40.4815,
                "longitude": -3.6315,
                "radius": 221.2376603547852
            }
        },
        {
            "marker": {
                "id": "SOF",
                "latitude": 42.6966934204,
                "longitude": 23.4114360809,
                "city": "Sofia",
                "country_code": "BG"
            },
            "circle": {
                "id": "16288",
                "latitude": 42.1515,
                "longitude": 24.7615,
                "radius": 232.5123150737408
            }
        }
    ]
}