{
    "target": "198.97.190.53",
    "measurement_filepath": "datasets/measurements/campaigns/198.97.190.53_North-Central_20230410/198.97.190.53_North-Central_500_52071749.json",
    "probes_filepath": "datasets/probes_sets/North-Central_500.json",
    "alpha": 1,
    "threshold": 10.0,
    "noise": 0,
    "num_anycast_instances": 6,
    "anycast_instances": [
        {
            "marker": {
                "id": "DEX",
                "latitude": 50.121212,
                "longitude": 8.6365638,
                "city": "Frankfurt-am-Main",
                "country_code": "DE"
            },
            "circle": {
                "id": "1005426",
                "latitude": 50.1005,
                "longitude": 8.6285,
                "radius": 17.9893012658793
            }
        },
        {
            "marker": {
                "id": "BQH",
                "latitude": 51.3307991028,
                "longitude": 0.0324999988,
                "city": "London",
                "country_code": "GB"
            },
            "circle": {
                "id": "15634",
                "latitude": 51.5095,
                "longitude": -0.0015,
                "radius": 24.1251235245195
            }
        },
        {
            "marker": {
                "id": "MUC",
                "latitude": 48.3538017273,
                "longitude": 11.7861003876,
                "city": "Munich",
                "country_code": "DE"
            },
            "circle": {
                "id": "1004881",
                "latitude": 49.4375,
                "longitude": 11.0215,
                "radius": 163.9595981321403
            }
        },
        {
            "marker": {
                "id": "BNX",
                "latitude": 50.4592018127,
                "longitude": 4.4538202286,
                "city": "Brussels",
                "country_code": "BE"
            },
            "circle": {
                "id": "1005453",
                "latitude": 52.3885,
                "longitude": 4.6595,
                "radius": 261.0177062020983
            }
        },
        {
            "marker": {
                "id": "LIN",
                "latitude": 45.445098877,
                "longitude": 9.2767400742,
                "city": "Milan",
                "country_code": "IT"
            },
            "circle": {
                "id": "1003838",
                "latitude": 47.3715,
                "longitude": 8.0785,
                "radius": 277.8077327086173
            }
        },
        {
            "marker": {
                "id": "SXF",
                "latitude": 52.3800010681,
                "longitude": 13.5225000381,
                "city": "Berlin",
                "country_code": "DE"
            },
            "circle": {
                "id": "7162",
                "latitude": 52.8985,
                "longitude": 9.2805,
                "radius": 300.35130112095777
            }
        }
    ]
}