{
    "target": "202.12.27.33",
    "probes_filepath": "datasets/probes_section/North-Central-section_1.5.json",
    "alpha": 0.0,
    "threshold": -1,
    "noise": 0,
    "results_filepath": "datasets/results/campaigns/202.12.27.33_North-Central-section_20230425_alpha_light-factor_0.18/202.12.27.33_North-Central-section_1.5_52655806_0.0_-1_0.json",
    "gt_filepath": "datasets/ground-truth/root_servers/root_servers_M.json",
    "statistics": {
        "TP": 1,
        "FP": 16,
        "TN": 0,
        "FN": 0,
        "accuracy": 0.058823529411764705,
        "precision": 0.058823529411764705,
        "recall": 1.0,
        "f1": 0.1111111111111111,
        "OT": 0,
        "OF": 1
    },
    "instances": [
        {
            "country_code": "BE",
            "city": "Brussels",
            "latitude": 50.4592018127,
            "longitude": 4.4538202286,
            "type": "FP"
        },
        {
            "country_code": "BY",
            "city": "Gomel",
            "latitude": 52.5270004272,
            "longitude": 31.0167007446,
            "type": "FP"
        },
        {
            "country_code": "CZ",
            "city": "Prague",
            "latitude": 50.1007995605,
            "longitude": 14.2600002289,
            "type": "FP"
        },
        {
            "country_code": "DE",
            "city": "D\u00fcsseldorf",
            "latitude": 51.2895011902,
            "longitude": 6.7667798996,
            "type": "FP"
        },
        {
            "country_code": "DK",
            "city": "Skive",
            "latitude": 56.550201416,
            "longitude": 9.1729803085,
            "type": "FP"
        },
        {
            "country_code": "DZ",
            "city": "Oran",
            "latitude": 35.6239013672,
            "longitude": -0.6211829782,
            "type": "FP"
        },
        {
            "country_code": "ES",
            "city": "Granada",
            "latitude": 37.1887016296,
            "longitude": -3.7773599625,
            "type": "FP"
        },
        {
            "country_code": "FR",
            "city": "Beauvais/Till\u00e9",
            "latitude": 49.4543991089,
            "longitude": 2.1127800941,
            "type": "TP"
        },
        {
            "country_code": "FR",
            "city": "La Rochelle/\u00cele de R\u00e9",
            "latitude": 46.1791992188,
            "longitude": -1.1952799559,
            "type": "FP"
        },
        {
            "country_code": "FR",
            "city": "Vichy/Charmeil",
            "latitude": 46.1697006226,
            "longitude": 3.4037399292,
            "type": "FP"
        },
        {
            "country_code": "GB",
            "city": "Bournemouth",
            "latitude": 50.7799987793,
            "longitude": -1.8424999714,
            "type": "FP"
        },
        {
            "country_code": "IE",
            "city": "Sligo",
            "latitude": 54.2802009583,
            "longitude": -8.5992097855,
            "type": "FP"
        },
        {
            "country_code": "IR",
            "city": "Kermanshah",
            "latitude": 34.3459014893,
            "longitude": 47.1581001282,
            "type": "OF"
        },
        {
            "country_code": "IT",
            "city": "Catania",
            "latitude": 37.4668006897,
            "longitude": 15.0663995743,
            "type": "FP"
        },
        {
            "country_code": "IT",
            "city": "Rimini",
            "latitude": 44.0203018188,
            "longitude": 12.611700058,
            "type": "FP"
        },
        {
            "country_code": "IT",
            "city": "Varese",
            "latitude": 45.7421989441,
            "longitude": 8.8882303238,
            "type": "FP"
        },
        {
            "country_code": "NO",
            "city": "Kirkenes",
            "latitude": 69.7257995605,
            "longitude": 29.8913002014,
            "type": "FP"
        },
        {
            "country_code": "PL",
            "city": "\u0141\u00f3d\u017a",
            "latitude": 51.7219009399,
            "longitude": 19.3980998993,
            "type": "FP"
        }
    ]
}