{
    "target": "202.12.27.33",
    "probes_filepath": "datasets/probes_section/North-Central-section_1.json",
    "alpha": 0.0,
    "threshold": -1,
    "noise": 0,
    "results_filepath": "datasets/results/campaigns/202.12.27.33_North-Central-section_20230425_alpha_light-factor_0.18/202.12.27.33_North-Central-section_1_52655636_0.0_-1_0.json",
    "gt_filepath": "datasets/ground-truth/root_servers/root_servers_M.json",
    "statistics": {
        "TP": 1,
        "FP": 16,
        "TN": 0,
        "FN": 0,
        "accuracy": 0.058823529411764705,
        "precision": 0.058823529411764705,
        "recall": 1.0,
        "f1": 0.1111111111111111,
        "OT": 0,
        "OF": 0
    },
    "instances": [
        {
            "country_code": "DE",
            "city": "Augsburg",
            "latitude": 48.42527771,
            "longitude": 10.9316673279,
            "type": "FP"
        },
        {
            "country_code": "DE",
            "city": "M\u00fcnster",
            "latitude": 52.134601593,
            "longitude": 7.6848301888,
            "type": "FP"
        },
        {
            "country_code": "ES",
            "city": "Santiago de Compostela",
            "latitude": 42.8963012695,
            "longitude": -8.415140152,
            "type": "FP"
        },
        {
            "country_code": "FR",
            "city": "Avignon/Caumont",
            "latitude": 43.9072990417,
            "longitude": 4.9018301964,
            "type": "FP"
        },
        {
            "country_code": "FR",
            "city": "Istres/Le Tub\u00e9",
            "latitude": 43.5227012634,
            "longitude": 4.9238400459,
            "type": "FP"
        },
        {
            "country_code": "FR",
            "city": "La Baule-Escoublac",
            "latitude": 47.2893981934,
            "longitude": -2.3463900089,
            "type": "FP"
        },
        {
            "country_code": "FR",
            "city": "Paris",
            "latitude": 48.9693984985,
            "longitude": 2.4413900375,
            "type": "TP"
        },
        {
            "country_code": "FR",
            "city": "Paris",
            "latitude": 48.7252998352,
            "longitude": 2.3594400883,
            "type": "FP"
        },
        {
            "country_code": "FR",
            "city": "Poitiers/Biard",
            "latitude": 46.5876998901,
            "longitude": 0.3066659868,
            "type": "FP"
        },
        {
            "country_code": "FR",
            "city": "Reims/Champagne",
            "latitude": 49.3100013733,
            "longitude": 4.0500001907,
            "type": "FP"
        },
        {
            "country_code": "GB",
            "city": "Inverness",
            "latitude": 57.5424995422,
            "longitude": -4.0475001335,
            "type": "FP"
        },
        {
            "country_code": "GB",
            "city": "Yeovil",
            "latitude": 51.0093994141,
            "longitude": -2.6388199329,
            "type": "FP"
        },
        {
            "country_code": "IT",
            "city": "Albenga",
            "latitude": 44.0505981445,
            "longitude": 8.1274299622,
            "type": "FP"
        },
        {
            "country_code": "LT",
            "city": "Vilnius",
            "latitude": 54.6341018677,
            "longitude": 25.2858009338,
            "type": "FP"
        },
        {
            "country_code": "PT",
            "city": "Porto",
            "latitude": 41.2481002808,
            "longitude": -8.6813898087,
            "type": "FP"
        },
        {
            "country_code": "SE",
            "city": "Stockholm",
            "latitude": 59.6519012451,
            "longitude": 17.9186000824,
            "type": "FP"
        },
        {
            "country_code": "TR",
            "city": "Afyonkarahisar",
            "latitude": 38.726398468,
            "longitude": 30.6011009216,
            "type": "FP"
        }
    ]
}