{
    "target": "202.12.27.33",
    "probes_filepath": "datasets/probes_section/North-Central-section_1.json",
    "alpha": 1.0,
    "threshold": -1,
    "noise": 0,
    "results_filepath": "datasets/results/campaigns/202.12.27.33_North-Central-section_20230425_alpha_light-factor_0.18/202.12.27.33_North-Central-section_1_52655636_1.0_-1_0.json",
    "gt_filepath": "datasets/ground-truth/root_servers/root_servers_M.json",
    "statistics": {
        "TP": 1,
        "FP": 19,
        "TN": 0,
        "FN": 0,
        "accuracy": 0.05,
        "precision": 0.05,
        "recall": 1.0,
        "f1": 0.09523809523809523,
        "OT": 0,
        "OF": 0
    },
    "instances": [
        {
            "country_code": "DE",
            "city": "Berlin",
            "latitude": 52.3800010681,
            "longitude": 13.5225000381,
            "type": "FP"
        },
        {
            "country_code": "DE",
            "city": "Frankfurt-am-Main",
            "latitude": 50.121212,
            "longitude": 8.6365638,
            "type": "FP"
        },
        {
            "country_code": "DE",
            "city": "Hamburg",
            "latitude": 53.6304016113,
            "longitude": 9.9882297516,
            "type": "FP"
        },
        {
            "country_code": "DE",
            "city": "Munich",
            "latitude": 48.3538017273,
            "longitude": 11.7861003876,
            "type": "FP"
        },
        {
            "country_code": "ES",
            "city": "Madrid",
            "latitude": 40.3707008362,
            "longitude": -3.7851400375,
            "type": "FP"
        },
        {
            "country_code": "FR",
            "city": "Lyon",
            "latitude": 45.726398468,
            "longitude": 5.0908298492,
            "type": "FP"
        },
        {
            "country_code": "FR",
            "city": "Nantes",
            "latitude": 47.1531982422,
            "longitude": -1.610730052,
            "type": "FP"
        },
        {
            "country_code": "FR",
            "city": "Paris",
            "latitude": 48.9693984985,
            "longitude": 2.4413900375,
            "type": "TP"
        },
        {
            "country_code": "FR",
            "city": "Paris",
            "latitude": 48.7252998352,
            "longitude": 2.3594400883,
            "type": "FP"
        },
        {
            "country_code": "FR",
            "city": "Troyes/Barberey",
            "latitude": 48.322101593,
            "longitude": 4.016699791,
            "type": "FP"
        },
        {
            "country_code": "GB",
            "city": "London",
            "latitude": 51.3307991028,
            "longitude": 0.0324999988,
            "type": "FP"
        },
        {
            "country_code": "GB",
            "city": "London",
            "latitude": 51.1481018066,
            "longitude": -0.1902779937,
            "type": "FP"
        },
        {
            "country_code": "IE",
            "city": "Dublin",
            "latitude": 53.4212989807,
            "longitude": -6.270070076,
            "type": "FP"
        },
        {
            "country_code": "IS",
            "city": "Reykjav\u00edk",
            "latitude": 63.9850006104,
            "longitude": -22.6056003571,
            "type": "FP"
        },
        {
            "country_code": "IT",
            "city": "Rome",
            "latitude": 41.7994003296,
            "longitude": 12.5949001312,
            "type": "FP"
        },
        {
            "country_code": "MA",
            "city": "Casablanca",
            "latitude": 33.3675003052,
            "longitude": -7.5899701118,
            "type": "FP"
        },
        {
            "country_code": "RU",
            "city": "Moscow",
            "latitude": 55.8782997131,
            "longitude": 38.0616989136,
            "type": "FP"
        },
        {
            "country_code": "RU",
            "city": "St Petersburg",
            "latitude": 59.8003005981,
            "longitude": 30.2625007629,
            "type": "FP"
        },
        {
            "country_code": "SE",
            "city": "Stockholm",
            "latitude": 59.6519012451,
            "longitude": 17.9186000824,
            "type": "FP"
        },
        {
            "country_code": "TR",
            "city": "Istanbul",
            "latitude": 40.9768981934,
            "longitude": 28.8145999908,
            "type": "FP"
        }
    ]
}