{
    "target": "199.9.14.201",
    "probes_filepath": "datasets/probes_section/North-Central-section_2.json",
    "alpha": 0.0,
    "threshold": -1,
    "noise": 0,
    "results_filepath": "datasets/results/campaigns/199.9.14.201_North-Central-section_20230425_alpha_light-factor_0.25/199.9.14.201_North-Central-section_2_52640650_0.0_-1_0.json",
    "gt_filepath": "datasets/ground-truth/root_servers/root_servers_B.json",
    "statistics": {
        "TP": 0,
        "FP": 12,
        "TN": 0,
        "FN": 1,
        "accuracy": 0.0,
        "precision": 0.0,
        "recall": 0.0,
        "f1": 0,
        "OT": 0,
        "OF": 2
    },
    "instances": [
        {
            "country_code": "DE",
            "city": "Bayreuth",
            "latitude": 49.9850006104,
            "longitude": 11.6400003433,
            "type": "FP"
        },
        {
            "country_code": "DE",
            "city": "G\u00fctersloh",
            "latitude": 51.9227981567,
            "longitude": 8.3063297272,
            "type": "FP"
        },
        {
            "country_code": "DE",
            "city": "Hamburg",
            "latitude": 53.5352783203,
            "longitude": 9.8355560303,
            "type": "FP"
        },
        {
            "country_code": "DE",
            "city": "Hannover",
            "latitude": 52.461101532,
            "longitude": 9.6850795746,
            "type": "FP"
        },
        {
            "country_code": "FR",
            "city": "Cholet/Le Pontreau",
            "latitude": 47.0820999146,
            "longitude": -0.8770639896,
            "type": "FP"
        },
        {
            "country_code": "FR",
            "city": "Lannion",
            "latitude": 48.7543983459,
            "longitude": -3.4716598988,
            "type": "FP"
        },
        {
            "country_code": "FR",
            "city": "Le Touquet-Paris-Plage",
            "latitude": 50.5173988342,
            "longitude": 1.6205899715,
            "type": "FP"
        },
        {
            "country_code": "GB",
            "city": "Aberdeen",
            "latitude": 57.2019004822,
            "longitude": -2.1977798939,
            "type": "FP"
        },
        {
            "country_code": "GB",
            "city": "Enniskillen",
            "latitude": 54.3988990784,
            "longitude": -7.6516699791,
            "type": "FP"
        },
        {
            "country_code": "LT",
            "city": "Vilnius",
            "latitude": 54.6341018677,
            "longitude": 25.2858009338,
            "type": "FP"
        },
        {
            "country_code": "LV",
            "city": "Riga",
            "latitude": 56.9235992432,
            "longitude": 23.9710998535,
            "type": "FP"
        },
        {
            "country_code": "NL",
            "city": "Amsterdam",
            "latitude": 52.366,
            "longitude": 4.894,
            "type": "FN"
        },
        {
            "country_code": "RU",
            "city": "Pechora",
            "latitude": 65.1211013794,
            "longitude": 57.1307983398,
            "type": "OF"
        },
        {
            "country_code": "SD",
            "city": "El Fasher",
            "latitude": 13.6148996353,
            "longitude": 25.3246002197,
            "type": "OF"
        },
        {
            "country_code": "SK",
            "city": "Pie\u0161\u0165any",
            "latitude": 48.6251983643,
            "longitude": 17.8283996582,
            "type": "FP"
        }
    ]
}