{
    "target": "192.33.4.12",
    "probes_filepath": "datasets/probes_section/North-Central-section_1.json",
    "alpha": 0.0,
    "threshold": -1,
    "noise": 0,
    "results_filepath": "datasets/results/campaigns/192.33.4.12_North-Central-section_20230425_alpha_light-factor_0.18/192.33.4.12_North-Central-section_1_52641149_0.0_-1_0.json",
    "gt_filepath": "datasets/ground-truth/root_servers/root_servers_C.json",
    "statistics": {
        "TP": 3,
        "FP": 39,
        "TN": 0,
        "FN": 1,
        "accuracy": 0.06976744186046512,
        "precision": 0.07142857142857142,
        "recall": 0.75,
        "f1": 0.13043478260869565,
        "OT": 0,
        "OF": 3
    },
    "instances": [
        {
            "country_code": "AT",
            "city": "Vienna",
            "latitude": 48.1102981567,
            "longitude": 16.5697002411,
            "type": "TP"
        },
        {
            "country_code": "BY",
            "city": "Minsk",
            "latitude": 53.8824996948,
            "longitude": 28.0307006836,
            "type": "FP"
        },
        {
            "country_code": "BY",
            "city": "Mogilev",
            "latitude": 53.9548988342,
            "longitude": 30.0951004028,
            "type": "FP"
        },
        {
            "country_code": "DE",
            "city": "Augsburg",
            "latitude": 48.42527771,
            "longitude": 10.9316673279,
            "type": "FP"
        },
        {
            "country_code": "DE",
            "city": "Donaueschingen",
            "latitude": 47.9733314514,
            "longitude": 8.5222215653,
            "type": "FP"
        },
        {
            "country_code": "DE",
            "city": "Frankfurt-am-Main",
            "latitude": 50.0264015198,
            "longitude": 8.543129921,
            "type": "TP"
        },
        {
            "country_code": "DE",
            "city": "Magdeburg",
            "latitude": 52.0736122131,
            "longitude": 11.6263885498,
            "type": "FP"
        },
        {
            "country_code": "DE",
            "city": "Paderborn",
            "latitude": 51.6141014099,
            "longitude": 8.6163196564,
            "type": "FP"
        },
        {
            "country_code": "DE",
            "city": "Trier",
            "latitude": 49.9726982117,
            "longitude": 6.6925001144,
            "type": "FP"
        },
        {
            "country_code": "EE",
            "city": "P\u00e4rnu",
            "latitude": 58.4189987183,
            "longitude": 24.4727993011,
            "type": "FP"
        },
        {
            "country_code": "ES",
            "city": "Bilbao",
            "latitude": 43.3011016846,
            "longitude": -2.9106099606,
            "type": "FP"
        },
        {
            "country_code": "ES",
            "city": "Granada",
            "latitude": 37.1887016296,
            "longitude": -3.7773599625,
            "type": "FP"
        },
        {
            "country_code": "ES",
            "city": "Lleida",
            "latitude": 41.728185,
            "longitude": 0.535023,
            "type": "FP"
        },
        {
            "country_code": "ES",
            "city": "Madrid",
            "latitude": 40.4967002869,
            "longitude": -3.4458699226,
            "type": "TP"
        },
        {
            "country_code": "ES",
            "city": "Salamanca",
            "latitude": 40.9520988464,
            "longitude": -5.5019898415,
            "type": "FP"
        },
        {
            "country_code": "FR",
            "city": "Amiens/Glisy",
            "latitude": 49.8730010986,
            "longitude": 2.3870699406,
            "type": "FP"
        },
        {
            "country_code": "FR",
            "city": "Blois/Le Breuil",
            "latitude": 47.6785011292,
            "longitude": 1.2088400126,
            "type": "FP"
        },
        {
            "country_code": "FR",
            "city": "Le Havre/Octeville",
            "latitude": 49.5339012146,
            "longitude": 0.0880559981,
            "type": "FP"
        },
        {
            "country_code": "FR",
            "city": "Orange/Caritat",
            "latitude": 44.140499115,
            "longitude": 4.8667201996,
            "type": "FP"
        },
        {
            "country_code": "FR",
            "city": "Orl\u00e9ans/Bricy",
            "latitude": 47.9878005981,
            "longitude": 1.7605600357,
            "type": "FP"
        },
        {
            "country_code": "FR",
            "city": "Paris",
            "latitude": 48.856614,
            "longitude": 2.3522219,
            "type": "FN"
        },
        {
            "country_code": "GB",
            "city": "Mildenhall",
            "latitude": 52.3619003296,
            "longitude": 0.4864059985,
            "type": "FP"
        },
        {
            "country_code": "GB",
            "city": "Norwich",
            "latitude": 52.6758003235,
            "longitude": 1.2827800512,
            "type": "FP"
        },
        {
            "country_code": "GB",
            "city": "Stornoway",
            "latitude": 58.2155990601,
            "longitude": -6.3311100006,
            "type": "FP"
        },
        {
            "country_code": "GG",
            "city": "Saint Peter Port",
            "latitude": 49.4350013733,
            "longitude": -2.6019699574,
            "type": "FP"
        },
        {
            "country_code": "GR",
            "city": "Mytilene",
            "latitude": 39.0567016602,
            "longitude": 26.5983009338,
            "type": "FP"
        },
        {
            "country_code": "GR",
            "city": "Nea Anchialos",
            "latitude": 39.2196006775,
            "longitude": 22.7943000793,
            "type": "FP"
        },
        {
            "country_code": "HU",
            "city": "Budapest",
            "latitude": 47.4812134,
            "longitude": 19.1303031,
            "type": "FP"
        },
        {
            "country_code": "HU",
            "city": "P\u00e9cs-Pog\u00e1ny",
            "latitude": 45.9908981323,
            "longitude": 18.2409992218,
            "type": "FP"
        },
        {
            "country_code": "IQ",
            "city": "Basrah",
            "latitude": 30.5491008759,
            "longitude": 47.6621017456,
            "type": "OF"
        },
        {
            "country_code": "IT",
            "city": "Grottaglie",
            "latitude": 40.5175018311,
            "longitude": 17.4032001495,
            "type": "FP"
        },
        {
            "country_code": "IT",
            "city": "Padova",
            "latitude": 45.3958015442,
            "longitude": 11.8479003906,
            "type": "FP"
        },
        {
            "country_code": "LT",
            "city": "Kaunas",
            "latitude": 54.9639015198,
            "longitude": 24.0848007202,
            "type": "FP"
        },
        {
            "country_code": "MA",
            "city": "Casablanca",
            "latitude": 33.3675003052,
            "longitude": -7.5899701118,
            "type": "FP"
        },
        {
            "country_code": "MA",
            "city": "Nador",
            "latitude": 34.9888000488,
            "longitude": -3.0282099247,
            "type": "FP"
        },
        {
            "country_code": "MK",
            "city": "Ohrid",
            "latitude": 41.1800003052,
            "longitude": 20.7423000336,
            "type": "FP"
        },
        {
            "country_code": "MK",
            "city": "Skopje",
            "latitude": 41.9616012573,
            "longitude": 21.6214008331,
            "type": "FP"
        },
        {
            "country_code": "NO",
            "city": "Bergen",
            "latitude": 60.2933998108,
            "longitude": 5.2181401253,
            "type": "FP"
        },
        {
            "country_code": "PL",
            "city": "Poznan",
            "latitude": 52.4005285,
            "longitude": 16.9016658,
            "type": "FP"
        },
        {
            "country_code": "RO",
            "city": "Arad",
            "latitude": 46.1766014099,
            "longitude": 21.2619991302,
            "type": "FP"
        },
        {
            "country_code": "RU",
            "city": "Saratov",
            "latitude": 51.5649986267,
            "longitude": 46.0466995239,
            "type": "OF"
        },
        {
            "country_code": "RU",
            "city": "Uray",
            "latitude": 60.1032981873,
            "longitude": 64.8266983032,
            "type": "OF"
        },
        {
            "country_code": "SE",
            "city": "Norrk\u00f6ping",
            "latitude": 58.5862998962,
            "longitude": 16.2506008148,
            "type": "FP"
        },
        {
            "country_code": "SE",
            "city": "Skellefte\u00e5",
            "latitude": 64.6248016357,
            "longitude": 21.0769004822,
            "type": "FP"
        },
        {
            "country_code": "UA",
            "city": "Rivne",
            "latitude": 50.6071014404,
            "longitude": 26.1415996552,
            "type": "FP"
        },
        {
            "country_code": "UA",
            "city": "Uzhhorod",
            "latitude": 48.6343002319,
            "longitude": 22.2633991241,
            "type": "FP"
        }
    ]
}