{
    "target": "192.33.4.12",
    "measurement_filepath": "datasets/measurements/campaigns/192.33.4.12_North-Central-section_20230425/192.33.4.12_North-Central-section_1.5_52641500.json",
    "probes_filepath": "datasets/probes_section/North-Central-section_1.5.json",
    "alpha": 1,
    "threshold": 30.0,
    "noise": 0,
    "num_anycast_instances": 8,
    "anycast_instances": [
        {
            "marker": {
                "id": "ECV",
                "latitude": 40.3707008362,
                "longitude": -3.7851400375,
                "city": "Madrid",
                "country_code": "ES"
            },
            "circle": {
                "id": "7017",
                "latitude": 40.4405,
                "longitude": -3.6225,
                "radius": 36.943979215387294
            }
        },
        {
            "marker": {
                "id": "WIE",
                "latitude": 48.1102981567,
                "longitude": 16.5697002411,
                "city": "Vienna",
                "country_code": "AT"
            },
            "circle": {
                "id": "16135",
                "latitude": 48.2295,
                "longitude": 16.4085,
                "radius": 121.52267160504799
            }
        },
        {
            "marker": {
                "id": "MUC",
                "latitude": 48.3538017273,
                "longitude": 11.7861003876,
                "city": "Munich",
                "country_code": "DE"
            },
            "circle": {
                "id": "19810",
                "latitude": 48.7375,
                "longitude": 9.0975,
                "radius": 207.49013007195933
            }
        },
        {
            "marker": {
                "id": "PAR",
                "latitude": 49.0127983093,
                "longitude": 2.5499999523,
                "city": "Paris",
                "country_code": "FR"
            },
            "circle": {
                "id": "19856",
                "latitude": 47.0605,
                "longitude": 2.4095,
                "radius": 290.2886248667702
            }
        },
        {
            "marker": {
                "id": "BQH",
                "latitude": 51.3307991028,
                "longitude": 0.0324999988,
                "city": "London",
                "country_code": "GB"
            },
            "circle": {
                "id": "24889",
                "latitude": 55.5415,
                "longitude": -4.6585,
                "radius": 666.7309542649842
            }
        },
        {
            "marker": {
                "id": "BNX",
                "latitude": 50.4592018127,
                "longitude": 4.4538202286,
                "city": "Brussels",
                "country_code": "BE"
            },
            "circle": {
                "id": "13430",
                "latitude": 51.1275,
                "longitude": 6.9585,
                "radius": 304.2524629028545
            }
        },
        {
            "marker": {
                "id": "IST",
                "latitude": 40.9768981934,
                "longitude": 28.8145999908,
                "city": "Istanbul",
                "country_code": "TR"
            },
            "circle": {
                "id": "11518",
                "latitude": 42.1715,
                "longitude": 26.5675,
                "radius": 817.8825416984248
            }
        },
        {
            "marker": {
                "id": "LED",
                "latitude": 59.8003005981,
                "longitude": 30.2625007629,
                "city": "St Petersburg",
                "country_code": "RU"
            },
            "circle": {
                "id": "22557",
                "latitude": 60.1305,
                "longitude": 18.6395,
                "radius": 1061.2795489565665
            }
        }
    ]
}