{
    "target": "192.203.230.10",
    "measurement_filepath": "datasets/measurements/campaigns/192.203.230.10_North-Central-section_20230425/192.203.230.10_North-Central-section_1_52647956.json",
    "probes_filepath": "datasets/probes_section/North-Central-section_1.json",
    "alpha": 1,
    "threshold": 10.0,
    "noise": 0,
    "num_anycast_instances": 42,
    "anycast_instances": [
        {
            "marker": {
                "id": "SDV",
                "latitude": 32.1147003174,
                "longitude": 34.7821998596,
                "city": "Tel Aviv",
                "country_code": "IL"
            },
            "circle": {
                "id": "6664",
                "latitude": 32.0795,
                "longitude": 34.8605,
                "radius": 21.5093893596008
            }
        },
        {
            "marker": {
                "id": "WIE",
                "latitude": 48.1102981567,
                "longitude": 16.5697002411,
                "city": "Vienna",
                "country_code": "AT"
            },
            "circle": {
                "id": "11237",
                "latitude": 48.2105,
                "longitude": 16.3785,
                "radius": 32.055668322599594
            }
        },
        {
            "marker": {
                "id": "VAR",
                "latitude": 43.2321014404,
                "longitude": 27.8250999451,
                "city": "Varna",
                "country_code": "BG"
            },
            "circle": {
                "id": "1003038",
                "latitude": 43.2215,
                "longitude": 27.9285,
                "radius": 32.6619685896588
            }
        },
        {
            "marker": {
                "id": "LIS",
                "latitude": 38.7812995911,
                "longitude": -9.1359195709,
                "city": "Lisbon",
                "country_code": "PT"
            },
            "circle": {
                "id": "6328",
                "latitude": 38.7915,
                "longitude": -9.1215,
                "radius": 34.7219025270684
            }
        },
        {
            "marker": {
                "id": "MRS",
                "latitude": 43.439271922,
                "longitude": 5.2214241028,
                "city": "Marseille",
                "country_code": "FR"
            },
            "circle": {
                "id": "25605",
                "latitude": 43.2995,
                "longitude": 5.3675,
                "radius": 36.87153436791161
            }
        },
        {
            "marker": {
                "id": "EBL",
                "latitude": 36.2375984192,
                "longitude": 43.9631996155,
                "city": "Arbil",
                "country_code": "IQ"
            },
            "circle": {
                "id": "7020",
                "latitude": 36.2375,
                "longitude": 44.0085,
                "radius": 40.0456169962324
            }
        },
        {
            "marker": {
                "id": "VNO",
                "latitude": 54.6341018677,
                "longitude": 25.2858009338,
                "city": "Vilnius",
                "country_code": "LT"
            },
            "circle": {
                "id": "1002101",
                "latitude": 54.6375,
                "longitude": 25.3075,
                "radius": 42.5514622356712
            }
        },
        {
            "marker": {
                "id": "BIX",
                "latitude": 47.4812134,
                "longitude": 19.1303031,
                "city": "Budapest",
                "country_code": "HU"
            },
            "circle": {
                "id": "1002503",
                "latitude": 47.4885,
                "longitude": 19.0975,
                "radius": 44.0144494307112
            }
        },
        {
            "marker": {
                "id": "JAM",
                "latitude": 42.4548988342,
                "longitude": 26.3521995544,
                "city": "Yambol",
                "country_code": "BG"
            },
            "circle": {
                "id": "11518",
                "latitude": 42.1715,
                "longitude": 26.5675,
                "radius": 47.1554349716688
            }
        },
        {
            "marker": {
                "id": "DEX",
                "latitude": 50.121212,
                "longitude": 8.6365638,
                "city": "Frankfurt-am-Main",
                "country_code": "DE"
            },
            "circle": {
                "id": "6979",
                "latitude": 50.1215,
                "longitude": 8.7405,
                "radius": 47.8092223640752
            }
        },
        {
            "marker": {
                "id": "LED",
                "latitude": 59.8003005981,
                "longitude": 30.2625007629,
                "city": "St Petersburg",
                "country_code": "RU"
            },
            "circle": {
                "id": "7072",
                "latitude": 59.8885,
                "longitude": 30.3305,
                "radius": 49.0555795289644
            }
        },
        {
            "marker": {
                "id": "BCN",
                "latitude": 41.2971000671,
                "longitude": 2.0784599781,
                "city": "Barcelona",
                "country_code": "ES"
            },
            "circle": {
                "id": "1004167",
                "latitude": 41.4005,
                "longitude": 2.1905,
                "radius": 51.8934149363924
            }
        },
        {
            "marker": {
                "id": "TRN",
                "latitude": 45.2008018494,
                "longitude": 7.6496300697,
                "city": "Torino",
                "country_code": "IT"
            },
            "circle": {
                "id": "6767",
                "latitude": 45.0405,
                "longitude": 7.6505,
                "radius": 52.61747368095401
            }
        },
        {
            "marker": {
                "id": "LIN",
                "latitude": 45.445098877,
                "longitude": 9.2767400742,
                "city": "Milan",
                "country_code": "IT"
            },
            "circle": {
                "id": "27265",
                "latitude": 45.3295,
                "longitude": 9.2105,
                "radius": 53.0597874734872
            }
        },
        {
            "marker": {
                "id": "BEG",
                "latitude": 44.8184013367,
                "longitude": 20.3090991974,
                "city": "Belgrade",
                "country_code": "RS"
            },
            "circle": {
                "id": "32505",
                "latitude": 44.8095,
                "longitude": 20.4675,
                "radius": 60.475933382507996
            }
        },
        {
            "marker": {
                "id": "SOF",
                "latitude": 42.6966934204,
                "longitude": 23.4114360809,
                "city": "Sofia",
                "country_code": "BG"
            },
            "circle": {
                "id": "16565",
                "latitude": 42.6595,
                "longitude": 23.3505,
                "radius": 71.44977634910641
            }
        },
        {
            "marker": {
                "id": "PRG",
                "latitude": 50.1007995605,
                "longitude": 14.2600002289,
                "city": "Prague",
                "country_code": "CZ"
            },
            "circle": {
                "id": "1254",
                "latitude": 50.0795,
                "longitude": 14.5295,
                "radius": 76.0255086355604
            }
        },
        {
            "marker": {
                "id": "ATH",
                "latitude": 37.9364013672,
                "longitude": 23.9444999695,
                "city": "Athens",
                "country_code": "GR"
            },
            "circle": {
                "id": "6741",
                "latitude": 38.0775,
                "longitude": 23.6995,
                "radius": 83.0671538060476
            }
        },
        {
            "marker": {
                "id": "CPH",
                "latitude": 55.6179008484,
                "longitude": 12.6560001373,
                "city": "Copenhagen",
                "country_code": "DK"
            },
            "circle": {
                "id": "6350",
                "latitude": 55.5975,
                "longitude": 13.0395,
                "radius": 88.7735233686028
            }
        },
        {
            "marker": {
                "id": "ZRH",
                "latitude": 47.4646987915,
                "longitude": 8.5491695404,
                "city": "Zurich",
                "country_code": "CH"
            },
            "circle": {
                "id": "13855",
                "latitude": 47.4095,
                "longitude": 8.5495,
                "radius": 92.0288497530416
            }
        },
        {
            "marker": {
                "id": "GML",
                "latitude": 50.6035003662,
                "longitude": 30.1919002533,
                "city": "Kiev",
                "country_code": "UA"
            },
            "circle": {
                "id": "2496",
                "latitude": 50.4305,
                "longitude": 30.3815,
                "radius": 93.1553498932224
            }
        },
        {
            "marker": {
                "id": "FICIX",
                "latitude": 60.1733244,
                "longitude": 24.9410248,
                "city": "Helsinki",
                "country_code": "FI"
            },
            "circle": {
                "id": "751",
                "latitude": 59.4275,
                "longitude": 24.7195,
                "radius": 108.94991554295241
            }
        },
        {
            "marker": {
                "id": "KEF",
                "latitude": 63.9850006104,
                "longitude": -22.6056003571,
                "city": "Reykjav\u00edk",
                "country_code": "IS"
            },
            "circle": {
                "id": "1000959",
                "latitude": 64.0715,
                "longitude": -22.0205,
                "radius": 115.15843747265761
            }
        },
        {
            "marker": {
                "id": "IST",
                "latitude": 40.9768981934,
                "longitude": 28.8145999908,
                "city": "Istanbul",
                "country_code": "TR"
            },
            "circle": {
                "id": "6429",
                "latitude": 40.9815,
                "longitude": 29.0985,
                "radius": 117.8839706253188
            }
        },
        {
            "marker": {
                "id": "WAW",
                "latitude": 52.1656990051,
                "longitude": 20.9671001434,
                "city": "Warsaw",
                "country_code": "PL"
            },
            "circle": {
                "id": "26918",
                "latitude": 52.2315,
                "longitude": 21.0275,
                "radius": 118.6333318533356
            }
        },
        {
            "marker": {
                "id": "ARN",
                "latitude": 59.6519012451,
                "longitude": 17.9186000824,
                "city": "Stockholm",
                "country_code": "SE"
            },
            "circle": {
                "id": "28417",
                "latitude": 59.3105,
                "longitude": 18.0075,
                "radius": 120.14260700389083
            }
        },
        {
            "marker": {
                "id": "NIX",
                "latitude": 60.193901062,
                "longitude": 11.100399971,
                "city": "Oslo",
                "country_code": "NO"
            },
            "circle": {
                "id": "50943",
                "latitude": 59.9885,
                "longitude": 11.2395,
                "radius": 142.94853878585
            }
        },
        {
            "marker": {
                "id": "PAR",
                "latitude": 49.0127983093,
                "longitude": 2.5499999523,
                "city": "Paris",
                "country_code": "FR"
            },
            "circle": {
                "id": "31833",
                "latitude": 48.7885,
                "longitude": 1.9785,
                "radius": 144.0411623782768
            }
        },
        {
            "marker": {
                "id": "TUN",
                "latitude": 36.8510017395,
                "longitude": 10.2271995544,
                "city": "Tunis",
                "country_code": "TN"
            },
            "circle": {
                "id": "567",
                "latitude": 36.8205,
                "longitude": 10.1805,
                "radius": 146.2028458759316
            }
        },
        {
            "marker": {
                "id": "BHX",
                "latitude": 52.4538993835,
                "longitude": -1.7480299473,
                "city": "Birmingham",
                "country_code": "GB"
            },
            "circle": {
                "id": "53786",
                "latitude": 53.6505,
                "longitude": -1.7785,
                "radius": 149.4015714443
            }
        },
        {
            "marker": {
                "id": "BEY",
                "latitude": 33.8208999634,
                "longitude": 35.4883995056,
                "city": "Beirut",
                "country_code": "LB"
            },
            "circle": {
                "id": "51729",
                "latitude": 33.8815,
                "longitude": 35.4885,
                "radius": 156.7464866653
            }
        },
        {
            "marker": {
                "id": "DUB",
                "latitude": 53.4212989807,
                "longitude": -6.270070076,
                "city": "Dublin",
                "country_code": "IE"
            },
            "circle": {
                "id": "10633",
                "latitude": 52.8285,
                "longitude": -6.9015,
                "radius": 159.0278473121884
            }
        },
        {
            "marker": {
                "id": "BBU",
                "latitude": 44.503200531,
                "longitude": 26.1021003723,
                "city": "Bucharest",
                "country_code": "RO"
            },
            "circle": {
                "id": "33768",
                "latitude": 44.4615,
                "longitude": 26.0705,
                "radius": 163.58625159457
            }
        },
        {
            "marker": {
                "id": "HAM",
                "latitude": 53.6304016113,
                "longitude": 9.9882297516,
                "city": "Hamburg",
                "country_code": "DE"
            },
            "circle": {
                "id": "29741",
                "latitude": 53.5975,
                "longitude": 11.4195,
                "radius": 168.21672598385481
            }
        },
        {
            "marker": {
                "id": "CKL",
                "latitude": 55.8782997131,
                "longitude": 38.0616989136,
                "city": "Moscow",
                "country_code": "RU"
            },
            "circle": {
                "id": "3812",
                "latitude": 55.9085,
                "longitude": 37.8675,
                "radius": 170.6083502967956
            }
        },
        {
            "marker": {
                "id": "CIA",
                "latitude": 41.7994003296,
                "longitude": 12.5949001312,
                "city": "Rome",
                "country_code": "IT"
            },
            "circle": {
                "id": "376",
                "latitude": 41.9105,
                "longitude": 12.5205,
                "radius": 170.7925427829908
            }
        },
        {
            "marker": {
                "id": "BRU",
                "latitude": 50.9014015198,
                "longitude": 4.4844398499,
                "city": "Brussels",
                "country_code": "BE"
            },
            "circle": {
                "id": "15",
                "latitude": 52.3795,
                "longitude": 4.8975,
                "radius": 184.10044991059402
            }
        },
        {
            "marker": {
                "id": "EVN",
                "latitude": 40.1473007202,
                "longitude": 44.3959007263,
                "city": "Yerevan",
                "country_code": "AM"
            },
            "circle": {
                "id": "10729",
                "latitude": 40.2015,
                "longitude": 44.5085,
                "radius": 248.15230773212596
            }
        },
        {
            "marker": {
                "id": "GOT",
                "latitude": 57.6627998352,
                "longitude": 12.279800415,
                "city": "Gothenburg",
                "country_code": "SE"
            },
            "circle": {
                "id": "21552",
                "latitude": 58.1585,
                "longitude": 8.0195,
                "radius": 271.4576337906216
            }
        },
        {
            "marker": {
                "id": "ECV",
                "latitude": 40.3707008362,
                "longitude": -3.7851400375,
                "city": "Madrid",
                "country_code": "ES"
            },
            "circle": {
                "id": "60374",
                "latitude": 40.0995,
                "longitude": -4.0495,
                "radius": 286.67617821155045
            }
        },
        {
            "marker": {
                "id": "UME",
                "latitude": 63.7918014526,
                "longitude": 20.2828006744,
                "city": "Ume\u00e5",
                "country_code": "SE"
            },
            "circle": {
                "id": "10638",
                "latitude": 64.2315,
                "longitude": 27.7285,
                "radius": 397.0998135195393
            }
        },
        {
            "marker": {
                "id": "TKU",
                "latitude": 60.5140991211,
                "longitude": 22.2628002167,
                "city": "Turku",
                "country_code": "FI"
            },
            "circle": {
                "id": "1003447",
                "latitude": 61.5105,
                "longitude": 21.7995,
                "radius": 201.271062942544
            }
        }
    ]
}