{
    "target": "192.36.148.17",
    "probes_filepath": "datasets/probes_sets/North-Central_500.json",
    "alpha": 0.2,
    "threshold": -1,
    "noise": 0,
    "results_filepath": "datasets/results/campaigns/192.36.148.17_North-Central_20230410_alpha_light-factor_0.30/192.36.148.17_North-Central_500_52072218_0.2_-1_0.json",
    "gt_filepath": "datasets/ground-truth/root_servers/root_servers_I.json",
    "statistics": {
        "TP": 18,
        "FP": 11,
        "TN": 0,
        "FN": 6,
        "accuracy": 0.5142857142857142,
        "precision": 0.6206896551724138,
        "recall": 0.75,
        "f1": 0.679245283018868,
        "OT": 1,
        "OF": 0
    },
    "instances": [
        {
            "country_code": "AT",
            "city": "Klagenfurt am W\u00f6rthersee",
            "latitude": 46.6425018311,
            "longitude": 14.3376998901,
            "type": "TP"
        },
        {
            "country_code": "AT",
            "city": "Vienna",
            "latitude": 48.1102981567,
            "longitude": 16.5697002411,
            "type": "TP"
        },
        {
            "country_code": "BE",
            "city": "Brussels",
            "latitude": 50.4592018127,
            "longitude": 4.4538202286,
            "type": "TP"
        },
        {
            "country_code": "BG",
            "city": "Burgas",
            "latitude": 42.5695991516,
            "longitude": 27.5151996613,
            "type": "FP"
        },
        {
            "country_code": "BG",
            "city": "Sofia",
            "latitude": 42.6966934204,
            "longitude": 23.4114360809,
            "type": "TP"
        },
        {
            "country_code": "BG",
            "city": "Varna",
            "latitude": 43.2321014404,
            "longitude": 27.8250999451,
            "type": "FP"
        },
        {
            "country_code": "DE",
            "city": "Berlin",
            "latitude": 52.5597000122,
            "longitude": 13.2876996994,
            "type": "TP"
        },
        {
            "country_code": "DE",
            "city": "Egelsbach",
            "latitude": 49.9599990845,
            "longitude": 8.6458330154,
            "type": "TP"
        },
        {
            "country_code": "DE",
            "city": "Hamburg",
            "latitude": 53.6304016113,
            "longitude": 9.9882297516,
            "type": "FP"
        },
        {
            "country_code": "DE",
            "city": "Munich",
            "latitude": 48.3538017273,
            "longitude": 11.7861003876,
            "type": "FP"
        },
        {
            "country_code": "DE",
            "city": "Saarbr\u00fccken",
            "latitude": 49.2145996094,
            "longitude": 7.1095099449,
            "type": "TP"
        },
        {
            "country_code": "EE",
            "city": "Tallinn",
            "latitude": 59.4132995605,
            "longitude": 24.8327999115,
            "type": "TP"
        },
        {
            "country_code": "FI",
            "city": "Helsinki",
            "latitude": 60.172566,
            "longitude": 24.940254,
            "type": "FN"
        },
        {
            "country_code": "FR",
            "city": "Creil",
            "latitude": 49.2535018921,
            "longitude": 2.5191400051,
            "type": "TP"
        },
        {
            "country_code": "FR",
            "city": "Rouen/Vall\u00e9e de Seine",
            "latitude": 49.3842010498,
            "longitude": 1.1748000383,
            "type": "FP"
        },
        {
            "country_code": "GB",
            "city": "St. Ives",
            "latitude": 52.3572006226,
            "longitude": -0.107832998,
            "type": "TP"
        },
        {
            "country_code": "IS",
            "city": "Reykjavik",
            "latitude": 64.147725,
            "longitude": -21.947503,
            "type": "FN"
        },
        {
            "country_code": "IT",
            "city": "Milan",
            "latitude": 45.6305999756,
            "longitude": 8.7281103134,
            "type": "TP"
        },
        {
            "country_code": "IT",
            "city": "Milan",
            "latitude": 45.445098877,
            "longitude": 9.2767400742,
            "type": "FP"
        },
        {
            "country_code": "IT",
            "city": "Rome",
            "latitude": 41.8045005798,
            "longitude": 12.2508001328,
            "type": "FP"
        },
        {
            "country_code": "IT",
            "city": "Verona",
            "latitude": 45.3956985474,
            "longitude": 10.8885002136,
            "type": "FP"
        },
        {
            "country_code": "LT",
            "city": "Panev\u0117\u017eys",
            "latitude": 55.7294006348,
            "longitude": 24.4608001709,
            "type": "FP"
        },
        {
            "country_code": "LT",
            "city": "Vilnius",
            "latitude": 54.755187,
            "longitude": 25.296416,
            "type": "FN"
        },
        {
            "country_code": "LV",
            "city": "Riga",
            "latitude": 56.9235992432,
            "longitude": 23.9710998535,
            "type": "TP"
        },
        {
            "country_code": "MA",
            "city": "Casablanca",
            "latitude": 33.3675003052,
            "longitude": -7.5899701118,
            "type": "OT"
        },
        {
            "country_code": "NL",
            "city": "Amsterdam",
            "latitude": 52.3086013794,
            "longitude": 4.7638897896,
            "type": "TP"
        },
        {
            "country_code": "NO",
            "city": "Rygge",
            "latitude": 59.3788986206,
            "longitude": 10.7855997086,
            "type": "TP"
        },
        {
            "country_code": "RO",
            "city": "Bucharest",
            "latitude": 44.503200531,
            "longitude": 26.1021003723,
            "type": "TP"
        },
        {
            "country_code": "RS",
            "city": "Belgrade",
            "latitude": 44.8184013367,
            "longitude": 20.3090991974,
            "type": "TP"
        },
        {
            "country_code": "RU",
            "city": "Archangelsk",
            "latitude": 64.6003036499,
            "longitude": 40.7167015076,
            "type": "FP"
        },
        {
            "country_code": "SE",
            "city": "Gothenburg",
            "latitude": 57.717614,
            "longitude": 11.98341,
            "type": "FN"
        },
        {
            "country_code": "SE",
            "city": "Halmstad",
            "latitude": 56.6911010742,
            "longitude": 12.8201999664,
            "type": "FP"
        },
        {
            "country_code": "SE",
            "city": "Malm\u00f6",
            "latitude": 55.566894,
            "longitude": 13.018172,
            "type": "FN"
        },
        {
            "country_code": "SE",
            "city": "Stockholm",
            "latitude": 59.6519012451,
            "longitude": 17.9186000824,
            "type": "TP"
        },
        {
            "country_code": "SE",
            "city": "Sundsvall",
            "latitude": 62.387574,
            "longitude": 17.27741,
            "type": "FN"
        },
        {
            "country_code": "SK",
            "city": "Bratislava",
            "latitude": 48.1702003479,
            "longitude": 17.2126998901,
            "type": "TP"
        }
    ]
}