{
    "target": "192.5.5.241",
    "measurement_filepath": "datasets/measurements/192.5.5.241_None_52389532.json",
    "probes_filepath": null,
    "alpha": 1,
    "threshold": -1,
    "noise": 0,
    "num_anycast_instances": 5,
    "anycast_instances": [
        {
            "marker": {
                "id": "PRG",
                "latitude": 50.1007995605,
                "longitude": 14.2600002289,
                "city": "Prague",
                "country_code": "CZ"
            },
            "circle": {
                "id": "7129",
                "latitude": 50.0715,
                "longitude": 14.5285,
                "radius": 82.58591906319079
            }
        },
        {
            "marker": {
                "id": "ZAG",
                "latitude": 45.7429008484,
                "longitude": 16.0687999725,
                "city": "Zagreb",
                "country_code": "HR"
            },
            "circle": {
                "id": "60008",
                "latitude": 45.7915,
                "longitude": 15.9675,
                "radius": 208.83286222835656
            }
        },
        {
            "marker": {
                "id": "CPH",
                "latitude": 55.6179008484,
                "longitude": 12.6560001373,
                "city": "Copenhagen",
                "country_code": "DK"
            },
            "circle": {
                "id": "10784",
                "latitude": 55.7795,
                "longitude": 12.5215,
                "radius": 225.31720693293093
            }
        },
        {
            "marker": {
                "id": "BQH",
                "latitude": 51.3307991028,
                "longitude": 0.0324999988,
                "city": "London",
                "country_code": "GB"
            },
            "circle": {
                "id": "752",
                "latitude": 51.5085,
                "longitude": -0.0005,
                "radius": 277.4248835390559
            }
        },
        {
            "marker": {
                "id": "DUB",
                "latitude": 53.4212989807,
                "longitude": -6.270070076,
                "city": "Dublin",
                "country_code": "IE"
            },
            "circle": {
                "id": "10612",
                "latitude": 53.8585,
                "longitude": -9.2825,
                "radius": 398.2051506789677
            }
        }
    ]
}