{
    "target": "199.7.91.13",
    "measurement_filepath": "datasets/measurements/199.7.91.13_North-Central-section_1.5_54847067.json",
    "probes_filepath": "datasets/probes_sets/North-Central-section_1.5.json",
    "alpha": 1,
    "threshold": -1,
    "noise": 0,
    "ping_radius_function": "constant_1.52",
    "num_anycast_instances": 17,
    "anycast_instances": [
        {
            "marker": {
                "id": "TRN",
                "latitude": 45.2008018494,
                "longitude": 7.6496300697,
                "city": "Torino",
                "country_code": "IT"
            },
            "circle": {
                "id": "6316",
                "latitude": 45.0905,
                "longitude": 7.6575,
                "radius": 66.34860728864605
            }
        },
        {
            "marker": {
                "id": "WAW",
                "latitude": 52.1656990051,
                "longitude": 20.9671001434,
                "city": "Warsaw",
                "country_code": "PL"
            },
            "circle": {
                "id": "6669",
                "latitude": 52.2315,
                "longitude": 21.0005,
                "radius": 103.37475093856843
            }
        },
        {
            "marker": {
                "id": "SOF",
                "latitude": 42.6966934204,
                "longitude": 23.4114360809,
                "city": "Sofia",
                "country_code": "BG"
            },
            "circle": {
                "id": "2309",
                "latitude": 42.7015,
                "longitude": 23.3275,
                "radius": 139.05330776659278
            }
        },
        {
            "marker": {
                "id": "SXF",
                "latitude": 52.3800010681,
                "longitude": 13.5225000381,
                "city": "Berlin",
                "country_code": "DE"
            },
            "circle": {
                "id": "28272",
                "latitude": 52.5285,
                "longitude": 13.3805,
                "radius": 146.28728005494474
            }
        },
        {
            "marker": {
                "id": "RIX",
                "latitude": 56.9235992432,
                "longitude": 23.9710998535,
                "city": "Riga",
                "country_code": "LV"
            },
            "circle": {
                "id": "52806",
                "latitude": 56.9805,
                "longitude": 24.1675,
                "radius": 160.00031960994144
            }
        },
        {
            "marker": {
                "id": "TIA",
                "latitude": 41.4146995544,
                "longitude": 19.7206001282,
                "city": "Tirana",
                "country_code": "AL"
            },
            "circle": {
                "id": "16235",
                "latitude": 41.3295,
                "longitude": 19.8185,
                "radius": 163.5271214768671
            }
        },
        {
            "marker": {
                "id": "TUN",
                "latitude": 36.8510017395,
                "longitude": 10.2271995544,
                "city": "Tunis",
                "country_code": "TN"
            },
            "circle": {
                "id": "567",
                "latitude": 36.8205,
                "longitude": 10.1805,
                "radius": 168.7422282388454
            }
        },
        {
            "marker": {
                "id": "ECV",
                "latitude": 40.3707008362,
                "longitude": -3.7851400375,
                "city": "Madrid",
                "country_code": "ES"
            },
            "circle": {
                "id": "7086",
                "latitude": 40.5105,
                "longitude": -3.3385,
                "radius": 169.63588588831777
            }
        },
        {
            "marker": {
                "id": "KEF",
                "latitude": 63.9850006104,
                "longitude": -22.6056003571,
                "city": "Reykjav\u00edk",
                "country_code": "IS"
            },
            "circle": {
                "id": "54607",
                "latitude": 64.0505,
                "longitude": -21.9925,
                "radius": 174.4351292307612
            }
        },
        {
            "marker": {
                "id": "FICIX",
                "latitude": 60.1733244,
                "longitude": 24.9410248,
                "city": "Helsinki",
                "country_code": "FI"
            },
            "circle": {
                "id": "62730",
                "latitude": 61.5075,
                "longitude": 23.8485,
                "radius": 230.55420643361842
            }
        },
        {
            "marker": {
                "id": "PAR",
                "latitude": 49.0127983093,
                "longitude": 2.5499999523,
                "city": "Paris",
                "country_code": "FR"
            },
            "circle": {
                "id": "11118",
                "latitude": 49.6315,
                "longitude": 6.0175,
                "radius": 281.1675556989296
            }
        },
        {
            "marker": {
                "id": "NIX",
                "latitude": 60.193901062,
                "longitude": 11.100399971,
                "city": "Oslo",
                "country_code": "NO"
            },
            "circle": {
                "id": "20299",
                "latitude": 59.2015,
                "longitude": 9.6315,
                "radius": 334.58593676534343
            }
        },
        {
            "marker": {
                "id": "CIA",
                "latitude": 41.7994003296,
                "longitude": 12.5949001312,
                "city": "Rome",
                "country_code": "IT"
            },
            "circle": {
                "id": "23054",
                "latitude": 43.4595,
                "longitude": 11.8395,
                "radius": 361.5878687168309
            }
        },
        {
            "marker": {
                "id": "DUB",
                "latitude": 53.4212989807,
                "longitude": -6.270070076,
                "city": "Dublin",
                "country_code": "IE"
            },
            "circle": {
                "id": "1002711",
                "latitude": 55.3775,
                "longitude": -3.4425,
                "radius": 371.75467906469606
            }
        },
        {
            "marker": {
                "id": "SVQ",
                "latitude": 37.4179992676,
                "longitude": -5.8931097984,
                "city": "Sevilla",
                "country_code": "ES"
            },
            "circle": {
                "id": "16018",
                "latitude": 38.7315,
                "longitude": -9.1425,
                "radius": 405.7141628243467
            }
        },
        {
            "marker": {
                "id": "BQH",
                "latitude": 51.3307991028,
                "longitude": 0.0324999988,
                "city": "London",
                "country_code": "GB"
            },
            "circle": {
                "id": "52533",
                "latitude": 52.9685,
                "longitude": 5.7885,
                "radius": 449.4338634107
            }
        },
        {
            "marker": {
                "id": "IKA",
                "latitude": 35.4160995483,
                "longitude": 51.1521987915,
                "city": "Tehran",
                "country_code": "IR"
            },
            "circle": {
                "id": "10718",
                "latitude": 38.8715,
                "longitude": 46.1975,
                "radius": 763.6631033503223
            }
        }
    ]
}