{
    "target": "192.36.148.17",
    "probes_filepath": "datasets/probes_sets/North-Central_100.json",
    "alpha": 1,
    "threshold": 30.0,
    "noise": 0,
    "results_filepath": "datasets/results/campaigns/192.36.148.17_North-Central_20230410_threshold_light-factor_0.40/192.36.148.17_North-Central_100_52072179_1_30.0_0.json",
    "gt_filepath": "datasets/ground-truth/root_servers/root_servers_I.json",
    "statistics": {
        "TP": 9,
        "FP": 2,
        "TN": 0,
        "FN": 15,
        "accuracy": 0.34615384615384615,
        "precision": 0.8181818181818182,
        "recall": 0.375,
        "f1": 0.5142857142857142,
        "OT": 0,
        "OF": 0
    },
    "instances": [
        {
            "country_code": "AT",
            "city": "Vienna",
            "latitude": 48.208884,
            "longitude": 16.365399,
            "type": "FN"
        },
        {
            "country_code": "BE",
            "city": "Brussels",
            "latitude": 50.4592018127,
            "longitude": 4.4538202286,
            "type": "TP"
        },
        {
            "country_code": "BG",
            "city": "Sofia",
            "latitude": 42.691467,
            "longitude": 23.335126,
            "type": "FN"
        },
        {
            "country_code": "DE",
            "city": "Berlin",
            "latitude": 52.514029,
            "longitude": 13.41072,
            "type": "FN"
        },
        {
            "country_code": "DE",
            "city": "Frankfurt-am-Main",
            "latitude": 50.121212,
            "longitude": 8.6365638,
            "type": "TP"
        },
        {
            "country_code": "DK",
            "city": "Copenhagen",
            "latitude": 55.6179008484,
            "longitude": 12.6560001373,
            "type": "TP"
        },
        {
            "country_code": "EE",
            "city": "Tallinn",
            "latitude": 59.442733,
            "longitude": 24.762087,
            "type": "FN"
        },
        {
            "country_code": "FI",
            "city": "Helsinki",
            "latitude": 60.1733244,
            "longitude": 24.9410248,
            "type": "TP"
        },
        {
            "country_code": "FR",
            "city": "Paris",
            "latitude": 48.855725,
            "longitude": 2.349194,
            "type": "FN"
        },
        {
            "country_code": "GB",
            "city": "London",
            "latitude": 51.3307991028,
            "longitude": 0.0324999988,
            "type": "TP"
        },
        {
            "country_code": "HU",
            "city": "Budapest",
            "latitude": 47.4812134,
            "longitude": 19.1303031,
            "type": "FP"
        },
        {
            "country_code": "IS",
            "city": "Reykjavik",
            "latitude": 64.147725,
            "longitude": -21.947503,
            "type": "FN"
        },
        {
            "country_code": "IT",
            "city": "Milan",
            "latitude": 45.445098877,
            "longitude": 9.2767400742,
            "type": "TP"
        },
        {
            "country_code": "LT",
            "city": "Vilnius",
            "latitude": 54.755187,
            "longitude": 25.296416,
            "type": "FN"
        },
        {
            "country_code": "LU",
            "city": "Luxembourg",
            "latitude": 49.617173,
            "longitude": 6.136898,
            "type": "FN"
        },
        {
            "country_code": "LV",
            "city": "Riga",
            "latitude": 56.9235992432,
            "longitude": 23.9710998535,
            "type": "TP"
        },
        {
            "country_code": "NL",
            "city": "Amsterdam",
            "latitude": 52.376051,
            "longitude": 4.902197,
            "type": "FN"
        },
        {
            "country_code": "NO",
            "city": "Oslo",
            "latitude": 59.923284,
            "longitude": 10.742755,
            "type": "FN"
        },
        {
            "country_code": "RO",
            "city": "Bucharest",
            "latitude": 44.432301,
            "longitude": 26.110193,
            "type": "FN"
        },
        {
            "country_code": "RS",
            "city": "Belgrade",
            "latitude": 44.8184013367,
            "longitude": 20.3090991974,
            "type": "TP"
        },
        {
            "country_code": "RU",
            "city": "Moscow",
            "latitude": 55.8782997131,
            "longitude": 38.0616989136,
            "type": "FP"
        },
        {
            "country_code": "SE",
            "city": "Gothenburg",
            "latitude": 57.717614,
            "longitude": 11.98341,
            "type": "FN"
        },
        {
            "country_code": "SE",
            "city": "Stockholm",
            "latitude": 59.6519012451,
            "longitude": 17.9186000824,
            "type": "TP"
        },
        {
            "country_code": "SE",
            "city": "Sundsvall",
            "latitude": 62.387574,
            "longitude": 17.27741,
            "type": "FN"
        },
        {
            "country_code": "SI",
            "city": "Ljubljana",
            "latitude": 46.065823,
            "longitude": 14.50024,
            "type": "FN"
        },
        {
            "country_code": "SK",
            "city": "Bratislava",
            "latitude": 48.155683,
            "longitude": 17.104361,
            "type": "FN"
        }
    ]
}