{
    "target": "192.58.128.30",
    "probes_filepath": "datasets/probes_section/North-Central-section_1.json",
    "alpha": 1,
    "threshold": 10.0,
    "noise": 0,
    "results_filepath": "datasets/results/campaigns/192.58.128.30_North-Central-section_20230425_threshold_light-factor_0.18/192.58.128.30_North-Central-section_1_52653770_1_10.0_0.json",
    "gt_filepath": "datasets/ground-truth/root_servers/root_servers_J.json",
    "statistics": {
        "TP": 23,
        "FP": 52,
        "TN": 0,
        "FN": 16,
        "accuracy": 0.25274725274725274,
        "precision": 0.30666666666666664,
        "recall": 0.5897435897435898,
        "f1": 0.40350877192982454,
        "OT": 0,
        "OF": 0
    },
    "instances": [
        {
            "country_code": "AT",
            "city": "Klagenfurt am W\u00f6rthersee",
            "latitude": 46.6425018311,
            "longitude": 14.3376998901,
            "type": "TP"
        },
        {
            "country_code": "AT",
            "city": "Vienna",
            "latitude": 48.1102981567,
            "longitude": 16.5697002411,
            "type": "TP"
        },
        {
            "country_code": "BA",
            "city": "Sarajevo",
            "latitude": 43.8246002197,
            "longitude": 18.3314990997,
            "type": "FP"
        },
        {
            "country_code": "BG",
            "city": "Plovdiv",
            "latitude": 42.0677986145,
            "longitude": 24.8507995605,
            "type": "FP"
        },
        {
            "country_code": "BG",
            "city": "Sofia",
            "latitude": 42.6977082,
            "longitude": 23.3218675,
            "type": "FN"
        },
        {
            "country_code": "CH",
            "city": "Geneva",
            "latitude": 46.2043907,
            "longitude": 6.1431577,
            "type": "FN"
        },
        {
            "country_code": "CH",
            "city": "Zurich",
            "latitude": 47.4646987915,
            "longitude": 8.5491695404,
            "type": "TP"
        },
        {
            "country_code": "DE",
            "city": "Berlin",
            "latitude": 52.3800010681,
            "longitude": 13.5225000381,
            "type": "TP"
        },
        {
            "country_code": "DE",
            "city": "Cologne",
            "latitude": 50.8658981323,
            "longitude": 7.1427397728,
            "type": "FP"
        },
        {
            "country_code": "DE",
            "city": "Frankfurt",
            "latitude": 50.1109221,
            "longitude": 8.6821267,
            "type": "FN"
        },
        {
            "country_code": "DE",
            "city": "Hamburg",
            "latitude": 53.6304016113,
            "longitude": 9.9882297516,
            "type": "FP"
        },
        {
            "country_code": "EE",
            "city": "Tallinn",
            "latitude": 59.4369608,
            "longitude": 24.7535746,
            "type": "FN"
        },
        {
            "country_code": "EE",
            "city": "Tartu",
            "latitude": 58.3074989319,
            "longitude": 26.6903991699,
            "type": "FP"
        },
        {
            "country_code": "ES",
            "city": "Barcelona",
            "latitude": 41.2971000671,
            "longitude": 2.0784599781,
            "type": "TP"
        },
        {
            "country_code": "ES",
            "city": "Vigo",
            "latitude": 42.2318000793,
            "longitude": -8.6267700195,
            "type": "FP"
        },
        {
            "country_code": "FI",
            "city": "Helsinki",
            "latitude": 60.1733244,
            "longitude": 24.9410248,
            "type": "FN"
        },
        {
            "country_code": "FI",
            "city": "Lappeenranta",
            "latitude": 61.0446014404,
            "longitude": 28.1443996429,
            "type": "FP"
        },
        {
            "country_code": "FI",
            "city": "Oulu",
            "latitude": 65.0120888,
            "longitude": 25.4650773,
            "type": "FN"
        },
        {
            "country_code": "FI",
            "city": "Pori",
            "latitude": 61.4617004395,
            "longitude": 21.7999992371,
            "type": "FP"
        },
        {
            "country_code": "FI",
            "city": "Turku",
            "latitude": 60.5140991211,
            "longitude": 22.2628002167,
            "type": "FP"
        },
        {
            "country_code": "FR",
            "city": "B\u00e2le/Mulhouse",
            "latitude": 47.5895996094,
            "longitude": 7.5299100876,
            "type": "FP"
        },
        {
            "country_code": "FR",
            "city": "Marseille",
            "latitude": 43.2961743,
            "longitude": 5.3699525,
            "type": "FN"
        },
        {
            "country_code": "FR",
            "city": "Nantes",
            "latitude": 47.1531982422,
            "longitude": -1.610730052,
            "type": "FP"
        },
        {
            "country_code": "FR",
            "city": "Paris",
            "latitude": 48.856614,
            "longitude": 2.3522219,
            "type": "FN"
        },
        {
            "country_code": "GB",
            "city": "Doncaster",
            "latitude": 53.4805378105,
            "longitude": -1.0106563568,
            "type": "TP"
        },
        {
            "country_code": "GB",
            "city": "Edinburgh",
            "latitude": 55.953252,
            "longitude": -3.188267,
            "type": "FN"
        },
        {
            "country_code": "GB",
            "city": "London",
            "latitude": 51.3307991028,
            "longitude": 0.0324999988,
            "type": "TP"
        },
        {
            "country_code": "GB",
            "city": "London",
            "latitude": 51.4706001282,
            "longitude": -0.4619410038,
            "type": "FP"
        },
        {
            "country_code": "GB",
            "city": "Southampton",
            "latitude": 50.9502983093,
            "longitude": -1.3567999601,
            "type": "FP"
        },
        {
            "country_code": "GR",
            "city": "Athens",
            "latitude": 37.9364013672,
            "longitude": 23.9444999695,
            "type": "TP"
        },
        {
            "country_code": "GR",
            "city": "Heraklion",
            "latitude": 35.3396987915,
            "longitude": 25.1802997589,
            "type": "FP"
        },
        {
            "country_code": "GR",
            "city": "Patras",
            "latitude": 38.1511001587,
            "longitude": 21.4256000519,
            "type": "FP"
        },
        {
            "country_code": "HR",
            "city": "Zagreb",
            "latitude": 45.7429008484,
            "longitude": 16.0687999725,
            "type": "TP"
        },
        {
            "country_code": "IE",
            "city": "Dublin",
            "latitude": 53.3498053,
            "longitude": -6.2603097,
            "type": "FN"
        },
        {
            "country_code": "IE",
            "city": "Galway",
            "latitude": 53.300201416,
            "longitude": -8.9415903091,
            "type": "FP"
        },
        {
            "country_code": "IE",
            "city": "Waterford",
            "latitude": 52.1871986389,
            "longitude": -7.0869598389,
            "type": "FP"
        },
        {
            "country_code": "IL",
            "city": "Tel Aviv",
            "latitude": 32.1147003174,
            "longitude": 34.7821998596,
            "type": "TP"
        },
        {
            "country_code": "IS",
            "city": "Reykjavik",
            "latitude": 64.133333,
            "longitude": -21.933333,
            "type": "FN"
        },
        {
            "country_code": "IT",
            "city": "Bologna",
            "latitude": 44.5354003906,
            "longitude": 11.2887001038,
            "type": "FP"
        },
        {
            "country_code": "IT",
            "city": "Cuneo",
            "latitude": 44.547000885,
            "longitude": 7.6232199669,
            "type": "FP"
        },
        {
            "country_code": "IT",
            "city": "Milan",
            "latitude": 45.445098877,
            "longitude": 9.2767400742,
            "type": "TP"
        },
        {
            "country_code": "IT",
            "city": "Milan",
            "latitude": 45.6305999756,
            "longitude": 8.7281103134,
            "type": "FP"
        },
        {
            "country_code": "IT",
            "city": "Rome",
            "latitude": 41.9027835,
            "longitude": 12.4963655,
            "type": "FN"
        },
        {
            "country_code": "IT",
            "city": "Torino",
            "latitude": 45.2008018494,
            "longitude": 7.6496300697,
            "type": "TP"
        },
        {
            "country_code": "IT",
            "city": "Verona",
            "latitude": 45.3956985474,
            "longitude": 10.8885002136,
            "type": "FP"
        },
        {
            "country_code": "LB",
            "city": "Beirut",
            "latitude": 33.8886289,
            "longitude": 35.4954794,
            "type": "FN"
        },
        {
            "country_code": "LT",
            "city": "Kaunas",
            "latitude": 54.9639015198,
            "longitude": 24.0848007202,
            "type": "FP"
        },
        {
            "country_code": "LT",
            "city": "Vilnius",
            "latitude": 54.6341018677,
            "longitude": 25.2858009338,
            "type": "TP"
        },
        {
            "country_code": "LU",
            "city": "Luxembourg",
            "latitude": 49.6265983582,
            "longitude": 6.211520195,
            "type": "TP"
        },
        {
            "country_code": "LV",
            "city": "Riga",
            "latitude": 56.9496487,
            "longitude": 24.1051864,
            "type": "FN"
        },
        {
            "country_code": "LV",
            "city": "Ventspils",
            "latitude": 57.35779953,
            "longitude": 21.5442008972,
            "type": "FP"
        },
        {
            "country_code": "MK",
            "city": "Skopje",
            "latitude": 41.9616012573,
            "longitude": 21.6214008331,
            "type": "FP"
        },
        {
            "country_code": "N/A",
            "city": "N/A",
            "latitude": 49.9815,
            "longitude": 14.5305,
            "type": "TP"
        },
        {
            "country_code": "N/A",
            "city": "N/A",
            "latitude": 46.6315,
            "longitude": 13.8185,
            "type": "FP"
        },
        {
            "country_code": "N/A",
            "city": "N/A",
            "latitude": 59.1315,
            "longitude": 31.6695,
            "type": "FP"
        },
        {
            "country_code": "N/A",
            "city": "N/A",
            "latitude": 50.8805,
            "longitude": 20.6375,
            "type": "FP"
        },
        {
            "country_code": "N/A",
            "city": "N/A",
            "latitude": 58.1585,
            "longitude": 8.0195,
            "type": "FP"
        },
        {
            "country_code": "N/A",
            "city": "N/A",
            "latitude": 59.3615,
            "longitude": 27.4075,
            "type": "FP"
        },
        {
            "country_code": "N/A",
            "city": "N/A",
            "latitude": 60.1475,
            "longitude": 19.9475,
            "type": "FP"
        },
        {
            "country_code": "N/A",
            "city": "N/A",
            "latitude": 50.2615,
            "longitude": 28.6815,
            "type": "FP"
        },
        {
            "country_code": "NL",
            "city": "Amsterdam",
            "latitude": 52.3702157,
            "longitude": 4.8951679,
            "type": "FN"
        },
        {
            "country_code": "NO",
            "city": "Oslo",
            "latitude": 60.193901062,
            "longitude": 11.100399971,
            "type": "TP"
        },
        {
            "country_code": "NO",
            "city": "Rygge",
            "latitude": 59.3788986206,
            "longitude": 10.7855997086,
            "type": "FP"
        },
        {
            "country_code": "NO",
            "city": "Trondheim",
            "latitude": 63.4578018188,
            "longitude": 10.9239997864,
            "type": "FP"
        },
        {
            "country_code": "NO",
            "city": "\u00c5lesund",
            "latitude": 62.5625,
            "longitude": 6.119699955,
            "type": "FP"
        },
        {
            "country_code": "PL",
            "city": "Warsaw",
            "latitude": 52.1656990051,
            "longitude": 20.9671001434,
            "type": "TP"
        },
        {
            "country_code": "PT",
            "city": "Lisbon",
            "latitude": 38.7812995911,
            "longitude": -9.1359195709,
            "type": "TP"
        },
        {
            "country_code": "RO",
            "city": "Bucharest",
            "latitude": 44.503200531,
            "longitude": 26.1021003723,
            "type": "FP"
        },
        {
            "country_code": "RO",
            "city": "Timi\u015foara",
            "latitude": 45.8098983765,
            "longitude": 21.3379001617,
            "type": "FP"
        },
        {
            "country_code": "RS",
            "city": "Belgrade",
            "latitude": 44.8184013367,
            "longitude": 20.3090991974,
            "type": "TP"
        },
        {
            "country_code": "RU",
            "city": "Ivanovo",
            "latitude": 56.9393997192,
            "longitude": 40.9407997131,
            "type": "FP"
        },
        {
            "country_code": "RU",
            "city": "Kaluga",
            "latitude": 54.5499992371,
            "longitude": 36.3666687012,
            "type": "FP"
        },
        {
            "country_code": "RU",
            "city": "Moscow",
            "latitude": 55.9725990295,
            "longitude": 37.4146003723,
            "type": "TP"
        },
        {
            "country_code": "RU",
            "city": "Moscow",
            "latitude": 55.4087982178,
            "longitude": 37.9062995911,
            "type": "FP"
        },
        {
            "country_code": "RU",
            "city": "Nizhny Novgorod",
            "latitude": 56.2300987244,
            "longitude": 43.7840003967,
            "type": "FP"
        },
        {
            "country_code": "RU",
            "city": "Petrozavodsk",
            "latitude": 61.8852005005,
            "longitude": 34.1547012329,
            "type": "FP"
        },
        {
            "country_code": "RU",
            "city": "St Petersburg",
            "latitude": 59.8003005981,
            "longitude": 30.2625007629,
            "type": "TP"
        },
        {
            "country_code": "RU",
            "city": "Voronezh",
            "latitude": 51.814201355,
            "longitude": 39.229598999,
            "type": "FP"
        },
        {
            "country_code": "SE",
            "city": "Gothenburg",
            "latitude": 57.6627998352,
            "longitude": 12.279800415,
            "type": "FP"
        },
        {
            "country_code": "SE",
            "city": "Lule\u00e5",
            "latitude": 65.543800354,
            "longitude": 22.1219997406,
            "type": "FP"
        },
        {
            "country_code": "SE",
            "city": "Stockholm",
            "latitude": 59.6519012451,
            "longitude": 17.9186000824,
            "type": "TP"
        },
        {
            "country_code": "SE",
            "city": "Sundsvall/ H\u00e4rn\u00f6sand",
            "latitude": 62.5280990601,
            "longitude": 17.4438991547,
            "type": "FP"
        },
        {
            "country_code": "SE",
            "city": "Ume\u00e5",
            "latitude": 63.7918014526,
            "longitude": 20.2828006744,
            "type": "FP"
        },
        {
            "country_code": "SE",
            "city": "\u00d6rebro",
            "latitude": 59.2237014771,
            "longitude": 15.0380001068,
            "type": "FP"
        },
        {
            "country_code": "SK",
            "city": "Bratislava",
            "latitude": 48.1458923,
            "longitude": 17.1071373,
            "type": "FN"
        },
        {
            "country_code": "TR",
            "city": "Istanbul",
            "latitude": 40.9768981934,
            "longitude": 28.8145999908,
            "type": "FP"
        },
        {
            "country_code": "UA",
            "city": "Kharkiv",
            "latitude": 49.9248008728,
            "longitude": 36.2900009155,
            "type": "FP"
        },
        {
            "country_code": "UA",
            "city": "Kiev",
            "latitude": 50.6035003662,
            "longitude": 30.1919002533,
            "type": "TP"
        },
        {
            "country_code": "UA",
            "city": "Kiev",
            "latitude": 50.3450012207,
            "longitude": 30.8946990967,
            "type": "FP"
        },
        {
            "country_code": "UA",
            "city": "Nikolayev",
            "latitude": 47.0578994751,
            "longitude": 31.9197998047,
            "type": "FP"
        },
        {
            "country_code": "UA",
            "city": "Rivne",
            "latitude": 50.6071014404,
            "longitude": 26.1415996552,
            "type": "FP"
        }
    ]
}