{
    "target": "192.5.5.241",
    "measurement_filepath": "datasets/measurements/campaigns/192.5.5.241_North-Central_20230410/192.5.5.241_North-Central_100_52071271.json",
    "probes_filepath": "datasets/probes_sets/North-Central_100.json",
    "alpha": 0.6,
    "threshold": -1,
    "noise": 0,
    "num_anycast_instances": 16,
    "anycast_instances": [
        {
            "marker": {
                "id": "KUN",
                "latitude": 54.9639015198,
                "longitude": 24.0848007202,
                "city": "Kaunas",
                "country_code": "LT"
            },
            "circle": {
                "id": "60813",
                "latitude": 54.6985,
                "longitude": 25.2575,
                "radius": 87.05834918003816
            }
        },
        {
            "marker": {
                "id": "TLL",
                "latitude": 59.4132995605,
                "longitude": 24.8327999115,
                "city": "Tallinn",
                "country_code": "EE"
            },
            "circle": {
                "id": "28294",
                "latitude": 60.1595,
                "longitude": 24.9315,
                "radius": 111.65119233005132
            }
        },
        {
            "marker": {
                "id": "ARN",
                "latitude": 59.6519012451,
                "longitude": 17.9186000824,
                "city": "Stockholm",
                "country_code": "SE"
            },
            "circle": {
                "id": "1004763",
                "latitude": 59.2985,
                "longitude": 18.0805,
                "radius": 112.79710955438026
            }
        },
        {
            "marker": {
                "id": "KBP",
                "latitude": 50.3450012207,
                "longitude": 30.8946990967,
                "city": "Kiev",
                "country_code": "UA"
            },
            "circle": {
                "id": "52720",
                "latitude": 50.5575,
                "longitude": 30.3485,
                "radius": 137.27753053264342
            }
        },
        {
            "marker": {
                "id": "DME",
                "latitude": 55.4087982178,
                "longitude": 37.9062995911,
                "city": "Moscow",
                "country_code": "RU"
            },
            "circle": {
                "id": "1000888",
                "latitude": 55.8915,
                "longitude": 37.5115,
                "radius": 152.07455650156646
            }
        },
        {
            "marker": {
                "id": "SOF",
                "latitude": 42.6966934204,
                "longitude": 23.4114360809,
                "city": "Sofia",
                "country_code": "BG"
            },
            "circle": {
                "id": "1004017",
                "latitude": 42.7005,
                "longitude": 23.3175,
                "radius": 165.38228454262236
            }
        },
        {
            "marker": {
                "id": "DAM",
                "latitude": 33.4114990234,
                "longitude": 36.5155982971,
                "city": "Damascus",
                "country_code": "SY"
            },
            "circle": {
                "id": "53950",
                "latitude": 33.8875,
                "longitude": 35.5195,
                "radius": 168.96608642294407
            }
        },
        {
            "marker": {
                "id": "ZAG",
                "latitude": 45.7429008484,
                "longitude": 16.0687999725,
                "city": "Zagreb",
                "country_code": "HR"
            },
            "circle": {
                "id": "13593",
                "latitude": 46.3085,
                "longitude": 16.3415,
                "radius": 175.03530584240198
            }
        },
        {
            "marker": {
                "id": "LED",
                "latitude": 59.8003005981,
                "longitude": 30.2625007629,
                "city": "St Petersburg",
                "country_code": "RU"
            },
            "circle": {
                "id": "1002954",
                "latitude": 59.8995,
                "longitude": 30.3195,
                "radius": 188.23080894358813
            }
        },
        {
            "marker": {
                "id": "OTP",
                "latitude": 44.5722007751,
                "longitude": 26.1021995544,
                "city": "Bucharest",
                "country_code": "RO"
            },
            "circle": {
                "id": "61841",
                "latitude": 44.4475,
                "longitude": 26.2295,
                "radius": 189.345169067075
            }
        },
        {
            "marker": {
                "id": "PAR",
                "latitude": 49.0127983093,
                "longitude": 2.5499999523,
                "city": "Paris",
                "country_code": "FR"
            },
            "circle": {
                "id": "1003845",
                "latitude": 48.8995,
                "longitude": 2.2995,
                "radius": 221.92984800535132
            }
        },
        {
            "marker": {
                "id": "CGN",
                "latitude": 50.8658981323,
                "longitude": 7.1427397728,
                "city": "Cologne",
                "country_code": "DE"
            },
            "circle": {
                "id": "62401",
                "latitude": 50.0175,
                "longitude": 8.4175,
                "radius": 231.99774656526446
            }
        },
        {
            "marker": {
                "id": "TOJ",
                "latitude": 40.4967002869,
                "longitude": -3.4458699226,
                "city": "Madrid",
                "country_code": "ES"
            },
            "circle": {
                "id": "22309",
                "latitude": 40.4015,
                "longitude": -3.7225,
                "radius": 316.65134604519403
            }
        },
        {
            "marker": {
                "id": "TXL",
                "latitude": 52.5597000122,
                "longitude": 13.2876996994,
                "city": "Berlin",
                "country_code": "DE"
            },
            "circle": {
                "id": "1000088",
                "latitude": 50.0115,
                "longitude": 15.9715,
                "radius": 341.0030732215855
            }
        },
        {
            "marker": {
                "id": "BCN",
                "latitude": 41.2971000671,
                "longitude": 2.0784599781,
                "city": "Barcelona",
                "country_code": "ES"
            },
            "circle": {
                "id": "60555",
                "latitude": 41.3895,
                "longitude": 2.1695,
                "radius": 364.6852967804237
            }
        },
        {
            "marker": {
                "id": "DUB",
                "latitude": 53.4212989807,
                "longitude": -6.270070076,
                "city": "Dublin",
                "country_code": "IE"
            },
            "circle": {
                "id": "1002711",
                "latitude": 55.3775,
                "longitude": -3.4425,
                "radius": 428.9433447542204
            }
        }
    ]
}