{
    "target": "198.41.0.4",
    "measurement_filepath": "datasets/measurements/campaigns/198.41.0.4_North-Central_20230410/198.41.0.4_North-Central_500_52069420.json",
    "probes_filepath": "datasets/probes_sets/North-Central_500.json",
    "alpha": 0.0,
    "threshold": -1,
    "noise": 0,
    "num_anycast_instances": 17,
    "anycast_instances": [
        {
            "marker": {
                "id": "QEF",
                "latitude": 49.9599990845,
                "longitude": 8.6458330154,
                "city": "Egelsbach",
                "country_code": "DE"
            },
            "circle": {
                "id": "27908",
                "latitude": 50.1415,
                "longitude": 8.7375,
                "radius": 26.009469019278498
            }
        },
        {
            "marker": {
                "id": "AMX",
                "latitude": 52.3086013794,
                "longitude": 4.7638897896,
                "city": "Amsterdam",
                "country_code": "NL"
            },
            "circle": {
                "id": "1002178",
                "latitude": 52.3715,
                "longitude": 4.9005,
                "radius": 37.00521931974525
            }
        },
        {
            "marker": {
                "id": "ARN",
                "latitude": 59.6519012451,
                "longitude": 17.9186000824,
                "city": "Stockholm",
                "country_code": "SE"
            },
            "circle": {
                "id": "60336",
                "latitude": 59.3405,
                "longitude": 18.0885,
                "radius": 66.38720359529475
            }
        },
        {
            "marker": {
                "id": "CBG",
                "latitude": 52.2050018311,
                "longitude": 0.174999997,
                "city": "Cambridge",
                "country_code": "GB"
            },
            "circle": {
                "id": "61266",
                "latitude": 51.4805,
                "longitude": -0.0095,
                "radius": 90.69231501678598
            }
        },
        {
            "marker": {
                "id": "FEL",
                "latitude": 48.2055549622,
                "longitude": 11.2669439316,
                "city": "F\u00fcrstenfeldbruck",
                "country_code": "DE"
            },
            "circle": {
                "id": "1004882",
                "latitude": 49.4385,
                "longitude": 11.0215,
                "radius": 148.925650917225
            }
        },
        {
            "marker": {
                "id": "RHE",
                "latitude": 49.3100013733,
                "longitude": 4.0500001907,
                "city": "Reims/Champagne",
                "country_code": "FR"
            },
            "circle": {
                "id": "28930",
                "latitude": 48.7775,
                "longitude": 2.0685,
                "radius": 162.69234543292848
            }
        },
        {
            "marker": {
                "id": "ERF",
                "latitude": 50.979801178,
                "longitude": 10.9581003189,
                "city": "Erfurt",
                "country_code": "DE"
            },
            "circle": {
                "id": "7162",
                "latitude": 52.8985,
                "longitude": 9.2805,
                "radius": 246.49130761857697
            }
        },
        {
            "marker": {
                "id": "QAR",
                "latitude": 52.0606002808,
                "longitude": 5.8730602264,
                "city": "Arnhem",
                "country_code": "NL"
            },
            "circle": {
                "id": "1002190",
                "latitude": 52.7175,
                "longitude": 6.2015,
                "radius": 95.89659966549425
            }
        },
        {
            "marker": {
                "id": "BSL",
                "latitude": 47.5895996094,
                "longitude": 7.5299100876,
                "city": "B\u00e2le/Mulhouse",
                "country_code": "FR"
            },
            "circle": {
                "id": "6763",
                "latitude": 45.4785,
                "longitude": 9.1005,
                "radius": 266.81210232513376
            }
        },
        {
            "marker": {
                "id": "STN",
                "latitude": 51.8849983215,
                "longitude": 0.2349999994,
                "city": "London",
                "country_code": "GB"
            },
            "circle": {
                "id": "1005238",
                "latitude": 49.3915,
                "longitude": -1.0415,
                "radius": 297.2936129144555
            }
        },
        {
            "marker": {
                "id": "BGY",
                "latitude": 45.6739006042,
                "longitude": 9.7041702271,
                "city": "Bergamo",
                "country_code": "IT"
            },
            "circle": {
                "id": "61306",
                "latitude": 43.6405,
                "longitude": 7.0475,
                "radius": 310.3949555436852
            }
        },
        {
            "marker": {
                "id": "PKV",
                "latitude": 57.7839012146,
                "longitude": 28.3955993652,
                "city": "Pskov",
                "country_code": "RU"
            },
            "circle": {
                "id": "6707",
                "latitude": 60.5705,
                "longitude": 27.1875,
                "radius": 330.87317876474924
            }
        },
        {
            "marker": {
                "id": "JKG",
                "latitude": 57.757598877,
                "longitude": 14.0686998367,
                "city": "J\u00f6nk\u00f6ping",
                "country_code": "SE"
            },
            "circle": {
                "id": "17472",
                "latitude": 60.3885,
                "longitude": 5.3205,
                "radius": 579.064871731045
            }
        },
        {
            "marker": {
                "id": "FRZ",
                "latitude": 51.1146,
                "longitude": 9.286,
                "city": "Fritzlar",
                "country_code": "DE"
            },
            "circle": {
                "id": "22069",
                "latitude": 53.6915,
                "longitude": 10.2605,
                "radius": 297.609519217073
            }
        },
        {
            "marker": {
                "id": "RYN",
                "latitude": 45.6281013489,
                "longitude": -0.9725000262,
                "city": "Royan/M\u00e9dis",
                "country_code": "FR"
            },
            "circle": {
                "id": "32868",
                "latitude": 40.5015,
                "longitude": -3.6595,
                "radius": 614.6798035268152
            }
        },
        {
            "marker": {
                "id": "GEC",
                "latitude": 35.2359466553,
                "longitude": 33.724357605,
                "city": "Ge\u00e7itkale",
                "country_code": "CY"
            },
            "circle": {
                "id": "1003038",
                "latitude": 43.2215,
                "longitude": 27.9285,
                "radius": 1018.6482669789527
            }
        },
        {
            "marker": {
                "id": "PRN",
                "latitude": 42.5727996826,
                "longitude": 21.0358009338,
                "city": "Prishtina",
                "country_code": "KS"
            },
            "circle": {
                "id": "22945",
                "latitude": 47.4695,
                "longitude": 19.0495,
                "radius": 567.584319551935
            }
        }
    ]
}