{
    "target": "198.41.0.4",
    "measurement_filepath": "datasets/measurements/campaigns/198.41.0.4_North-Central_20230410/198.41.0.4_North-Central_300_52069377.json",
    "probes_filepath": "datasets/probes_sets/North-Central_300.json",
    "alpha": 0.0,
    "threshold": -1,
    "noise": 0,
    "num_anycast_instances": 12,
    "anycast_instances": [
        {
            "marker": {
                "id": "QEF",
                "latitude": 49.9599990845,
                "longitude": 8.6458330154,
                "city": "Egelsbach",
                "country_code": "DE"
            },
            "circle": {
                "id": "1002375",
                "latitude": 50.1195,
                "longitude": 8.6805,
                "radius": 25.653795247107297
            }
        },
        {
            "marker": {
                "id": "LTN",
                "latitude": 51.8746986389,
                "longitude": -0.3683330119,
                "city": "London",
                "country_code": "GB"
            },
            "circle": {
                "id": "1003887",
                "latitude": 51.5405,
                "longitude": -0.6685,
                "radius": 47.6447862008622
            }
        },
        {
            "marker": {
                "id": "DHR",
                "latitude": 52.9234008789,
                "longitude": 4.7806200981,
                "city": "Den Helder",
                "country_code": "NL"
            },
            "circle": {
                "id": "1005311",
                "latitude": 52.3775,
                "longitude": 4.8975,
                "radius": 62.206110605740506
            }
        },
        {
            "marker": {
                "id": "EKT",
                "latitude": 59.3511009216,
                "longitude": 16.7084007263,
                "city": "Eskilstuna",
                "country_code": "SE"
            },
            "circle": {
                "id": "28417",
                "latitude": 59.3105,
                "longitude": 18.0075,
                "radius": 102.2808824185134
            }
        },
        {
            "marker": {
                "id": "DOL",
                "latitude": 49.3652992249,
                "longitude": 0.1543059945,
                "city": "Deauville",
                "country_code": "FR"
            },
            "circle": {
                "id": "61735",
                "latitude": 48.9095,
                "longitude": 2.2885,
                "radius": 165.8611966828572
            }
        },
        {
            "marker": {
                "id": "LWR",
                "latitude": 53.2285995483,
                "longitude": 5.7605600357,
                "city": "Leeuwarden",
                "country_code": "NL"
            },
            "circle": {
                "id": "24592",
                "latitude": 53.5485,
                "longitude": 10.0515,
                "radius": 290.3531027296746
            }
        },
        {
            "marker": {
                "id": "BGY",
                "latitude": 45.6739006042,
                "longitude": 9.7041702271,
                "city": "Bergamo",
                "country_code": "IT"
            },
            "circle": {
                "id": "30725",
                "latitude": 43.6395,
                "longitude": 6.9285,
                "radius": 319.6583251463532
            }
        },
        {
            "marker": {
                "id": "KTW",
                "latitude": 50.4743003845,
                "longitude": 19.0799999237,
                "city": "Katowice",
                "country_code": "PL"
            },
            "circle": {
                "id": "22072",
                "latitude": 50.0485,
                "longitude": 14.3505,
                "radius": 349.1399154660732
            }
        },
        {
            "marker": {
                "id": "URO",
                "latitude": 49.3842010498,
                "longitude": 1.1748000383,
                "city": "Rouen/Vall\u00e9e de Seine",
                "country_code": "FR"
            },
            "circle": {
                "id": "22992",
                "latitude": 47.3485,
                "longitude": 5.0515,
                "radius": 366.3138861735528
            }
        },
        {
            "marker": {
                "id": "BRE",
                "latitude": 53.0475006104,
                "longitude": 8.7866697311,
                "city": "Bremen",
                "country_code": "DE"
            },
            "circle": {
                "id": "25334",
                "latitude": 55.6595,
                "longitude": 12.3985,
                "radius": 388.19420874143697
            }
        },
        {
            "marker": {
                "id": "BIO",
                "latitude": 43.3011016846,
                "longitude": -2.9106099606,
                "city": "Bilbao",
                "country_code": "ES"
            },
            "circle": {
                "id": "60555",
                "latitude": 41.3895,
                "longitude": 2.1695,
                "radius": 472.1647121715531
            }
        },
        {
            "marker": {
                "id": "AVB",
                "latitude": 46.0318984985,
                "longitude": 12.5965003967,
                "city": "Aviano",
                "country_code": "IT"
            },
            "circle": {
                "id": "27957",
                "latitude": 35.9105,
                "longitude": 14.4195,
                "radius": 1143.2625707915602
            }
        }
    ]
}