{
    "target": "202.12.27.33",
    "measurement_filepath": "datasets/measurements/campaigns/202.12.27.33_North-Central_20230410/202.12.27.33_North-Central_1000_52101293.json",
    "probes_filepath": "datasets/probes_sets/North-Central_1000.json",
    "alpha": 1,
    "threshold": 10.0,
    "noise": 0,
    "num_anycast_instances": 8,
    "anycast_instances": [
        {
            "marker": {
                "id": "LBG",
                "latitude": 48.9693984985,
                "longitude": 2.4413900375,
                "city": "Paris",
                "country_code": "FR"
            },
            "circle": {
                "id": "6573",
                "latitude": 48.9285,
                "longitude": 2.3505,
                "radius": 12.539056391891819
            }
        },
        {
            "marker": {
                "id": "DEX",
                "latitude": 50.121212,
                "longitude": 8.6365638,
                "city": "Frankfurt-am-Main",
                "country_code": "DE"
            },
            "circle": {
                "id": "1005324",
                "latitude": 50.0895,
                "longitude": 8.5085,
                "radius": 31.60829403337536
            }
        },
        {
            "marker": {
                "id": "SEN",
                "latitude": 51.5713996887,
                "longitude": 0.695555985,
                "city": "Southend",
                "country_code": "GB"
            },
            "circle": {
                "id": "6951",
                "latitude": 50.9875,
                "longitude": 2.1295,
                "radius": 122.98499026290665
            }
        },
        {
            "marker": {
                "id": "SXB",
                "latitude": 48.5382995605,
                "longitude": 7.6282300949,
                "city": "Strasbourg",
                "country_code": "FR"
            },
            "circle": {
                "id": "12829",
                "latitude": 49.2015,
                "longitude": 6.2085,
                "radius": 168.7494391941733
            }
        },
        {
            "marker": {
                "id": "BNX",
                "latitude": 50.4592018127,
                "longitude": 4.4538202286,
                "city": "Brussels",
                "country_code": "BE"
            },
            "circle": {
                "id": "29461",
                "latitude": 50.5275,
                "longitude": 3.2305,
                "radius": 156.12056198394012
            }
        },
        {
            "marker": {
                "id": "LYS",
                "latitude": 45.726398468,
                "longitude": 5.0908298492,
                "city": "Lyon",
                "country_code": "FR"
            },
            "circle": {
                "id": "62121",
                "latitude": 45.7775,
                "longitude": 4.8185,
                "radius": 175.31987657502526
            }
        },
        {
            "marker": {
                "id": "NTE",
                "latitude": 47.1531982422,
                "longitude": -1.610730052,
                "city": "Nantes",
                "country_code": "FR"
            },
            "circle": {
                "id": "55718",
                "latitude": 48.0715,
                "longitude": -0.7625,
                "radius": 234.47442673210497
            }
        },
        {
            "marker": {
                "id": "PNA",
                "latitude": 42.7700004578,
                "longitude": -1.646329999,
                "city": "Pamplona",
                "country_code": "ES"
            },
            "circle": {
                "id": "54423",
                "latitude": 44.8285,
                "longitude": -0.6015,
                "radius": 247.10168506306502
            }
        }
    ]
}