{
    "target": "192.203.230.10",
    "measurement_filepath": "datasets/measurements/campaigns/North-Central_20230410_192.203.230.10/192.203.230.10_North-Central_100_52070327.json",
    "probes_filepath": "datasets/probes_sets/North-Central_100.json",
    "alpha": 0.9,
    "threshold": -1,
    "noise": 0,
    "num_anycast_instances": 12,
    "anycast_instances": [
        {
            "marker": {
                "id": "PAR",
                "latitude": 49.0127983093,
                "longitude": 2.5499999523,
                "city": "Paris",
                "country_code": "FR"
            },
            "circle": {
                "id": "1003845",
                "latitude": 48.8995,
                "longitude": 2.2995,
                "radius": 105.583156301875
            }
        },
        {
            "marker": {
                "id": "PRG",
                "latitude": 50.1007995605,
                "longitude": 14.2600002289,
                "city": "Prague",
                "country_code": "CZ"
            },
            "circle": {
                "id": "1004003",
                "latitude": 50.1285,
                "longitude": 14.4975,
                "radius": 126.62898131723553
            }
        },
        {
            "marker": {
                "id": "STR",
                "latitude": 48.6898994446,
                "longitude": 9.2219600677,
                "city": "Stuttgart",
                "country_code": "DE"
            },
            "circle": {
                "id": "22152",
                "latitude": 48.7785,
                "longitude": 9.1795,
                "radius": 145.50535426564144
            }
        },
        {
            "marker": {
                "id": "BRU",
                "latitude": 50.9014015198,
                "longitude": 4.4844398499,
                "city": "Brussels",
                "country_code": "BE"
            },
            "circle": {
                "id": "32321",
                "latitude": 52.3975,
                "longitude": 4.8385,
                "radius": 178.3283879312158
            }
        },
        {
            "marker": {
                "id": "BHX",
                "latitude": 52.4538993835,
                "longitude": -1.7480299473,
                "city": "Birmingham",
                "country_code": "GB"
            },
            "circle": {
                "id": "61364",
                "latitude": 53.6595,
                "longitude": -1.8095,
                "radius": 213.21989094105
            }
        },
        {
            "marker": {
                "id": "KEF",
                "latitude": 63.9850006104,
                "longitude": -22.6056003571,
                "city": "Reykjav\u00edk",
                "country_code": "IS"
            },
            "circle": {
                "id": "54607",
                "latitude": 64.0505,
                "longitude": -21.9925,
                "radius": 231.0654314672605
            }
        },
        {
            "marker": {
                "id": "TOJ",
                "latitude": 40.4967002869,
                "longitude": -3.4458699226,
                "city": "Madrid",
                "country_code": "ES"
            },
            "circle": {
                "id": "33818",
                "latitude": 40.2915,
                "longitude": -3.8325,
                "radius": 309.6932025413901
            }
        },
        {
            "marker": {
                "id": "MSQ",
                "latitude": 53.8824996948,
                "longitude": 28.0307006836,
                "city": "Minsk",
                "country_code": "BY"
            },
            "circle": {
                "id": "50831",
                "latitude": 53.1275,
                "longitude": 23.1685,
                "radius": 379.987729442521
            }
        },
        {
            "marker": {
                "id": "ADB",
                "latitude": 38.2924003601,
                "longitude": 27.156999588,
                "city": "\u0130zmir",
                "country_code": "TR"
            },
            "circle": {
                "id": "62748",
                "latitude": 37.9815,
                "longitude": 23.7595,
                "radius": 388.76642181709406
            }
        },
        {
            "marker": {
                "id": "LED",
                "latitude": 59.8003005981,
                "longitude": 30.2625007629,
                "city": "St Petersburg",
                "country_code": "RU"
            },
            "circle": {
                "id": "54507",
                "latitude": 60.1305,
                "longitude": 24.4675,
                "radius": 418.62466585855265
            }
        },
        {
            "marker": {
                "id": "SVO",
                "latitude": 55.9725990295,
                "longitude": 37.4146003723,
                "city": "Moscow",
                "country_code": "RU"
            },
            "circle": {
                "id": "55348",
                "latitude": 54.6615,
                "longitude": 39.6695,
                "radius": 471.8196818205684
            }
        },
        {
            "marker": {
                "id": "OTP",
                "latitude": 44.5722007751,
                "longitude": 26.1021995544,
                "city": "Bucharest",
                "country_code": "RO"
            },
            "circle": {
                "id": "28731",
                "latitude": 41.9875,
                "longitude": 21.4485,
                "radius": 489.1492637480104
            }
        }
    ]
}