{
    "target": "202.12.27.33",
    "measurement_filepath": "datasets/measurements/campaigns/202.12.27.33_North-Central_20230410/202.12.27.33_North-Central_300_52101188.json",
    "probes_filepath": "datasets/probes_sets/North-Central_300.json",
    "alpha": 0.0,
    "threshold": -1,
    "noise": 0,
    "num_anycast_instances": 5,
    "anycast_instances": [
        {
            "marker": {
                "id": "PAR",
                "latitude": 49.0127983093,
                "longitude": 2.5499999523,
                "city": "Paris",
                "country_code": "FR"
            },
            "circle": {
                "id": "1000724",
                "latitude": 48.7695,
                "longitude": 2.3785,
                "radius": 41.48869797206119
            }
        },
        {
            "marker": {
                "id": "LTQ",
                "latitude": 50.5173988342,
                "longitude": 1.6205899715,
                "city": "Le Touquet-Paris-Plage",
                "country_code": "FR"
            },
            "circle": {
                "id": "34182",
                "latitude": 60.0585,
                "longitude": 24.4415,
                "radius": 1781.1598836711112
            }
        },
        {
            "marker": {
                "id": "VAF",
                "latitude": 44.9216003418,
                "longitude": 4.9699001312,
                "city": "Valence/Chabeuil",
                "country_code": "FR"
            },
            "circle": {
                "id": "33922",
                "latitude": 50.4185,
                "longitude": 30.4685,
                "radius": 1993.2679193335534
            }
        },
        {
            "marker": {
                "id": "ORE",
                "latitude": 47.9878005981,
                "longitude": 1.7605600357,
                "city": "Orl\u00e9ans/Bricy",
                "country_code": "FR"
            },
            "circle": {
                "id": "1004118",
                "latitude": 32.6515,
                "longitude": -16.9325,
                "radius": 2317.7357399354864
            }
        },
        {
            "marker": {
                "id": "ULY",
                "latitude": 54.4010009766,
                "longitude": 48.8027000427,
                "city": "Ulyanovsk",
                "country_code": "RU"
            },
            "circle": {
                "id": "13084",
                "latitude": 35.1595,
                "longitude": 33.3715,
                "radius": 2455.1027052642353
            }
        }
    ]
}