{
    "target": "192.36.148.17",
    "probes_filepath": "datasets/probes_sets/North-Central_300.json",
    "alpha": 0.9,
    "threshold": -1,
    "noise": 0,
    "results_filepath": "datasets/results/campaigns/192.36.148.17_North-Central_20230410_alpha_light-factor_0.40/192.36.148.17_North-Central_300_52072194_0.9_-1_0.json",
    "gt_filepath": "datasets/ground-truth/root_servers/root_servers_I.json",
    "statistics": {
        "TP": 14,
        "FP": 3,
        "TN": 0,
        "FN": 10,
        "accuracy": 0.5185185185185185,
        "precision": 0.8235294117647058,
        "recall": 0.5833333333333334,
        "f1": 0.6829268292682927,
        "OT": 0,
        "OF": 1
    },
    "instances": [
        {
            "country_code": "AT",
            "city": "Vienna",
            "latitude": 48.208884,
            "longitude": 16.365399,
            "type": "FN"
        },
        {
            "country_code": "BE",
            "city": "Brussels",
            "latitude": 50.847339,
            "longitude": 4.356602,
            "type": "FN"
        },
        {
            "country_code": "BG",
            "city": "Sofia",
            "latitude": 42.6966934204,
            "longitude": 23.4114360809,
            "type": "TP"
        },
        {
            "country_code": "DE",
            "city": "Berlin",
            "latitude": 52.3800010681,
            "longitude": 13.5225000381,
            "type": "TP"
        },
        {
            "country_code": "DE",
            "city": "Frankfurt-am-Main",
            "latitude": 50.0264015198,
            "longitude": 8.543129921,
            "type": "TP"
        },
        {
            "country_code": "DE",
            "city": "Munich",
            "latitude": 48.3538017273,
            "longitude": 11.7861003876,
            "type": "FP"
        },
        {
            "country_code": "DK",
            "city": "Copenhagen",
            "latitude": 55.5856018066,
            "longitude": 12.1314001083,
            "type": "TP"
        },
        {
            "country_code": "EE",
            "city": "Tallinn",
            "latitude": 59.4132995605,
            "longitude": 24.8327999115,
            "type": "TP"
        },
        {
            "country_code": "FI",
            "city": "Helsinki",
            "latitude": 60.1733244,
            "longitude": 24.9410248,
            "type": "TP"
        },
        {
            "country_code": "FR",
            "city": "Paris",
            "latitude": 49.0127983093,
            "longitude": 2.5499999523,
            "type": "TP"
        },
        {
            "country_code": "GB",
            "city": "London",
            "latitude": 51.8849983215,
            "longitude": 0.2349999994,
            "type": "TP"
        },
        {
            "country_code": "HU",
            "city": "Budapest",
            "latitude": 47.4369010925,
            "longitude": 19.2555999756,
            "type": "FP"
        },
        {
            "country_code": "IS",
            "city": "Reykjavik",
            "latitude": 64.147725,
            "longitude": -21.947503,
            "type": "FN"
        },
        {
            "country_code": "IT",
            "city": "Milan",
            "latitude": 45.445098877,
            "longitude": 9.2767400742,
            "type": "TP"
        },
        {
            "country_code": "LT",
            "city": "Vilnius",
            "latitude": 54.755187,
            "longitude": 25.296416,
            "type": "FN"
        },
        {
            "country_code": "LU",
            "city": "Luxembourg",
            "latitude": 49.617173,
            "longitude": 6.136898,
            "type": "FN"
        },
        {
            "country_code": "LV",
            "city": "Riga",
            "latitude": 56.9235992432,
            "longitude": 23.9710998535,
            "type": "TP"
        },
        {
            "country_code": "N/A",
            "city": "N/A",
            "latitude": 40.9475,
            "longitude": 17.2785,
            "type": "OF"
        },
        {
            "country_code": "NL",
            "city": "Amsterdam",
            "latitude": 52.3086013794,
            "longitude": 4.7638897896,
            "type": "TP"
        },
        {
            "country_code": "NO",
            "city": "Oslo",
            "latitude": 60.193901062,
            "longitude": 11.100399971,
            "type": "TP"
        },
        {
            "country_code": "RO",
            "city": "Bucharest",
            "latitude": 44.5722007751,
            "longitude": 26.1021995544,
            "type": "TP"
        },
        {
            "country_code": "RS",
            "city": "Belgrade",
            "latitude": 44.810497,
            "longitude": 20.455291,
            "type": "FN"
        },
        {
            "country_code": "RU",
            "city": "Moscow",
            "latitude": 55.9725990295,
            "longitude": 37.4146003723,
            "type": "FP"
        },
        {
            "country_code": "SE",
            "city": "Gothenburg",
            "latitude": 57.717614,
            "longitude": 11.98341,
            "type": "FN"
        },
        {
            "country_code": "SE",
            "city": "Stockholm",
            "latitude": 59.6519012451,
            "longitude": 17.9186000824,
            "type": "TP"
        },
        {
            "country_code": "SE",
            "city": "Sundsvall",
            "latitude": 62.387574,
            "longitude": 17.27741,
            "type": "FN"
        },
        {
            "country_code": "SI",
            "city": "Ljubljana",
            "latitude": 46.065823,
            "longitude": 14.50024,
            "type": "FN"
        },
        {
            "country_code": "SK",
            "city": "Bratislava",
            "latitude": 48.155683,
            "longitude": 17.104361,
            "type": "FN"
        }
    ]
}