{
    "target": "192.58.128.30",
    "probes_filepath": "datasets/probes_section/North-Central-section_1.json",
    "alpha": 0.3,
    "threshold": -1,
    "noise": 0,
    "results_filepath": "datasets/results/campaigns/192.58.128.30_North-Central-section_20230425_alpha_light-factor_0.25/192.58.128.30_North-Central-section_1_52653770_0.3_-1_0.json",
    "gt_filepath": "datasets/ground-truth/root_servers/root_servers_J.json",
    "statistics": {
        "TP": 25,
        "FP": 28,
        "TN": 0,
        "FN": 14,
        "accuracy": 0.373134328358209,
        "precision": 0.4716981132075472,
        "recall": 0.6410256410256411,
        "f1": 0.5434782608695652,
        "OT": 0,
        "OF": 1
    },
    "instances": [
        {
            "country_code": "AT",
            "city": "Klagenfurt am W\u00f6rthersee",
            "latitude": 46.6425018311,
            "longitude": 14.3376998901,
            "type": "TP"
        },
        {
            "country_code": "AT",
            "city": "Vienna",
            "latitude": 48.1102981567,
            "longitude": 16.5697002411,
            "type": "TP"
        },
        {
            "country_code": "BG",
            "city": "Sofia",
            "latitude": 42.6966934204,
            "longitude": 23.4114360809,
            "type": "TP"
        },
        {
            "country_code": "BY",
            "city": "Brest",
            "latitude": 52.1082992554,
            "longitude": 23.8980998993,
            "type": "FP"
        },
        {
            "country_code": "CH",
            "city": "Geneva",
            "latitude": 46.2043907,
            "longitude": 6.1431577,
            "type": "FN"
        },
        {
            "country_code": "CH",
            "city": "Zurich",
            "latitude": 47.4646987915,
            "longitude": 8.5491695404,
            "type": "TP"
        },
        {
            "country_code": "CZ",
            "city": "Prague",
            "latitude": 50.1007995605,
            "longitude": 14.2600002289,
            "type": "TP"
        },
        {
            "country_code": "DE",
            "city": "Berlin",
            "latitude": 52.5200066,
            "longitude": 13.404954,
            "type": "FN"
        },
        {
            "country_code": "DE",
            "city": "Frankfurt",
            "latitude": 50.1109221,
            "longitude": 8.6821267,
            "type": "FN"
        },
        {
            "country_code": "DE",
            "city": "Hamburg",
            "latitude": 53.6304016113,
            "longitude": 9.9882297516,
            "type": "FP"
        },
        {
            "country_code": "DK",
            "city": "Copenhagen",
            "latitude": 55.5856018066,
            "longitude": 12.1314001083,
            "type": "FP"
        },
        {
            "country_code": "DK",
            "city": "Thisted",
            "latitude": 57.0688018799,
            "longitude": 8.7052202225,
            "type": "FP"
        },
        {
            "country_code": "EE",
            "city": "P\u00e4rnu",
            "latitude": 58.4189987183,
            "longitude": 24.4727993011,
            "type": "FP"
        },
        {
            "country_code": "EE",
            "city": "Tallinn",
            "latitude": 59.4369608,
            "longitude": 24.7535746,
            "type": "FN"
        },
        {
            "country_code": "ES",
            "city": "Barcelona",
            "latitude": 41.2971000671,
            "longitude": 2.0784599781,
            "type": "TP"
        },
        {
            "country_code": "ES",
            "city": "Santiago de Compostela",
            "latitude": 42.8963012695,
            "longitude": -8.415140152,
            "type": "FP"
        },
        {
            "country_code": "FI",
            "city": "Helsinki",
            "latitude": 60.1733244,
            "longitude": 24.9410248,
            "type": "TP"
        },
        {
            "country_code": "FI",
            "city": "Oulu",
            "latitude": 65.0120888,
            "longitude": 25.4650773,
            "type": "FN"
        },
        {
            "country_code": "FI",
            "city": "Pori",
            "latitude": 61.4617004395,
            "longitude": 21.7999992371,
            "type": "FP"
        },
        {
            "country_code": "FR",
            "city": "Marseille",
            "latitude": 43.2961743,
            "longitude": 5.3699525,
            "type": "FN"
        },
        {
            "country_code": "FR",
            "city": "Nantes",
            "latitude": 47.1531982422,
            "longitude": -1.610730052,
            "type": "FP"
        },
        {
            "country_code": "FR",
            "city": "Paris",
            "latitude": 48.856614,
            "longitude": 2.3522219,
            "type": "FN"
        },
        {
            "country_code": "GB",
            "city": "Edinburgh",
            "latitude": 55.953252,
            "longitude": -3.188267,
            "type": "FN"
        },
        {
            "country_code": "GB",
            "city": "Glasgow",
            "latitude": 55.5093994141,
            "longitude": -4.5866699219,
            "type": "FP"
        },
        {
            "country_code": "GB",
            "city": "Leeds",
            "latitude": 53.8658981323,
            "longitude": -1.6605700254,
            "type": "TP"
        },
        {
            "country_code": "GB",
            "city": "London",
            "latitude": 51.8849983215,
            "longitude": 0.2349999994,
            "type": "TP"
        },
        {
            "country_code": "GR",
            "city": "Athens",
            "latitude": 37.9908372,
            "longitude": 23.7383394,
            "type": "TP"
        },
        {
            "country_code": "GR",
            "city": "Souda",
            "latitude": 35.5317001343,
            "longitude": 24.1497001648,
            "type": "FP"
        },
        {
            "country_code": "HR",
            "city": "Zagreb",
            "latitude": 45.7429008484,
            "longitude": 16.0687999725,
            "type": "TP"
        },
        {
            "country_code": "IE",
            "city": "Dublin",
            "latitude": 53.4212989807,
            "longitude": -6.270070076,
            "type": "TP"
        },
        {
            "country_code": "IL",
            "city": "Tel Aviv",
            "latitude": 32.0113983154,
            "longitude": 34.8866996765,
            "type": "TP"
        },
        {
            "country_code": "IS",
            "city": "Reykjavik",
            "latitude": 64.133333,
            "longitude": -21.933333,
            "type": "FN"
        },
        {
            "country_code": "IT",
            "city": "Cuneo",
            "latitude": 44.547000885,
            "longitude": 7.6232199669,
            "type": "FP"
        },
        {
            "country_code": "IT",
            "city": "Milan",
            "latitude": 45.445098877,
            "longitude": 9.2767400742,
            "type": "TP"
        },
        {
            "country_code": "IT",
            "city": "Rome",
            "latitude": 41.9027835,
            "longitude": 12.4963655,
            "type": "FN"
        },
        {
            "country_code": "IT",
            "city": "Torino",
            "latitude": 45.2008018494,
            "longitude": 7.6496300697,
            "type": "TP"
        },
        {
            "country_code": "IT",
            "city": "Trieste",
            "latitude": 45.8274993896,
            "longitude": 13.4722003937,
            "type": "FP"
        },
        {
            "country_code": "LB",
            "city": "Beirut",
            "latitude": 33.8886289,
            "longitude": 35.4954794,
            "type": "FN"
        },
        {
            "country_code": "LT",
            "city": "Vilnius",
            "latitude": 54.6341018677,
            "longitude": 25.2858009338,
            "type": "TP"
        },
        {
            "country_code": "LU",
            "city": "Luxembourg",
            "latitude": 49.6265983582,
            "longitude": 6.211520195,
            "type": "TP"
        },
        {
            "country_code": "LV",
            "city": "Riga",
            "latitude": 56.9496487,
            "longitude": 24.1051864,
            "type": "FN"
        },
        {
            "country_code": "N/A",
            "city": "N/A",
            "latitude": 59.1315,
            "longitude": 31.6695,
            "type": "FP"
        },
        {
            "country_code": "NL",
            "city": "Amsterdam",
            "latitude": 52.3702157,
            "longitude": 4.8951679,
            "type": "FN"
        },
        {
            "country_code": "NO",
            "city": "Bergen",
            "latitude": 60.2933998108,
            "longitude": 5.2181401253,
            "type": "FP"
        },
        {
            "country_code": "NO",
            "city": "Oslo",
            "latitude": 60.193901062,
            "longitude": 11.100399971,
            "type": "TP"
        },
        {
            "country_code": "NO",
            "city": "Rygge",
            "latitude": 59.3788986206,
            "longitude": 10.7855997086,
            "type": "FP"
        },
        {
            "country_code": "NO",
            "city": "Trondheim",
            "latitude": 63.4578018188,
            "longitude": 10.9239997864,
            "type": "FP"
        },
        {
            "country_code": "PL",
            "city": "Warsaw",
            "latitude": 52.1656990051,
            "longitude": 20.9671001434,
            "type": "TP"
        },
        {
            "country_code": "PT",
            "city": "Lisbon",
            "latitude": 38.7812995911,
            "longitude": -9.1359195709,
            "type": "TP"
        },
        {
            "country_code": "RO",
            "city": "Bucharest",
            "latitude": 44.503200531,
            "longitude": 26.1021003723,
            "type": "FP"
        },
        {
            "country_code": "RS",
            "city": "Belgrade",
            "latitude": 44.8184013367,
            "longitude": 20.3090991974,
            "type": "TP"
        },
        {
            "country_code": "RU",
            "city": "Moscow",
            "latitude": 55.5914993286,
            "longitude": 37.2615013123,
            "type": "TP"
        },
        {
            "country_code": "RU",
            "city": "Moscow",
            "latitude": 55.9725990295,
            "longitude": 37.4146003723,
            "type": "FP"
        },
        {
            "country_code": "RU",
            "city": "Pskov",
            "latitude": 57.7839012146,
            "longitude": 28.3955993652,
            "type": "FP"
        },
        {
            "country_code": "RU",
            "city": "Saransk",
            "latitude": 54.1251296997,
            "longitude": 45.2122573853,
            "type": "OF"
        },
        {
            "country_code": "RU",
            "city": "St Petersburg",
            "latitude": 59.8003005981,
            "longitude": 30.2625007629,
            "type": "TP"
        },
        {
            "country_code": "SE",
            "city": "Eskilstuna",
            "latitude": 59.3511009216,
            "longitude": 16.7084007263,
            "type": "TP"
        },
        {
            "country_code": "SE",
            "city": "Stockholm",
            "latitude": 59.3544006348,
            "longitude": 17.9416999817,
            "type": "FP"
        },
        {
            "country_code": "SE",
            "city": "Sundsvall/ H\u00e4rn\u00f6sand",
            "latitude": 62.5280990601,
            "longitude": 17.4438991547,
            "type": "FP"
        },
        {
            "country_code": "SE",
            "city": "Ume\u00e5",
            "latitude": 63.7918014526,
            "longitude": 20.2828006744,
            "type": "FP"
        },
        {
            "country_code": "SK",
            "city": "Bratislava",
            "latitude": 48.1458923,
            "longitude": 17.1071373,
            "type": "FN"
        },
        {
            "country_code": "TR",
            "city": "Istanbul",
            "latitude": 40.898601532,
            "longitude": 29.3092002869,
            "type": "FP"
        },
        {
            "country_code": "UA",
            "city": "Kharkiv",
            "latitude": 49.9248008728,
            "longitude": 36.2900009155,
            "type": "FP"
        },
        {
            "country_code": "UA",
            "city": "Kiev",
            "latitude": 50.4016990662,
            "longitude": 30.4496994019,
            "type": "TP"
        },
        {
            "country_code": "UA",
            "city": "Kiev",
            "latitude": 50.3450012207,
            "longitude": 30.8946990967,
            "type": "FP"
        },
        {
            "country_code": "UA",
            "city": "Lviv",
            "latitude": 49.8125,
            "longitude": 23.9561004639,
            "type": "FP"
        },
        {
            "country_code": "UA",
            "city": "Nikolayev",
            "latitude": 47.0578994751,
            "longitude": 31.9197998047,
            "type": "FP"
        },
        {
            "country_code": "UA",
            "city": "Zaporizhia",
            "latitude": 47.8670005798,
            "longitude": 35.315700531,
            "type": "FP"
        }
    ]
}