{
    "target": "202.12.27.33",
    "measurement_filepath": "datasets/measurements/campaigns/202.12.27.33_North-Central-section_20230425/202.12.27.33_North-Central-section_1_52655636.json",
    "probes_filepath": "datasets/probes_section/North-Central-section_1.json",
    "alpha": 0.0,
    "threshold": -1,
    "noise": 0,
    "num_anycast_instances": 5,
    "anycast_instances": [
        {
            "marker": {
                "id": "PAR",
                "latitude": 49.0127983093,
                "longitude": 2.5499999523,
                "city": "Paris",
                "country_code": "FR"
            },
            "circle": {
                "id": "6817",
                "latitude": 48.7905,
                "longitude": 2.4075,
                "radius": 41.18960253152605
            }
        },
        {
            "marker": {
                "id": "ZIA",
                "latitude": 46.0214004517,
                "longitude": 11.1241998672,
                "city": "Trento",
                "country_code": "IT"
            },
            "circle": {
                "id": "1000114",
                "latitude": 48.9995,
                "longitude": 8.3775,
                "radius": 392.1963855920568
            }
        },
        {
            "marker": {
                "id": "ANR",
                "latitude": 51.1893997192,
                "longitude": 4.4602799416,
                "city": "Antwerp",
                "country_code": "BE"
            },
            "circle": {
                "id": "1002711",
                "latitude": 55.3775,
                "longitude": -3.4425,
                "radius": 703.9701466085756
            }
        },
        {
            "marker": {
                "id": "GJL",
                "latitude": 36.7951011658,
                "longitude": 5.8736100197,
                "city": "Jijel",
                "country_code": "DZ"
            },
            "circle": {
                "id": "3748",
                "latitude": 40.4915,
                "longitude": -3.6905,
                "radius": 935.5426273161094
            }
        },
        {
            "marker": {
                "id": "NAV",
                "latitude": 38.771900177,
                "longitude": 34.5345001221,
                "city": "Nev\u015fehir",
                "country_code": "TR"
            },
            "circle": {
                "id": "15968",
                "latitude": 56.3315,
                "longitude": 36.7105,
                "radius": 1960.913095611927
            }
        }
    ]
}