{
    "target": "199.7.83.42",
    "measurement_filepath": "datasets/measurements/campaigns/199.7.83.42_North-Central-section_20230425/199.7.83.42_North-Central-section_1_52655092.json",
    "probes_filepath": "datasets/probes_section/North-Central-section_1.json",
    "alpha": 0.2,
    "threshold": -1,
    "noise": 0,
    "num_anycast_instances": 28,
    "anycast_instances": [
        {
            "marker": {
                "id": "HER",
                "latitude": 35.3396987915,
                "longitude": 25.1802997589,
                "city": "Heraklion",
                "country_code": "GR"
            },
            "circle": {
                "id": "6297",
                "latitude": 35.3105,
                "longitude": 25.0715,
                "radius": 22.0262315571928
            }
        },
        {
            "marker": {
                "id": "TOJ",
                "latitude": 40.4967002869,
                "longitude": -3.4458699226,
                "city": "Madrid",
                "country_code": "ES"
            },
            "circle": {
                "id": "6604",
                "latitude": 40.4895,
                "longitude": -3.6925,
                "radius": 28.3167167449152
            }
        },
        {
            "marker": {
                "id": "NLV",
                "latitude": 47.0578994751,
                "longitude": 31.9197998047,
                "city": "Nikolayev",
                "country_code": "UA"
            },
            "circle": {
                "id": "6414",
                "latitude": 46.9795,
                "longitude": 31.9875,
                "radius": 30.277959005151203
            }
        },
        {
            "marker": {
                "id": "DTM",
                "latitude": 51.5182991028,
                "longitude": 7.6122398377,
                "city": "Dortmund",
                "country_code": "DE"
            },
            "circle": {
                "id": "7069",
                "latitude": 51.5215,
                "longitude": 7.3705,
                "radius": 32.9203896884548
            }
        },
        {
            "marker": {
                "id": "EBL",
                "latitude": 36.2375984192,
                "longitude": 43.9631996155,
                "city": "Arbil",
                "country_code": "IQ"
            },
            "circle": {
                "id": "7020",
                "latitude": 36.2375,
                "longitude": 44.0085,
                "radius": 41.543260199417205
            }
        },
        {
            "marker": {
                "id": "AMM",
                "latitude": 31.7226009369,
                "longitude": 35.9931983948,
                "city": "Amman",
                "country_code": "JO"
            },
            "circle": {
                "id": "51488",
                "latitude": 31.9715,
                "longitude": 35.9015,
                "radius": 44.734071246894395
            }
        },
        {
            "marker": {
                "id": "AOI",
                "latitude": 43.6162986755,
                "longitude": 13.3622999191,
                "city": "Ancona",
                "country_code": "IT"
            },
            "circle": {
                "id": "54353",
                "latitude": 43.5685,
                "longitude": 13.5095,
                "radius": 45.2087026664
            }
        },
        {
            "marker": {
                "id": "JAM",
                "latitude": 42.4548988342,
                "longitude": 26.3521995544,
                "city": "Yambol",
                "country_code": "BG"
            },
            "circle": {
                "id": "11518",
                "latitude": 42.1715,
                "longitude": 26.5675,
                "radius": 65.47407324228399
            }
        },
        {
            "marker": {
                "id": "VAR",
                "latitude": 43.2321014404,
                "longitude": 27.8250999451,
                "city": "Varna",
                "country_code": "BG"
            },
            "circle": {
                "id": "1003038",
                "latitude": 43.2215,
                "longitude": 27.9285,
                "radius": 67.3959227735388
            }
        },
        {
            "marker": {
                "id": "GML",
                "latitude": 50.6035003662,
                "longitude": 30.1919002533,
                "city": "Kiev",
                "country_code": "UA"
            },
            "circle": {
                "id": "52776",
                "latitude": 49.8005,
                "longitude": 30.1305,
                "radius": 131.82126203924722
            }
        },
        {
            "marker": {
                "id": "CMN",
                "latitude": 33.3675003052,
                "longitude": -7.5899701118,
                "city": "Casablanca",
                "country_code": "MA"
            },
            "circle": {
                "id": "17171",
                "latitude": 33.9975,
                "longitude": -6.8495,
                "radius": 145.2044770323
            }
        },
        {
            "marker": {
                "id": "SJJ",
                "latitude": 43.8246002197,
                "longitude": 18.3314990997,
                "city": "Sarajevo",
                "country_code": "BA"
            },
            "circle": {
                "id": "51382",
                "latitude": 44.7385,
                "longitude": 19.7115,
                "radius": 152.49692857315
            }
        },
        {
            "marker": {
                "id": "TMP",
                "latitude": 61.414100647,
                "longitude": 23.6044006348,
                "city": "Tampere/Pirkkala",
                "country_code": "FI"
            },
            "circle": {
                "id": "22068",
                "latitude": 62.2415,
                "longitude": 25.7605,
                "radius": 158.2300396229588
            }
        },
        {
            "marker": {
                "id": "BCM",
                "latitude": 46.521900177,
                "longitude": 26.9102993011,
                "city": "Bac\u0103u",
                "country_code": "RO"
            },
            "circle": {
                "id": "19798",
                "latitude": 45.1415,
                "longitude": 26.0315,
                "radius": 182.7267409095464
            }
        },
        {
            "marker": {
                "id": "CRA",
                "latitude": 44.3180999756,
                "longitude": 23.8885993958,
                "city": "Craiova",
                "country_code": "RO"
            },
            "circle": {
                "id": "6417",
                "latitude": 44.4205,
                "longitude": 26.0975,
                "radius": 177.8993028753556
            }
        },
        {
            "marker": {
                "id": "VNO",
                "latitude": 54.6341018677,
                "longitude": 25.2858009338,
                "city": "Vilnius",
                "country_code": "LT"
            },
            "circle": {
                "id": "53076",
                "latitude": 53.9005,
                "longitude": 27.5605,
                "radius": 186.0636708010528
            }
        },
        {
            "marker": {
                "id": "KLF",
                "latitude": 54.5499992371,
                "longitude": 36.3666687012,
                "city": "Kaluga",
                "country_code": "RU"
            },
            "circle": {
                "id": "54209",
                "latitude": 56.0115,
                "longitude": 37.4775,
                "radius": 205.28534391365562
            }
        },
        {
            "marker": {
                "id": "MXP",
                "latitude": 45.6305999756,
                "longitude": 8.7281103134,
                "city": "Milan",
                "country_code": "IT"
            },
            "circle": {
                "id": "12071",
                "latitude": 46.6575,
                "longitude": 6.6105,
                "radius": 209.95101393750963
            }
        },
        {
            "marker": {
                "id": "MHP",
                "latitude": 53.8644981384,
                "longitude": 27.5396995544,
                "city": "Minsk",
                "country_code": "BY"
            },
            "circle": {
                "id": "11012",
                "latitude": 55.1685,
                "longitude": 30.2075,
                "radius": 225.24612535221164
            }
        },
        {
            "marker": {
                "id": "BMA",
                "latitude": 59.3544006348,
                "longitude": 17.9416999817,
                "city": "Stockholm",
                "country_code": "SE"
            },
            "circle": {
                "id": "15614",
                "latitude": 60.6995,
                "longitude": 17.0875,
                "radius": 234.01055786184162
            }
        },
        {
            "marker": {
                "id": "MUC",
                "latitude": 48.3538017273,
                "longitude": 11.7861003876,
                "city": "Munich",
                "country_code": "DE"
            },
            "circle": {
                "id": "20127",
                "latitude": 49.7105,
                "longitude": 13.3285,
                "radius": 270.77410698638164
            }
        },
        {
            "marker": {
                "id": "BCN",
                "latitude": 41.2971000671,
                "longitude": 2.0784599781,
                "city": "Barcelona",
                "country_code": "ES"
            },
            "circle": {
                "id": "34664",
                "latitude": 42.2495,
                "longitude": 3.1205,
                "radius": 324.8541481529344
            }
        },
        {
            "marker": {
                "id": "WIE",
                "latitude": 48.1102981567,
                "longitude": 16.5697002411,
                "city": "Vienna",
                "country_code": "AT"
            },
            "circle": {
                "id": "53809",
                "latitude": 49.0815,
                "longitude": 19.6475,
                "radius": 346.9947805121001
            }
        },
        {
            "marker": {
                "id": "NHT",
                "latitude": 51.5530014038,
                "longitude": -0.418166995,
                "city": "London",
                "country_code": "GB"
            },
            "circle": {
                "id": "24544",
                "latitude": 48.0995,
                "longitude": -1.6305,
                "radius": 394.6679570587349
            }
        },
        {
            "marker": {
                "id": "PAR",
                "latitude": 49.0127983093,
                "longitude": 2.5499999523,
                "city": "Paris",
                "country_code": "FR"
            },
            "circle": {
                "id": "2783",
                "latitude": 48.7785,
                "longitude": 2.2715,
                "radius": 233.5561324540052
            }
        },
        {
            "marker": {
                "id": "BHX",
                "latitude": 52.4538993835,
                "longitude": -1.7480299473,
                "city": "Birmingham",
                "country_code": "GB"
            },
            "circle": {
                "id": "24953",
                "latitude": 55.9385,
                "longitude": -3.1905,
                "radius": 420.42750409540156
            }
        },
        {
            "marker": {
                "id": "BIX",
                "latitude": 47.4812134,
                "longitude": 19.1303031,
                "city": "Budapest",
                "country_code": "HU"
            },
            "circle": {
                "id": "6876",
                "latitude": 49.9705,
                "longitude": 23.1505,
                "radius": 445.1143937173444
            }
        },
        {
            "marker": {
                "id": "FCO",
                "latitude": 41.8045005798,
                "longitude": 12.2508001328,
                "city": "Rome",
                "country_code": "IT"
            },
            "circle": {
                "id": "51637",
                "latitude": 38.1105,
                "longitude": 15.6585,
                "radius": 546.1368972934029
            }
        }
    ]
}