{
    "target": "199.7.83.42",
    "measurement_filepath": "datasets/measurements/campaigns/199.7.83.42_North-Central-section_20230425/199.7.83.42_North-Central-section_2_52655401.json",
    "probes_filepath": "datasets/probes_section/North-Central-section_2.json",
    "alpha": 0.4,
    "threshold": -1,
    "noise": 0,
    "num_anycast_instances": 20,
    "anycast_instances": [
        {
            "marker": {
                "id": "PRG",
                "latitude": 50.1007995605,
                "longitude": 14.2600002289,
                "city": "Prague",
                "country_code": "CZ"
            },
            "circle": {
                "id": "7129",
                "latitude": 50.0715,
                "longitude": 14.5285,
                "radius": 24.035800361658403
            }
        },
        {
            "marker": {
                "id": "FLR",
                "latitude": 43.8100013733,
                "longitude": 11.2051000595,
                "city": "Firenze",
                "country_code": "IT"
            },
            "circle": {
                "id": "23303",
                "latitude": 43.8085,
                "longitude": 11.1775,
                "radius": 33.71513949461281
            }
        },
        {
            "marker": {
                "id": "EBL",
                "latitude": 36.2375984192,
                "longitude": 43.9631996155,
                "city": "Arbil",
                "country_code": "IQ"
            },
            "circle": {
                "id": "7020",
                "latitude": 36.2375,
                "longitude": 44.0085,
                "radius": 36.5454800905908
            }
        },
        {
            "marker": {
                "id": "OTP",
                "latitude": 44.5722007751,
                "longitude": 26.1021995544,
                "city": "Bucharest",
                "country_code": "RO"
            },
            "circle": {
                "id": "13034",
                "latitude": 44.4195,
                "longitude": 26.0485,
                "radius": 44.300631311118
            }
        },
        {
            "marker": {
                "id": "SJJ",
                "latitude": 43.8246002197,
                "longitude": 18.3314990997,
                "city": "Sarajevo",
                "country_code": "BA"
            },
            "circle": {
                "id": "51382",
                "latitude": 44.7385,
                "longitude": 19.7115,
                "radius": 150.29849052014438
            }
        },
        {
            "marker": {
                "id": "CMN",
                "latitude": 33.3675003052,
                "longitude": -7.5899701118,
                "city": "Casablanca",
                "country_code": "MA"
            },
            "circle": {
                "id": "30145",
                "latitude": 33.9695,
                "longitude": -6.9005,
                "radius": 181.8051788936544
            }
        },
        {
            "marker": {
                "id": "HAM",
                "latitude": 53.6304016113,
                "longitude": 9.9882297516,
                "city": "Hamburg",
                "country_code": "DE"
            },
            "circle": {
                "id": "71",
                "latitude": 53.0875,
                "longitude": 8.8305,
                "radius": 203.71694969038282
            }
        },
        {
            "marker": {
                "id": "BCN",
                "latitude": 41.2971000671,
                "longitude": 2.0784599781,
                "city": "Barcelona",
                "country_code": "ES"
            },
            "circle": {
                "id": "1004021",
                "latitude": 41.5475,
                "longitude": 2.1085,
                "radius": 208.6349250468896
            }
        },
        {
            "marker": {
                "id": "LED",
                "latitude": 59.8003005981,
                "longitude": 30.2625007629,
                "city": "St Petersburg",
                "country_code": "RU"
            },
            "circle": {
                "id": "20001",
                "latitude": 59.3675,
                "longitude": 28.6075,
                "radius": 220.0989886408096
            }
        },
        {
            "marker": {
                "id": "MHP",
                "latitude": 53.8644981384,
                "longitude": 27.5396995544,
                "city": "Minsk",
                "country_code": "BY"
            },
            "circle": {
                "id": "11012",
                "latitude": 55.1685,
                "longitude": 30.2075,
                "radius": 252.98196423050604
            }
        },
        {
            "marker": {
                "id": "LLA",
                "latitude": 65.543800354,
                "longitude": 22.1219997406,
                "city": "Lule\u00e5",
                "country_code": "SE"
            },
            "circle": {
                "id": "10696",
                "latitude": 63.1005,
                "longitude": 21.5915,
                "radius": 282.02196025959205
            }
        },
        {
            "marker": {
                "id": "ORY",
                "latitude": 48.7252998352,
                "longitude": 2.3594400883,
                "city": "Paris",
                "country_code": "FR"
            },
            "circle": {
                "id": "6443",
                "latitude": 48.6985,
                "longitude": 6.1395,
                "radius": 304.14124739574805
            }
        },
        {
            "marker": {
                "id": "ARN",
                "latitude": 59.6519012451,
                "longitude": 17.9186000824,
                "city": "Stockholm",
                "country_code": "SE"
            },
            "circle": {
                "id": "28454",
                "latitude": 59.3795,
                "longitude": 17.0295,
                "radius": 314.00999540366684
            }
        },
        {
            "marker": {
                "id": "KBP",
                "latitude": 50.3450012207,
                "longitude": 30.8946990967,
                "city": "Kiev",
                "country_code": "UA"
            },
            "circle": {
                "id": "2970",
                "latitude": 49.4175,
                "longitude": 26.9905,
                "radius": 327.218071642756
            }
        },
        {
            "marker": {
                "id": "WIE",
                "latitude": 48.1102981567,
                "longitude": 16.5697002411,
                "city": "Vienna",
                "country_code": "AT"
            },
            "circle": {
                "id": "114",
                "latitude": 48.7395,
                "longitude": 19.1375,
                "radius": 305.7135389209748
            }
        },
        {
            "marker": {
                "id": "LIN",
                "latitude": 45.445098877,
                "longitude": 9.2767400742,
                "city": "Milan",
                "country_code": "IT"
            },
            "circle": {
                "id": "956",
                "latitude": 46.1905,
                "longitude": 6.0095,
                "radius": 332.0070762838312
            }
        },
        {
            "marker": {
                "id": "DME",
                "latitude": 55.4087982178,
                "longitude": 37.9062995911,
                "city": "Moscow",
                "country_code": "RU"
            },
            "circle": {
                "id": "19684",
                "latitude": 56.3395,
                "longitude": 38.1415,
                "radius": 336.6652514962352
            }
        },
        {
            "marker": {
                "id": "BHX",
                "latitude": 52.4538993835,
                "longitude": -1.7480299473,
                "city": "Birmingham",
                "country_code": "GB"
            },
            "circle": {
                "id": "24953",
                "latitude": 55.9385,
                "longitude": -3.1905,
                "radius": 411.58182782965366
            }
        },
        {
            "marker": {
                "id": "ADB",
                "latitude": 38.2924003601,
                "longitude": 27.156999588,
                "city": "\u0130zmir",
                "country_code": "TR"
            },
            "circle": {
                "id": "13427",
                "latitude": 37.9005,
                "longitude": 23.8685,
                "radius": 499.6485604992756
            }
        },
        {
            "marker": {
                "id": "SOF",
                "latitude": 42.6966934204,
                "longitude": 23.4114360809,
                "city": "Sofia",
                "country_code": "BG"
            },
            "circle": {
                "id": "20600",
                "latitude": 40.5875,
                "longitude": 22.9775,
                "radius": 428.1976449388289
            }
        }
    ]
}