{
    "target": "192.36.148.17",
    "probes_filepath": "datasets/probes_section/North-Central-section_2.json",
    "alpha": 0.3,
    "threshold": -1,
    "noise": 0,
    "results_filepath": "datasets/results/campaigns/192.36.148.17_North-Central-section_20230425_alpha_light-factor_0.40/192.36.148.17_North-Central-section_2_52653539_0.3_-1_0.json",
    "gt_filepath": "datasets/ground-truth/root_servers/root_servers_I.json",
    "statistics": {
        "TP": 11,
        "FP": 6,
        "TN": 0,
        "FN": 16,
        "accuracy": 0.3333333333333333,
        "precision": 0.6470588235294118,
        "recall": 0.4074074074074074,
        "f1": 0.5,
        "OT": 0,
        "OF": 0
    },
    "instances": [
        {
            "country_code": "AM",
            "city": "Yerevan",
            "latitude": 40.177822,
            "longitude": 44.521246,
            "type": "FN"
        },
        {
            "country_code": "AT",
            "city": "Vienna",
            "latitude": 48.1102981567,
            "longitude": 16.5697002411,
            "type": "TP"
        },
        {
            "country_code": "BE",
            "city": "Brussels",
            "latitude": 50.4592018127,
            "longitude": 4.4538202286,
            "type": "TP"
        },
        {
            "country_code": "BE",
            "city": "Brussels",
            "latitude": 50.9014015198,
            "longitude": 4.4844398499,
            "type": "FP"
        },
        {
            "country_code": "BG",
            "city": "Sofia",
            "latitude": 42.691467,
            "longitude": 23.335126,
            "type": "FN"
        },
        {
            "country_code": "BG",
            "city": "Varna",
            "latitude": 43.2321014404,
            "longitude": 27.8250999451,
            "type": "FP"
        },
        {
            "country_code": "DE",
            "city": "Berlin",
            "latitude": 52.514029,
            "longitude": 13.41072,
            "type": "FN"
        },
        {
            "country_code": "DE",
            "city": "Frankfurt",
            "latitude": 50.119606,
            "longitude": 8.685439,
            "type": "FN"
        },
        {
            "country_code": "DK",
            "city": "Copenhagen",
            "latitude": 55.5856018066,
            "longitude": 12.1314001083,
            "type": "TP"
        },
        {
            "country_code": "EE",
            "city": "Tallinn",
            "latitude": 59.4132995605,
            "longitude": 24.8327999115,
            "type": "TP"
        },
        {
            "country_code": "FI",
            "city": "Helsinki",
            "latitude": 60.1733244,
            "longitude": 24.9410248,
            "type": "TP"
        },
        {
            "country_code": "FR",
            "city": "Paris",
            "latitude": 48.855725,
            "longitude": 2.349194,
            "type": "FN"
        },
        {
            "country_code": "GB",
            "city": "London",
            "latitude": 51.505088,
            "longitude": -0.119949,
            "type": "FN"
        },
        {
            "country_code": "IS",
            "city": "Reykjavik",
            "latitude": 64.147725,
            "longitude": -21.947503,
            "type": "FN"
        },
        {
            "country_code": "IS",
            "city": "Vestmannaeyjar",
            "latitude": 63.4243011475,
            "longitude": -20.2789001465,
            "type": "FP"
        },
        {
            "country_code": "IT",
            "city": "Milan",
            "latitude": 45.445098877,
            "longitude": 9.2767400742,
            "type": "TP"
        },
        {
            "country_code": "KS",
            "city": "Prishtina",
            "latitude": 42.5727996826,
            "longitude": 21.0358009338,
            "type": "FP"
        },
        {
            "country_code": "LT",
            "city": "Vilnius",
            "latitude": 54.755187,
            "longitude": 25.296416,
            "type": "FN"
        },
        {
            "country_code": "LU",
            "city": "Luxembourg",
            "latitude": 49.617173,
            "longitude": 6.136898,
            "type": "FN"
        },
        {
            "country_code": "LV",
            "city": "Riga",
            "latitude": 56.9235992432,
            "longitude": 23.9710998535,
            "type": "TP"
        },
        {
            "country_code": "MA",
            "city": "Casablanca",
            "latitude": 33.3675003052,
            "longitude": -7.5899701118,
            "type": "TP"
        },
        {
            "country_code": "N/A",
            "city": "N/A",
            "latitude": 40.9475,
            "longitude": 17.2785,
            "type": "FP"
        },
        {
            "country_code": "NL",
            "city": "Amsterdam",
            "latitude": 52.376051,
            "longitude": 4.902197,
            "type": "FN"
        },
        {
            "country_code": "NO",
            "city": "Oslo",
            "latitude": 60.193901062,
            "longitude": 11.100399971,
            "type": "TP"
        },
        {
            "country_code": "RO",
            "city": "Bucharest",
            "latitude": 44.432301,
            "longitude": 26.110193,
            "type": "FN"
        },
        {
            "country_code": "RS",
            "city": "Belgrade",
            "latitude": 44.810497,
            "longitude": 20.455291,
            "type": "FN"
        },
        {
            "country_code": "RU",
            "city": "Murmansk",
            "latitude": 68.7817001343,
            "longitude": 32.7508010864,
            "type": "FP"
        },
        {
            "country_code": "SE",
            "city": "Gothenburg",
            "latitude": 57.6627998352,
            "longitude": 12.279800415,
            "type": "TP"
        },
        {
            "country_code": "SE",
            "city": "Stockholm",
            "latitude": 59.6519012451,
            "longitude": 17.9186000824,
            "type": "TP"
        },
        {
            "country_code": "SE",
            "city": "Sundsvall",
            "latitude": 62.387574,
            "longitude": 17.27741,
            "type": "FN"
        },
        {
            "country_code": "SI",
            "city": "Ljubljana",
            "latitude": 46.065823,
            "longitude": 14.50024,
            "type": "FN"
        },
        {
            "country_code": "SK",
            "city": "Bratislava",
            "latitude": 48.155683,
            "longitude": 17.104361,
            "type": "FN"
        },
        {
            "country_code": "TR",
            "city": "Ankara",
            "latitude": 39.939289,
            "longitude": 32.852299,
            "type": "FN"
        }
    ]
}