{
    "target": "192.203.230.10",
    "probes_filepath": "datasets/probes_section/North-Central-section_1.json",
    "alpha": 0.2,
    "threshold": -1,
    "noise": 0,
    "results_filepath": "datasets/results/campaigns/192.203.230.10_North-Central-section_20230425_alpha_light-factor_0.35/192.203.230.10_North-Central-section_1_52647956_0.2_-1_0.json",
    "gt_filepath": "datasets/ground-truth/root_servers/root_servers_E.json",
    "statistics": {
        "TP": 33,
        "FP": 16,
        "TN": 0,
        "FN": 30,
        "accuracy": 0.4177215189873418,
        "precision": 0.673469387755102,
        "recall": 0.5238095238095238,
        "f1": 0.5892857142857143,
        "OT": 0,
        "OF": 1
    },
    "instances": [
        {
            "country_code": "AL",
            "city": "Tirana",
            "latitude": 41.3324581,
            "longitude": 19.804366,
            "type": "FN"
        },
        {
            "country_code": "AM",
            "city": "Yerevan",
            "latitude": 40.147301,
            "longitude": 44.395901,
            "type": "FN"
        },
        {
            "country_code": "AT",
            "city": "Klagenfurt",
            "latitude": 46.6247222,
            "longitude": 14.3052778,
            "type": "FN"
        },
        {
            "country_code": "AT",
            "city": "Vienna",
            "latitude": 48.1102981567,
            "longitude": 16.5697002411,
            "type": "TP"
        },
        {
            "country_code": "BA",
            "city": "Sarajevo",
            "latitude": 43.8246002197,
            "longitude": 18.3314990997,
            "type": "FP"
        },
        {
            "country_code": "BE",
            "city": "Antwerp",
            "latitude": 51.1893997192,
            "longitude": 4.4602799416,
            "type": "TP"
        },
        {
            "country_code": "BG",
            "city": "Sofia",
            "latitude": 42.6966934204,
            "longitude": 23.4114360809,
            "type": "TP"
        },
        {
            "country_code": "BG",
            "city": "Varna",
            "latitude": 43.2321014404,
            "longitude": 27.8250999451,
            "type": "FP"
        },
        {
            "country_code": "BG",
            "city": "Yambol",
            "latitude": 42.4548988342,
            "longitude": 26.3521995544,
            "type": "FP"
        },
        {
            "country_code": "CH",
            "city": "Geneva",
            "latitude": 46.238098,
            "longitude": 6.10895,
            "type": "FN"
        },
        {
            "country_code": "CH",
            "city": "Lausanne",
            "latitude": 46.5333333,
            "longitude": 6.6666667,
            "type": "FN"
        },
        {
            "country_code": "CH",
            "city": "Zurich",
            "latitude": 47.4646987915,
            "longitude": 8.5491695404,
            "type": "TP"
        },
        {
            "country_code": "CZ",
            "city": "Prague",
            "latitude": 50.1007995605,
            "longitude": 14.2600002289,
            "type": "TP"
        },
        {
            "country_code": "DE",
            "city": "Berlin",
            "latitude": 52.5597,
            "longitude": 13.2877,
            "type": "FN"
        },
        {
            "country_code": "DE",
            "city": "Dortmund",
            "latitude": 51.5228159,
            "longitude": 7.475772,
            "type": "FN"
        },
        {
            "country_code": "DE",
            "city": "Frankfurt-am-Main",
            "latitude": 50.0264015198,
            "longitude": 8.543129921,
            "type": "TP"
        },
        {
            "country_code": "DE",
            "city": "Hamburg",
            "latitude": 53.5352783203,
            "longitude": 9.8355560303,
            "type": "TP"
        },
        {
            "country_code": "DE",
            "city": "Munich",
            "latitude": 48.3538017273,
            "longitude": 11.7861003876,
            "type": "TP"
        },
        {
            "country_code": "DE",
            "city": "Siegerland",
            "latitude": 50.87481,
            "longitude": 8.02431,
            "type": "FN"
        },
        {
            "country_code": "DE",
            "city": "Stuttgart",
            "latitude": 48.7088294,
            "longitude": 9.1682655,
            "type": "FN"
        },
        {
            "country_code": "DK",
            "city": "Copenhagen",
            "latitude": 55.5856018066,
            "longitude": 12.1314001083,
            "type": "TP"
        },
        {
            "country_code": "EE",
            "city": "Tallinn",
            "latitude": 59.4133,
            "longitude": 24.8328,
            "type": "FN"
        },
        {
            "country_code": "ES",
            "city": "Albacete",
            "latitude": 38.9485015869,
            "longitude": -1.8635200262,
            "type": "FP"
        },
        {
            "country_code": "ES",
            "city": "Barcelona",
            "latitude": 41.2971000671,
            "longitude": 2.0784599781,
            "type": "TP"
        },
        {
            "country_code": "ES",
            "city": "Madrid",
            "latitude": 40.4967002869,
            "longitude": -3.4458699226,
            "type": "TP"
        },
        {
            "country_code": "ES",
            "city": "Malaga",
            "latitude": 40.536766,
            "longitude": -3.6512564,
            "type": "FN"
        },
        {
            "country_code": "FI",
            "city": "Helsinki",
            "latitude": 60.2546005249,
            "longitude": 25.0428009033,
            "type": "TP"
        },
        {
            "country_code": "FI",
            "city": "Tampere",
            "latitude": 61.5,
            "longitude": 23.75,
            "type": "FN"
        },
        {
            "country_code": "FI",
            "city": "Vaasa",
            "latitude": 63.0507011414,
            "longitude": 21.7621994019,
            "type": "FP"
        },
        {
            "country_code": "FR",
            "city": "Amiens/Glisy",
            "latitude": 49.8730010986,
            "longitude": 2.3870699406,
            "type": "TP"
        },
        {
            "country_code": "FR",
            "city": "B\u00e2le/Mulhouse",
            "latitude": 47.5895996094,
            "longitude": 7.5299100876,
            "type": "TP"
        },
        {
            "country_code": "FR",
            "city": "Lyon",
            "latitude": 45.75,
            "longitude": 4.85,
            "type": "FN"
        },
        {
            "country_code": "FR",
            "city": "Marseille",
            "latitude": 43.439271922,
            "longitude": 5.2214241028,
            "type": "TP"
        },
        {
            "country_code": "FR",
            "city": "Paris",
            "latitude": 49.0127983093,
            "longitude": 2.5499999523,
            "type": "FP"
        },
        {
            "country_code": "GB",
            "city": "Edinburgh",
            "latitude": 55.950001,
            "longitude": -3.3725,
            "type": "FN"
        },
        {
            "country_code": "GB",
            "city": "Liverpool",
            "latitude": 53.3335990906,
            "longitude": -2.8497200012,
            "type": "TP"
        },
        {
            "country_code": "GB",
            "city": "London",
            "latitude": 51.4706,
            "longitude": -0.461941,
            "type": "FN"
        },
        {
            "country_code": "GE",
            "city": "Tbilisi",
            "latitude": 41.6692008972,
            "longitude": 44.95470047,
            "type": "FP"
        },
        {
            "country_code": "GR",
            "city": "Athens",
            "latitude": 37.9364013672,
            "longitude": 23.9444999695,
            "type": "TP"
        },
        {
            "country_code": "GR",
            "city": "Thessaloniki",
            "latitude": 40.519699,
            "longitude": 22.9709,
            "type": "FN"
        },
        {
            "country_code": "HR",
            "city": "Zagreb",
            "latitude": 45.742901,
            "longitude": 16.0688,
            "type": "FN"
        },
        {
            "country_code": "HU",
            "city": "Budapest",
            "latitude": 47.4369010925,
            "longitude": 19.2555999756,
            "type": "TP"
        },
        {
            "country_code": "IE",
            "city": "Cork",
            "latitude": 51.841301,
            "longitude": -8.49111,
            "type": "FN"
        },
        {
            "country_code": "IE",
            "city": "Dublin",
            "latitude": 53.4212989807,
            "longitude": -6.270070076,
            "type": "TP"
        },
        {
            "country_code": "IL",
            "city": "Tel Aviv",
            "latitude": 32.1147003174,
            "longitude": 34.7821998596,
            "type": "TP"
        },
        {
            "country_code": "IQ",
            "city": "Arbil",
            "latitude": 36.2375984192,
            "longitude": 43.9631996155,
            "type": "FP"
        },
        {
            "country_code": "IQ",
            "city": "Baghdad",
            "latitude": 33.262501,
            "longitude": 44.2346,
            "type": "FN"
        },
        {
            "country_code": "IS",
            "city": "Reykjav\u00edk",
            "latitude": 63.9850006104,
            "longitude": -22.6056003571,
            "type": "TP"
        },
        {
            "country_code": "IT",
            "city": "Milan",
            "latitude": 45.445098877,
            "longitude": 9.2767400742,
            "type": "FP"
        },
        {
            "country_code": "IT",
            "city": "Pescara",
            "latitude": 42.4317016602,
            "longitude": 14.1810998917,
            "type": "FP"
        },
        {
            "country_code": "IT",
            "city": "Rome",
            "latitude": 41.799444,
            "longitude": 12.597222,
            "type": "TP"
        },
        {
            "country_code": "IT",
            "city": "Torino",
            "latitude": 45.2008018494,
            "longitude": 7.6496300697,
            "type": "TP"
        },
        {
            "country_code": "LB",
            "city": "Beirut",
            "latitude": 33.8209,
            "longitude": 35.4884,
            "type": "FN"
        },
        {
            "country_code": "LB",
            "city": "Rene Mouawad",
            "latitude": 34.5894444444,
            "longitude": 36.0113888889,
            "type": "FN"
        },
        {
            "country_code": "LT",
            "city": "Vilnius",
            "latitude": 54.6341018677,
            "longitude": 25.2858009338,
            "type": "TP"
        },
        {
            "country_code": "LU",
            "city": "Luxembourg City",
            "latitude": 49.626598,
            "longitude": 6.21152,
            "type": "FN"
        },
        {
            "country_code": "LV",
            "city": "Riga",
            "latitude": 56.923599,
            "longitude": 23.9711,
            "type": "FN"
        },
        {
            "country_code": "MA",
            "city": "Casablanca",
            "latitude": 33.590875,
            "longitude": -7.6142353,
            "type": "FN"
        },
        {
            "country_code": "MK",
            "city": "Skopje",
            "latitude": 41.9990607,
            "longitude": 21.3423175,
            "type": "FN"
        },
        {
            "country_code": "NL",
            "city": "Amsterdam",
            "latitude": 52.35,
            "longitude": 4.9166667,
            "type": "FN"
        },
        {
            "country_code": "NO",
            "city": "Oslo",
            "latitude": 60.193901062,
            "longitude": 11.100399971,
            "type": "FP"
        },
        {
            "country_code": "NO",
            "city": "Rygge",
            "latitude": 59.3788986206,
            "longitude": 10.7855997086,
            "type": "TP"
        },
        {
            "country_code": "PL",
            "city": "Warsaw",
            "latitude": 52.4510993958,
            "longitude": 20.6518001556,
            "type": "TP"
        },
        {
            "country_code": "PL",
            "city": "Warsaw",
            "latitude": 52.1656990051,
            "longitude": 20.9671001434,
            "type": "FP"
        },
        {
            "country_code": "PS",
            "city": "Ramallah",
            "latitude": 31.9591925,
            "longitude": 35.1798184,
            "type": "FN"
        },
        {
            "country_code": "PT",
            "city": "Lisbon",
            "latitude": 38.7812995911,
            "longitude": -9.1359195709,
            "type": "TP"
        },
        {
            "country_code": "RO",
            "city": "Bucharest",
            "latitude": 44.5722007751,
            "longitude": 26.1021995544,
            "type": "TP"
        },
        {
            "country_code": "RS",
            "city": "Belgrade",
            "latitude": 44.8184013367,
            "longitude": 20.3090991974,
            "type": "TP"
        },
        {
            "country_code": "RU",
            "city": "Kazan",
            "latitude": 55.6062011719,
            "longitude": 49.2787017822,
            "type": "OF"
        },
        {
            "country_code": "RU",
            "city": "Moscow",
            "latitude": 55.4087982178,
            "longitude": 37.9062995911,
            "type": "TP"
        },
        {
            "country_code": "RU",
            "city": "St Petersburg",
            "latitude": 59.8003005981,
            "longitude": 30.2625007629,
            "type": "FP"
        },
        {
            "country_code": "SE",
            "city": "Eskilstuna",
            "latitude": 59.3511009216,
            "longitude": 16.7084007263,
            "type": "TP"
        },
        {
            "country_code": "SE",
            "city": "Gothenburg",
            "latitude": 57.6628,
            "longitude": 12.2798,
            "type": "FN"
        },
        {
            "country_code": "SY",
            "city": "Damascus",
            "latitude": 33.4114990234,
            "longitude": 36.5155982971,
            "type": "FP"
        },
        {
            "country_code": "TN",
            "city": "Enfidha",
            "latitude": 36.8243212,
            "longitude": 10.1739441,
            "type": "FN"
        },
        {
            "country_code": "TN",
            "city": "Tabarka",
            "latitude": 36.9799995422,
            "longitude": 8.8769397736,
            "type": "FP"
        },
        {
            "country_code": "TN",
            "city": "Tunis",
            "latitude": 36.8243169,
            "longitude": 10.1739388,
            "type": "FN"
        },
        {
            "country_code": "TR",
            "city": "\u00c7orlu",
            "latitude": 41.1381988525,
            "longitude": 27.9190998077,
            "type": "TP"
        },
        {
            "country_code": "UA",
            "city": "Chernivtsi",
            "latitude": 48.2593002319,
            "longitude": 25.9808006287,
            "type": "FP"
        },
        {
            "country_code": "UA",
            "city": "Kiev",
            "latitude": 50.3450012207,
            "longitude": 30.8946990967,
            "type": "TP"
        }
    ]
}