{
    "target": "192.36.148.17",
    "measurement_filepath": "datasets/measurements/campaigns/192.36.148.17_North-Central_20230410/192.36.148.17_North-Central_100_52072179.json",
    "probes_filepath": "datasets/probes_sets/North-Central_100.json",
    "alpha": 0.1,
    "threshold": -1,
    "noise": 0,
    "num_anycast_instances": 11,
    "anycast_instances": [
        {
            "marker": {
                "id": "BQH",
                "latitude": 51.3307991028,
                "longitude": 0.0324999988,
                "city": "London",
                "country_code": "GB"
            },
            "circle": {
                "id": "15634",
                "latitude": 51.5095,
                "longitude": -0.0015,
                "radius": 29.099594769736402
            }
        },
        {
            "marker": {
                "id": "QMZ",
                "latitude": 49.9674987793,
                "longitude": 8.1472215652,
                "city": "Mainz",
                "country_code": "DE"
            },
            "circle": {
                "id": "1004810",
                "latitude": 50.0975,
                "longitude": 8.6275,
                "radius": 49.648329176922005
            }
        },
        {
            "marker": {
                "id": "HEL",
                "latitude": 60.317199707,
                "longitude": 24.963300705,
                "city": "Helsinki",
                "country_code": "FI"
            },
            "circle": {
                "id": "28294",
                "latitude": 60.1595,
                "longitude": 24.9315,
                "radius": 65.7997677686552
            }
        },
        {
            "marker": {
                "id": "EKT",
                "latitude": 59.3511009216,
                "longitude": 16.7084007263,
                "city": "Eskilstuna",
                "country_code": "SE"
            },
            "circle": {
                "id": "60336",
                "latitude": 59.3405,
                "longitude": 18.0885,
                "radius": 109.30876711517841
            }
        },
        {
            "marker": {
                "id": "BZO",
                "latitude": 46.4602012634,
                "longitude": 11.3263998032,
                "city": "Bolzano",
                "country_code": "IT"
            },
            "circle": {
                "id": "51769",
                "latitude": 45.6015,
                "longitude": 9.8905,
                "radius": 146.40112860765282
            }
        },
        {
            "marker": {
                "id": "RNN",
                "latitude": 55.0633010864,
                "longitude": 14.7595996857,
                "city": "R\u00f8nne",
                "country_code": "DK"
            },
            "circle": {
                "id": "62426",
                "latitude": 55.6705,
                "longitude": 12.5685,
                "radius": 172.66834419269682
            }
        },
        {
            "marker": {
                "id": "PLQ",
                "latitude": 55.9732017517,
                "longitude": 21.0939006805,
                "city": "Palanga",
                "country_code": "LT"
            },
            "circle": {
                "id": "53256",
                "latitude": 56.6505,
                "longitude": 23.7195,
                "radius": 180.8972874138472
            }
        },
        {
            "marker": {
                "id": "XVS",
                "latitude": 50.3258018494,
                "longitude": 3.4612600803,
                "city": "Valenciennes/Denain",
                "country_code": "FR"
            },
            "circle": {
                "id": "61935",
                "latitude": 52.0495,
                "longitude": 5.2385,
                "radius": 232.410505555004
            }
        },
        {
            "marker": {
                "id": "SJJ",
                "latitude": 43.8246002197,
                "longitude": 18.3314990997,
                "city": "Sarajevo",
                "country_code": "BA"
            },
            "circle": {
                "id": "60065",
                "latitude": 44.7595,
                "longitude": 20.4905,
                "radius": 233.67670898061283
            }
        },
        {
            "marker": {
                "id": "MUC",
                "latitude": 48.3538017273,
                "longitude": 11.7861003876,
                "city": "Munich",
                "country_code": "DE"
            },
            "circle": {
                "id": "26894",
                "latitude": 48.3095,
                "longitude": 16.3215,
                "radius": 378.6877599190112
            }
        },
        {
            "marker": {
                "id": "IEV",
                "latitude": 50.4016990662,
                "longitude": 30.4496994019,
                "city": "Kiev",
                "country_code": "UA"
            },
            "circle": {
                "id": "53978",
                "latitude": 55.9615,
                "longitude": 38.0405,
                "radius": 855.5276905042056
            }
        }
    ]
}