{
    "target": "192.203.230.10",
    "measurement_filepath": "datasets/measurements/campaigns/192.203.230.10_North-Central_20230410/192.203.230.10_North-Central_100_52070327.json",
    "probes_filepath": "datasets/probes_sets/North-Central_100.json",
    "alpha": 0.8,
    "threshold": -1,
    "noise": 0,
    "num_anycast_instances": 27,
    "anycast_instances": [
        {
            "marker": {
                "id": "PAR",
                "latitude": 49.0127983093,
                "longitude": 2.5499999523,
                "city": "Paris",
                "country_code": "FR"
            },
            "circle": {
                "id": "1003845",
                "latitude": 48.8995,
                "longitude": 2.2995,
                "radius": 40.1215993947125
            }
        },
        {
            "marker": {
                "id": "PRG",
                "latitude": 50.1007995605,
                "longitude": 14.2600002289,
                "city": "Prague",
                "country_code": "CZ"
            },
            "circle": {
                "id": "1004003",
                "latitude": 50.1285,
                "longitude": 14.4975,
                "radius": 48.1190129005495
            }
        },
        {
            "marker": {
                "id": "STR",
                "latitude": 48.6898994446,
                "longitude": 9.2219600677,
                "city": "Stuttgart",
                "country_code": "DE"
            },
            "circle": {
                "id": "22152",
                "latitude": 48.7785,
                "longitude": 9.1795,
                "radius": 55.29203462094375
            }
        },
        {
            "marker": {
                "id": "RTM",
                "latitude": 51.9569015503,
                "longitude": 4.4372200966,
                "city": "Rotterdam",
                "country_code": "NL"
            },
            "circle": {
                "id": "32321",
                "latitude": 52.3975,
                "longitude": 4.8385,
                "radius": 67.764787413862
            }
        },
        {
            "marker": {
                "id": "LPL",
                "latitude": 53.3335990906,
                "longitude": -2.8497200012,
                "city": "Liverpool",
                "country_code": "GB"
            },
            "circle": {
                "id": "61364",
                "latitude": 53.6595,
                "longitude": -1.8095,
                "radius": 81.023558557599
            }
        },
        {
            "marker": {
                "id": "KEF",
                "latitude": 63.9850006104,
                "longitude": -22.6056003571,
                "city": "Reykjav\u00edk",
                "country_code": "IS"
            },
            "circle": {
                "id": "54607",
                "latitude": 64.0505,
                "longitude": -21.9925,
                "radius": 87.804863957559
            }
        },
        {
            "marker": {
                "id": "ZRH",
                "latitude": 47.4646987915,
                "longitude": 8.5491695404,
                "city": "Zurich",
                "country_code": "CH"
            },
            "circle": {
                "id": "61988",
                "latitude": 47.4915,
                "longitude": 8.7215,
                "radius": 90.84610854774
            }
        },
        {
            "marker": {
                "id": "TOJ",
                "latitude": 40.4967002869,
                "longitude": -3.4458699226,
                "city": "Madrid",
                "country_code": "ES"
            },
            "circle": {
                "id": "33818",
                "latitude": 40.2915,
                "longitude": -3.8325,
                "radius": 117.68341696572824
            }
        },
        {
            "marker": {
                "id": "STN",
                "latitude": 51.8849983215,
                "longitude": 0.2349999994,
                "city": "London",
                "country_code": "GB"
            },
            "circle": {
                "id": "11461",
                "latitude": 51.1375,
                "longitude": -0.4795,
                "radius": 125.20078779819275
            }
        },
        {
            "marker": {
                "id": "MXP",
                "latitude": 45.6305999756,
                "longitude": 8.7281103134,
                "city": "Milan",
                "country_code": "IT"
            },
            "circle": {
                "id": "32124",
                "latitude": 45.4895,
                "longitude": 9.2385,
                "radius": 132.5216821484955
            }
        },
        {
            "marker": {
                "id": "BQT",
                "latitude": 52.1082992554,
                "longitude": 23.8980998993,
                "city": "Brest",
                "country_code": "BY"
            },
            "circle": {
                "id": "50831",
                "latitude": 53.1275,
                "longitude": 23.1685,
                "radius": 144.39533718815798
            }
        },
        {
            "marker": {
                "id": "ATH",
                "latitude": 37.9364013672,
                "longitude": 23.9444999695,
                "city": "Athens",
                "country_code": "GR"
            },
            "circle": {
                "id": "62748",
                "latitude": 37.9815,
                "longitude": 23.7595,
                "radius": 147.73124029049575
            }
        },
        {
            "marker": {
                "id": "AMS-IX",
                "latitude": 52.3747158,
                "longitude": 4.8986167,
                "city": "Amsterdam",
                "country_code": "NL"
            },
            "circle": {
                "id": "1002296",
                "latitude": 53.2505,
                "longitude": 6.5315,
                "radius": 149.77447578799476
            }
        },
        {
            "marker": {
                "id": "HEM",
                "latitude": 60.2546005249,
                "longitude": 25.0428009033,
                "city": "Helsinki",
                "country_code": "FI"
            },
            "circle": {
                "id": "54507",
                "latitude": 60.1305,
                "longitude": 24.4675,
                "radius": 159.07737302625
            }
        },
        {
            "marker": {
                "id": "BHX",
                "latitude": 52.4538993835,
                "longitude": -1.7480299473,
                "city": "Birmingham",
                "country_code": "GB"
            },
            "circle": {
                "id": "1004370",
                "latitude": 51.5175,
                "longitude": -3.1995,
                "radius": 166.42363731331102
            }
        },
        {
            "marker": {
                "id": "CKL",
                "latitude": 55.8782997131,
                "longitude": 38.0616989136,
                "city": "Moscow",
                "country_code": "RU"
            },
            "circle": {
                "id": "55348",
                "latitude": 54.6615,
                "longitude": 39.6695,
                "radius": 179.291479091816
            }
        },
        {
            "marker": {
                "id": "SOF",
                "latitude": 42.6966934204,
                "longitude": 23.4114360809,
                "city": "Sofia",
                "country_code": "BG"
            },
            "circle": {
                "id": "28731",
                "latitude": 41.9875,
                "longitude": 21.4485,
                "radius": 185.87672022424397
            }
        },
        {
            "marker": {
                "id": "NTE",
                "latitude": 47.1531982422,
                "longitude": -1.610730052,
                "city": "Nantes",
                "country_code": "FR"
            },
            "circle": {
                "id": "28185",
                "latitude": 47.2395,
                "longitude": -1.5585,
                "radius": 251.4637402750795
            }
        },
        {
            "marker": {
                "id": "LIS",
                "latitude": 38.7812995911,
                "longitude": -9.1359195709,
                "city": "Lisbon",
                "country_code": "PT"
            },
            "circle": {
                "id": "1001333",
                "latitude": 38.6885,
                "longitude": -9.3615,
                "radius": 265.5328504327905
            }
        },
        {
            "marker": {
                "id": "TRN",
                "latitude": 45.2008018494,
                "longitude": 7.6496300697,
                "city": "Torino",
                "country_code": "IT"
            },
            "circle": {
                "id": "50617",
                "latitude": 45.7605,
                "longitude": 4.8775,
                "radius": 273.801051476316
            }
        },
        {
            "marker": {
                "id": "WIE",
                "latitude": 48.1102981567,
                "longitude": 16.5697002411,
                "city": "Vienna",
                "country_code": "AT"
            },
            "circle": {
                "id": "53208",
                "latitude": 46.6115,
                "longitude": 13.8475,
                "radius": 284.16888647350174
            }
        },
        {
            "marker": {
                "id": "ODS",
                "latitude": 46.4267997742,
                "longitude": 30.6765003204,
                "city": "Odessa",
                "country_code": "UA"
            },
            "circle": {
                "id": "22642",
                "latitude": 46.4685,
                "longitude": 30.6995,
                "radius": 323.26736915717476
            }
        },
        {
            "marker": {
                "id": "HRK",
                "latitude": 49.9248008728,
                "longitude": 36.2900009155,
                "city": "Kharkiv",
                "country_code": "UA"
            },
            "circle": {
                "id": "53249",
                "latitude": 48.7415,
                "longitude": 37.5795,
                "radius": 386.10458036106246
            }
        },
        {
            "marker": {
                "id": "ARN",
                "latitude": 59.6519012451,
                "longitude": 17.9186000824,
                "city": "Stockholm",
                "country_code": "SE"
            },
            "circle": {
                "id": "55446",
                "latitude": 56.1705,
                "longitude": 15.5895,
                "radius": 421.2958304655642
            }
        },
        {
            "marker": {
                "id": "SXF",
                "latitude": 52.3800010681,
                "longitude": 13.5225000381,
                "city": "Berlin",
                "country_code": "DE"
            },
            "circle": {
                "id": "1005502",
                "latitude": 52.1185,
                "longitude": 9.7375,
                "radius": 298.1391775422445
            }
        },
        {
            "marker": {
                "id": "BCN",
                "latitude": 41.2971000671,
                "longitude": 2.0784599781,
                "city": "Barcelona",
                "country_code": "ES"
            },
            "circle": {
                "id": "60319",
                "latitude": 41.8515,
                "longitude": 3.0975,
                "radius": 474.8681805993055
            }
        },
        {
            "marker": {
                "id": "IST",
                "latitude": 40.9768981934,
                "longitude": 28.8145999908,
                "city": "Istanbul",
                "country_code": "TR"
            },
            "circle": {
                "id": "62733",
                "latitude": 39.8985,
                "longitude": 32.7785,
                "radius": 489.28418810497976
            }
        }
    ]
}