{
    "target": "202.12.27.33",
    "measurement_filepath": "datasets/measurements/campaigns/202.12.27.33_North-Central_20230410/202.12.27.33_North-Central_1000_52101293.json",
    "probes_filepath": "datasets/probes_sets/North-Central_1000.json",
    "alpha": 0.4,
    "threshold": -1,
    "noise": 0,
    "num_anycast_instances": 5,
    "anycast_instances": [
        {
            "marker": {
                "id": "ORY",
                "latitude": 48.7252998352,
                "longitude": 2.3594400883,
                "city": "Paris",
                "country_code": "FR"
            },
            "circle": {
                "id": "6573",
                "latitude": 48.9285,
                "longitude": 2.3505,
                "radius": 24.381498539789646
            }
        },
        {
            "marker": {
                "id": "QMZ",
                "latitude": 49.9674987793,
                "longitude": 8.1472215652,
                "city": "Mainz",
                "country_code": "DE"
            },
            "circle": {
                "id": "1005324",
                "latitude": 50.0895,
                "longitude": 8.5085,
                "radius": 61.46057173156319
            }
        },
        {
            "marker": {
                "id": "LTN",
                "latitude": 51.8746986389,
                "longitude": -0.3683330119,
                "city": "London",
                "country_code": "GB"
            },
            "circle": {
                "id": "6951",
                "latitude": 50.9875,
                "longitude": 2.1295,
                "radius": 239.1374810667629
            }
        },
        {
            "marker": {
                "id": "MXP",
                "latitude": 45.6305999756,
                "longitude": 8.7281103134,
                "city": "Milan",
                "country_code": "IT"
            },
            "circle": {
                "id": "62121",
                "latitude": 45.7775,
                "longitude": 4.8185,
                "radius": 340.8997600069936
            }
        },
        {
            "marker": {
                "id": "BCN",
                "latitude": 41.2971000671,
                "longitude": 2.0784599781,
                "city": "Barcelona",
                "country_code": "ES"
            },
            "circle": {
                "id": "54423",
                "latitude": 44.8285,
                "longitude": -0.6015,
                "radius": 480.47549873373754
            }
        }
    ]
}