{
    "target": "199.9.14.201",
    "measurement_filepath": "datasets/measurements/campaigns/199.9.14.201_North-Central_20230410/199.9.14.201_North-Central_500_52069589.json",
    "probes_filepath": "datasets/probes_sets/North-Central_500.json",
    "alpha": 0.0,
    "threshold": -1,
    "noise": 0,
    "num_anycast_instances": 13,
    "anycast_instances": [
        {
            "marker": {
                "id": "AMX",
                "latitude": 52.3086013794,
                "longitude": 4.7638897896,
                "city": "Amsterdam",
                "country_code": "NL"
            },
            "circle": {
                "id": "1002178",
                "latitude": 52.3715,
                "longitude": 4.9005,
                "radius": 16.491133425893
            }
        },
        {
            "marker": {
                "id": "YEO",
                "latitude": 51.0093994141,
                "longitude": -2.6388199329,
                "city": "Yeovil",
                "country_code": "GB"
            },
            "circle": {
                "id": "1003587",
                "latitude": 51.5105,
                "longitude": -0.0185,
                "radius": 195.32985095801448
            }
        },
        {
            "marker": {
                "id": "HOQ",
                "latitude": 50.2886123657,
                "longitude": 11.8563890457,
                "city": "Hof",
                "country_code": "DE"
            },
            "circle": {
                "id": "1003331",
                "latitude": 50.1075,
                "longitude": 8.6785,
                "radius": 233.0242556646445
            }
        },
        {
            "marker": {
                "id": "ENS",
                "latitude": 52.2700004578,
                "longitude": 6.8741698265,
                "city": "Enschede",
                "country_code": "NL"
            },
            "circle": {
                "id": "29226",
                "latitude": 49.5205,
                "longitude": 5.8885,
                "radius": 315.6915387954003
            }
        },
        {
            "marker": {
                "id": "HOV",
                "latitude": 62.1800003052,
                "longitude": 6.0741000175,
                "city": "\u00d8rsta",
                "country_code": "NO"
            },
            "circle": {
                "id": "1000727",
                "latitude": 57.6505,
                "longitude": 11.9285,
                "radius": 605.6334911585507
            }
        },
        {
            "marker": {
                "id": "LEJ",
                "latitude": 51.4323997498,
                "longitude": 12.2416000366,
                "city": "Leipzig",
                "country_code": "DE"
            },
            "circle": {
                "id": "14087",
                "latitude": 55.7105,
                "longitude": 12.5715,
                "radius": 481.21385008373426
            }
        },
        {
            "marker": {
                "id": "BJA",
                "latitude": 36.7120018005,
                "longitude": 5.069920063,
                "city": "B\u00e9ja\u00efa",
                "country_code": "DZ"
            },
            "circle": {
                "id": "32589",
                "latitude": 38.6615,
                "longitude": -9.0685,
                "radius": 1261.8217714648438
            }
        },
        {
            "marker": {
                "id": "FAB",
                "latitude": 51.2757987976,
                "longitude": -0.7763329744,
                "city": "Farnborough",
                "country_code": "GB"
            },
            "circle": {
                "id": "17025",
                "latitude": 48.8195,
                "longitude": 2.4085,
                "radius": 355.69258414793944
            }
        },
        {
            "marker": {
                "id": "PIK",
                "latitude": 55.5093994141,
                "longitude": -4.5866699219,
                "city": "Glasgow",
                "country_code": "GB"
            },
            "circle": {
                "id": "1000959",
                "latitude": 64.0715,
                "longitude": -22.0205,
                "radius": 1356.7647313214402
            }
        },
        {
            "marker": {
                "id": "DBV",
                "latitude": 42.5614013672,
                "longitude": 18.2681999207,
                "city": "Dubrovnik",
                "country_code": "HR"
            },
            "circle": {
                "id": "1002236",
                "latitude": 40.1705,
                "longitude": 44.4885,
                "radius": 2197.669872306032
            }
        },
        {
            "marker": {
                "id": "SVJ",
                "latitude": 68.2433013916,
                "longitude": 14.6691999435,
                "city": "Svolv\u00e6r",
                "country_code": "NO"
            },
            "circle": {
                "id": "54978",
                "latitude": 60.0415,
                "longitude": 30.3505,
                "radius": 1182.1971944125019
            }
        },
        {
            "marker": {
                "id": "TJK",
                "latitude": 40.3074302673,
                "longitude": 36.3674087524,
                "city": "Tokat",
                "country_code": "TR"
            },
            "circle": {
                "id": "29596",
                "latitude": 50.4005,
                "longitude": 30.5715,
                "radius": 1212.1888441254514
            }
        },
        {
            "marker": {
                "id": "IGT",
                "latitude": 43.3222999573,
                "longitude": 45.0125999451,
                "city": "Magas",
                "country_code": "RU"
            },
            "circle": {
                "id": "1003639",
                "latitude": 55.7515,
                "longitude": 37.6185,
                "radius": 1481.42593016929
            }
        }
    ]
}