{
    "target": "192.33.4.12",
    "probes_filepath": "datasets/probes_section/North-Central-section_1.json",
    "alpha": 0.0,
    "threshold": -1,
    "noise": 0,
    "results_filepath": "datasets/results/campaigns/192.33.4.12_North-Central-section_20230425_alpha_light-factor_0.25/192.33.4.12_North-Central-section_1_52641149_0.0_-1_0.json",
    "gt_filepath": "datasets/ground-truth/root_servers/root_servers_C.json",
    "statistics": {
        "TP": 2,
        "FP": 20,
        "TN": 0,
        "FN": 2,
        "accuracy": 0.08333333333333333,
        "precision": 0.09090909090909091,
        "recall": 0.5,
        "f1": 0.15384615384615385,
        "OT": 0,
        "OF": 0
    },
    "instances": [
        {
            "country_code": "BG",
            "city": "Sofia",
            "latitude": 42.6966934204,
            "longitude": 23.4114360809,
            "type": "FP"
        },
        {
            "country_code": "BY",
            "city": "Minsk",
            "latitude": 53.8644981384,
            "longitude": 27.5396995544,
            "type": "FP"
        },
        {
            "country_code": "CZ",
            "city": "P\u0159erov",
            "latitude": 49.4258003235,
            "longitude": 17.4046993256,
            "type": "FP"
        },
        {
            "country_code": "DE",
            "city": "Egelsbach",
            "latitude": 49.9599990845,
            "longitude": 8.6458330154,
            "type": "TP"
        },
        {
            "country_code": "DE",
            "city": "Fritzlar",
            "latitude": 51.1146,
            "longitude": 9.286,
            "type": "FP"
        },
        {
            "country_code": "DE",
            "city": "Magdeburg",
            "latitude": 52.0736122131,
            "longitude": 11.6263885498,
            "type": "FP"
        },
        {
            "country_code": "DE",
            "city": "M\u00fcnster",
            "latitude": 52.134601593,
            "longitude": 7.6848301888,
            "type": "FP"
        },
        {
            "country_code": "DK",
            "city": "Esbjerg",
            "latitude": 55.5259017944,
            "longitude": 8.5534000397,
            "type": "FP"
        },
        {
            "country_code": "ES",
            "city": "Madrid",
            "latitude": 40.4167754,
            "longitude": -3.7037902,
            "type": "FN"
        },
        {
            "country_code": "ES",
            "city": "Salamanca",
            "latitude": 40.9520988464,
            "longitude": -5.5019898415,
            "type": "FP"
        },
        {
            "country_code": "ES",
            "city": "San Javier",
            "latitude": 37.7750015259,
            "longitude": -0.8123890162,
            "type": "FP"
        },
        {
            "country_code": "FR",
            "city": "Dijon/Longvic",
            "latitude": 47.268901825,
            "longitude": 5.0900001526,
            "type": "FP"
        },
        {
            "country_code": "FR",
            "city": "Dole/Tavaux",
            "latitude": 47.0390014648,
            "longitude": 5.4272499084,
            "type": "FP"
        },
        {
            "country_code": "FR",
            "city": "Le Touquet-Paris-Plage",
            "latitude": 50.5173988342,
            "longitude": 1.6205899715,
            "type": "FP"
        },
        {
            "country_code": "FR",
            "city": "Paris",
            "latitude": 48.856614,
            "longitude": 2.3522219,
            "type": "FN"
        },
        {
            "country_code": "FR",
            "city": "Reims/Champagne",
            "latitude": 49.3100013733,
            "longitude": 4.0500001907,
            "type": "FP"
        },
        {
            "country_code": "FR",
            "city": "Vannes/Meucon",
            "latitude": 47.7233009338,
            "longitude": -2.7185599804,
            "type": "FP"
        },
        {
            "country_code": "GB",
            "city": "Dundee",
            "latitude": 56.4524993896,
            "longitude": -3.0258300304,
            "type": "FP"
        },
        {
            "country_code": "GB",
            "city": "Manston",
            "latitude": 51.3422012329,
            "longitude": 1.3461099863,
            "type": "FP"
        },
        {
            "country_code": "IT",
            "city": "Aosta",
            "latitude": 45.7384986877,
            "longitude": 7.3687200546,
            "type": "FP"
        },
        {
            "country_code": "PT",
            "city": "Lisbon",
            "latitude": 38.7812995911,
            "longitude": -9.1359195709,
            "type": "FP"
        },
        {
            "country_code": "SE",
            "city": "Norrk\u00f6ping",
            "latitude": 58.5862998962,
            "longitude": 16.2506008148,
            "type": "FP"
        },
        {
            "country_code": "SK",
            "city": "Bratislava",
            "latitude": 48.1702003479,
            "longitude": 17.2126998901,
            "type": "TP"
        },
        {
            "country_code": "UA",
            "city": "Kiev",
            "latitude": 50.3450012207,
            "longitude": 30.8946990967,
            "type": "FP"
        }
    ]
}