{
    "target": "192.58.128.30",
    "measurement_filepath": "datasets/measurements/campaigns/192.58.128.30_North-Central_20230410/192.58.128.30_North-Central_500_52096939.json",
    "probes_filepath": "datasets/probes_sets/North-Central_500.json",
    "alpha": 0.4,
    "threshold": -1,
    "noise": 0,
    "num_anycast_instances": 26,
    "anycast_instances": [
        {
            "marker": {
                "id": "LIS",
                "latitude": 38.7812995911,
                "longitude": -9.1359195709,
                "city": "Lisbon",
                "country_code": "PT"
            },
            "circle": {
                "id": "1004057",
                "latitude": 38.7305,
                "longitude": -9.1405,
                "radius": 22.3038993317924
            }
        },
        {
            "marker": {
                "id": "VNO",
                "latitude": 54.6341018677,
                "longitude": 25.2858009338,
                "city": "Vilnius",
                "country_code": "LT"
            },
            "circle": {
                "id": "1002006",
                "latitude": 54.6405,
                "longitude": 25.3075,
                "radius": 23.5776575273428
            }
        },
        {
            "marker": {
                "id": "KLU",
                "latitude": 46.6425018311,
                "longitude": 14.3376998901,
                "city": "Klagenfurt am W\u00f6rthersee",
                "country_code": "AT"
            },
            "circle": {
                "id": "6827",
                "latitude": 46.6205,
                "longitude": 14.2685,
                "radius": 33.5414397444476
            }
        },
        {
            "marker": {
                "id": "SOF",
                "latitude": 42.6966934204,
                "longitude": 23.4114360809,
                "city": "Sofia",
                "country_code": "BG"
            },
            "circle": {
                "id": "6897",
                "latitude": 42.6605,
                "longitude": 23.3715,
                "radius": 35.6898724154588
            }
        },
        {
            "marker": {
                "id": "HEL",
                "latitude": 60.317199707,
                "longitude": 24.963300705,
                "city": "Helsinki",
                "country_code": "FI"
            },
            "circle": {
                "id": "6330",
                "latitude": 60.2075,
                "longitude": 24.8985,
                "radius": 37.34592595345081
            }
        },
        {
            "marker": {
                "id": "LED",
                "latitude": 59.8003005981,
                "longitude": 30.2625007629,
                "city": "St Petersburg",
                "country_code": "RU"
            },
            "circle": {
                "id": "15943",
                "latitude": 59.9485,
                "longitude": 30.2795,
                "radius": 42.6413400145796
            }
        },
        {
            "marker": {
                "id": "QMZ",
                "latitude": 49.9674987793,
                "longitude": 8.1472215652,
                "city": "Mainz",
                "country_code": "DE"
            },
            "circle": {
                "id": "1004810",
                "latitude": 50.0975,
                "longitude": 8.6275,
                "radius": 54.632138957205605
            }
        },
        {
            "marker": {
                "id": "WIE",
                "latitude": 48.1102981567,
                "longitude": 16.5697002411,
                "city": "Vienna",
                "country_code": "AT"
            },
            "circle": {
                "id": "11226",
                "latitude": 48.2105,
                "longitude": 16.3685,
                "radius": 55.9321589720768
            }
        },
        {
            "marker": {
                "id": "SXF",
                "latitude": 52.3800010681,
                "longitude": 13.5225000381,
                "city": "Berlin",
                "country_code": "DE"
            },
            "circle": {
                "id": "1001869",
                "latitude": 52.4715,
                "longitude": 13.3705,
                "radius": 57.4939577612736
            }
        },
        {
            "marker": {
                "id": "KBP",
                "latitude": 50.3450012207,
                "longitude": 30.8946990967,
                "city": "Kiev",
                "country_code": "UA"
            },
            "circle": {
                "id": "12629",
                "latitude": 50.4615,
                "longitude": 30.3885,
                "radius": 60.290901477430396
            }
        },
        {
            "marker": {
                "id": "WMI",
                "latitude": 52.4510993958,
                "longitude": 20.6518001556,
                "city": "Warsaw",
                "country_code": "PL"
            },
            "circle": {
                "id": "1004056",
                "latitude": 52.2305,
                "longitude": 21.0095,
                "radius": 60.514606609590004
            }
        },
        {
            "marker": {
                "id": "MZM",
                "latitude": 49.0717010498,
                "longitude": 6.1316699982,
                "city": "Metz/Frescaty",
                "country_code": "FR"
            },
            "circle": {
                "id": "7033",
                "latitude": 49.5785,
                "longitude": 6.2285,
                "radius": 62.48951940591081
            }
        },
        {
            "marker": {
                "id": "DME",
                "latitude": 55.4087982178,
                "longitude": 37.9062995911,
                "city": "Moscow",
                "country_code": "RU"
            },
            "circle": {
                "id": "23082",
                "latitude": 55.7385,
                "longitude": 37.7215,
                "radius": 64.09322918073599
            }
        },
        {
            "marker": {
                "id": "BVA",
                "latitude": 49.4543991089,
                "longitude": 2.1127800941,
                "city": "Beauvais/Till\u00e9",
                "country_code": "FR"
            },
            "circle": {
                "id": "52786",
                "latitude": 48.9305,
                "longitude": 2.3615,
                "radius": 83.6096582380444
            }
        },
        {
            "marker": {
                "id": "TRN",
                "latitude": 45.2008018494,
                "longitude": 7.6496300697,
                "city": "Torino",
                "country_code": "IT"
            },
            "circle": {
                "id": "11880",
                "latitude": 44.3775,
                "longitude": 7.5415,
                "radius": 93.16170549333201
            }
        },
        {
            "marker": {
                "id": "MXP",
                "latitude": 45.6305999756,
                "longitude": 8.7281103134,
                "city": "Milan",
                "country_code": "IT"
            },
            "circle": {
                "id": "33333",
                "latitude": 45.6185,
                "longitude": 9.9285,
                "radius": 108.44332624742401
            }
        },
        {
            "marker": {
                "id": "GLZ",
                "latitude": 51.567401886,
                "longitude": 4.9318299294,
                "city": "Breda",
                "country_code": "NL"
            },
            "circle": {
                "id": "1005019",
                "latitude": 52.3915,
                "longitude": 4.6575,
                "radius": 108.7178162219688
            }
        },
        {
            "marker": {
                "id": "STN",
                "latitude": 51.8849983215,
                "longitude": 0.2349999994,
                "city": "London",
                "country_code": "GB"
            },
            "circle": {
                "id": "1005027",
                "latitude": 51.5405,
                "longitude": -0.6715,
                "radius": 121.39334113866681
            }
        },
        {
            "marker": {
                "id": "PRG",
                "latitude": 50.1007995605,
                "longitude": 14.2600002289,
                "city": "Prague",
                "country_code": "CZ"
            },
            "circle": {
                "id": "62760",
                "latitude": 49.9875,
                "longitude": 14.7505,
                "radius": 137.72549462408242
            }
        },
        {
            "marker": {
                "id": "NRK",
                "latitude": 58.5862998962,
                "longitude": 16.2506008148,
                "city": "Norrk\u00f6ping",
                "country_code": "SE"
            },
            "circle": {
                "id": "14012",
                "latitude": 59.4385,
                "longitude": 18.0675,
                "radius": 145.7022524295632
            }
        },
        {
            "marker": {
                "id": "AMM",
                "latitude": 31.7226009369,
                "longitude": 35.9931983948,
                "city": "Amman",
                "country_code": "JO"
            },
            "circle": {
                "id": "52266",
                "latitude": 32.1805,
                "longitude": 34.9105,
                "radius": 158.17553735409442
            }
        },
        {
            "marker": {
                "id": "STR",
                "latitude": 48.6898994446,
                "longitude": 9.2219600677,
                "city": "Stuttgart",
                "country_code": "DE"
            },
            "circle": {
                "id": "13492",
                "latitude": 47.4185,
                "longitude": 9.3415,
                "radius": 175.6550565347676
            }
        },
        {
            "marker": {
                "id": "BMA",
                "latitude": 59.3544006348,
                "longitude": 17.9416999817,
                "city": "Stockholm",
                "country_code": "SE"
            },
            "circle": {
                "id": "33877",
                "latitude": 60.6805,
                "longitude": 17.0905,
                "radius": 231.3041514680008
            }
        },
        {
            "marker": {
                "id": "MMK",
                "latitude": 68.7817001343,
                "longitude": 32.7508010864,
                "city": "Murmansk",
                "country_code": "RU"
            },
            "circle": {
                "id": "10688",
                "latitude": 67.3615,
                "longitude": 26.6315,
                "radius": 312.7762295220136
            }
        },
        {
            "marker": {
                "id": "BHX",
                "latitude": 52.4538993835,
                "longitude": -1.7480299473,
                "city": "Birmingham",
                "country_code": "GB"
            },
            "circle": {
                "id": "53154",
                "latitude": 53.5995,
                "longitude": -6.1805,
                "radius": 355.9335723153028
            }
        },
        {
            "marker": {
                "id": "DNK",
                "latitude": 48.3572006226,
                "longitude": 35.1006011963,
                "city": "Dnipropetrovsk",
                "country_code": "UA"
            },
            "circle": {
                "id": "6930",
                "latitude": 46.4775,
                "longitude": 30.7285,
                "radius": 405.630587787404
            }
        }
    ]
}