{
    "target": "199.9.14.201",
    "probes_filepath": "datasets/probes_section/North-Central-section_2.json",
    "alpha": 0.1,
    "threshold": -1,
    "noise": 0,
    "results_filepath": "datasets/results/campaigns/199.9.14.201_North-Central-section_20230425_alpha_light-factor_0.25/199.9.14.201_North-Central-section_2_52640650_0.1_-1_0.json",
    "gt_filepath": "datasets/ground-truth/root_servers/root_servers_B.json",
    "statistics": {
        "TP": 0,
        "FP": 8,
        "TN": 0,
        "FN": 1,
        "accuracy": 0.0,
        "precision": 0.0,
        "recall": 0.0,
        "f1": 0,
        "OT": 0,
        "OF": 1
    },
    "instances": [
        {
            "country_code": "DE",
            "city": "Hamburg",
            "latitude": 53.5352783203,
            "longitude": 9.8355560303,
            "type": "FP"
        },
        {
            "country_code": "DE",
            "city": "Hannover",
            "latitude": 52.461101532,
            "longitude": 9.6850795746,
            "type": "FP"
        },
        {
            "country_code": "DK",
            "city": "Copenhagen",
            "latitude": 55.5856018066,
            "longitude": 12.1314001083,
            "type": "FP"
        },
        {
            "country_code": "FR",
            "city": "Paris",
            "latitude": 48.7252998352,
            "longitude": 2.3594400883,
            "type": "FP"
        },
        {
            "country_code": "GB",
            "city": "Glasgow",
            "latitude": 55.8718986511,
            "longitude": -4.4330601692,
            "type": "FP"
        },
        {
            "country_code": "HU",
            "city": "Budapest",
            "latitude": 47.4369010925,
            "longitude": 19.2555999756,
            "type": "FP"
        },
        {
            "country_code": "NL",
            "city": "Amsterdam",
            "latitude": 52.366,
            "longitude": 4.894,
            "type": "FN"
        },
        {
            "country_code": "RU",
            "city": "Archangelsk",
            "latitude": 64.6003036499,
            "longitude": 40.7167015076,
            "type": "FP"
        },
        {
            "country_code": "RU",
            "city": "St Petersburg",
            "latitude": 59.8003005981,
            "longitude": 30.2625007629,
            "type": "FP"
        },
        {
            "country_code": "SN",
            "city": "Dakar",
            "latitude": 14.7397003174,
            "longitude": -17.4902000427,
            "type": "OF"
        }
    ]
}