{
    "target": "192.33.4.12",
    "probes_filepath": "datasets/probes_sets/North-Central_300.json",
    "alpha": 0.0,
    "threshold": -1,
    "noise": 0,
    "results_filepath": "datasets/results/campaigns/192.33.4.12_North-Central_20230410_alpha_light-factor_0.30/192.33.4.12_North-Central_300_52069826_0.0_-1_0.json",
    "gt_filepath": "datasets/ground-truth/root_servers/root_servers_C.json",
    "statistics": {
        "TP": 3,
        "FP": 8,
        "TN": 0,
        "FN": 1,
        "accuracy": 0.25,
        "precision": 0.2727272727272727,
        "recall": 0.75,
        "f1": 0.39999999999999997,
        "OT": 0,
        "OF": 0
    },
    "instances": [
        {
            "country_code": "BG",
            "city": "Burgas",
            "latitude": 42.5695991516,
            "longitude": 27.5151996613,
            "type": "FP"
        },
        {
            "country_code": "CZ",
            "city": "Karlovy Vary",
            "latitude": 50.202999115,
            "longitude": 12.9149999619,
            "type": "FP"
        },
        {
            "country_code": "DE",
            "city": "Egelsbach",
            "latitude": 49.9599990845,
            "longitude": 8.6458330154,
            "type": "TP"
        },
        {
            "country_code": "ES",
            "city": "Madrid",
            "latitude": 40.4167754,
            "longitude": -3.7037902,
            "type": "FN"
        },
        {
            "country_code": "ES",
            "city": "Melilla",
            "latitude": 35.279800415,
            "longitude": -2.9562599659,
            "type": "FP"
        },
        {
            "country_code": "FR",
            "city": "Bordeaux/M\u00e9rignac",
            "latitude": 44.8283004761,
            "longitude": -0.7155560255,
            "type": "FP"
        },
        {
            "country_code": "FR",
            "city": "Pontoise",
            "latitude": 49.0965995789,
            "longitude": 2.0408298969,
            "type": "TP"
        },
        {
            "country_code": "HU",
            "city": "Gy\u0151r",
            "latitude": 47.6244010925,
            "longitude": 17.8136005402,
            "type": "TP"
        },
        {
            "country_code": "IT",
            "city": "Bolzano",
            "latitude": 46.4602012634,
            "longitude": 11.3263998032,
            "type": "FP"
        },
        {
            "country_code": "LU",
            "city": "Luxembourg",
            "latitude": 49.6265983582,
            "longitude": 6.211520195,
            "type": "FP"
        },
        {
            "country_code": "RO",
            "city": "Arad",
            "latitude": 46.1766014099,
            "longitude": 21.2619991302,
            "type": "FP"
        },
        {
            "country_code": "SE",
            "city": "V\u00e4xj\u00f6",
            "latitude": 56.9291000366,
            "longitude": 14.7279996872,
            "type": "FP"
        }
    ]
}