{
    "target": "199.7.91.13",
    "probes_filepath": "datasets/probes_sets/North-Central_300.json",
    "alpha": 0.1,
    "threshold": -1,
    "noise": 0,
    "results_filepath": "datasets/results/campaigns/199.7.91.13_North-Central_20230410_alpha_light-factor_0.30/199.7.91.13_North-Central_300_52070177_0.1_-1_0.json",
    "gt_filepath": "datasets/ground-truth/root_servers/root_servers_D.json",
    "statistics": {
        "TP": 20,
        "FP": 11,
        "TN": 0,
        "FN": 24,
        "accuracy": 0.36363636363636365,
        "precision": 0.6451612903225806,
        "recall": 0.45454545454545453,
        "f1": 0.5333333333333333,
        "OT": 1,
        "OF": 0
    },
    "instances": [
        {
            "country_code": "AT",
            "city": "Feldkirch",
            "latitude": 47.2375671,
            "longitude": 9.5981724,
            "type": "FN"
        },
        {
            "country_code": "AT",
            "city": "Klagenfurt",
            "latitude": 46.62794,
            "longitude": 14.30899,
            "type": "FN"
        },
        {
            "country_code": "AT",
            "city": "Salzburg",
            "latitude": 47.80949,
            "longitude": 13.05501,
            "type": "FN"
        },
        {
            "country_code": "AT",
            "city": "Vienna",
            "latitude": 48.1102981567,
            "longitude": 16.5697002411,
            "type": "TP"
        },
        {
            "country_code": "BE",
            "city": "Li\u00e8ge",
            "latitude": 50.6374015808,
            "longitude": 5.4432201385,
            "type": "FP"
        },
        {
            "country_code": "BG",
            "city": "Sofia",
            "latitude": 42.6966934204,
            "longitude": 23.4114360809,
            "type": "TP"
        },
        {
            "country_code": "BY",
            "city": "Gomel",
            "latitude": 52.5270004272,
            "longitude": 31.0167007446,
            "type": "FP"
        },
        {
            "country_code": "BY",
            "city": "Minsk",
            "latitude": 53.8824996948,
            "longitude": 28.0307006836,
            "type": "FP"
        },
        {
            "country_code": "CH",
            "city": "Geneva",
            "latitude": 46.2043907,
            "longitude": 6.1431577,
            "type": "FN"
        },
        {
            "country_code": "CH",
            "city": "Lausanne",
            "latitude": 46.5196535,
            "longitude": 6.6322734,
            "type": "FN"
        },
        {
            "country_code": "CH",
            "city": "Zurich",
            "latitude": 47.4646987915,
            "longitude": 8.5491695404,
            "type": "TP"
        },
        {
            "country_code": "CZ",
            "city": "Pardubice",
            "latitude": 50.0134010315,
            "longitude": 15.7385997772,
            "type": "TP"
        },
        {
            "country_code": "DE",
            "city": "Berlin",
            "latitude": 52.5200066,
            "longitude": 13.404954,
            "type": "FN"
        },
        {
            "country_code": "DE",
            "city": "Cottbus",
            "latitude": 51.8894424438,
            "longitude": 14.5319442749,
            "type": "FP"
        },
        {
            "country_code": "DE",
            "city": "Dortmund",
            "latitude": 51.5142273,
            "longitude": 7.4652789,
            "type": "FN"
        },
        {
            "country_code": "DE",
            "city": "Egelsbach",
            "latitude": 49.9599990845,
            "longitude": 8.6458330154,
            "type": "TP"
        },
        {
            "country_code": "DE",
            "city": "Hamburg",
            "latitude": 53.5437641,
            "longitude": 10.0099133,
            "type": "FN"
        },
        {
            "country_code": "DE",
            "city": "Munich",
            "latitude": 48.3538017273,
            "longitude": 11.7861003876,
            "type": "FP"
        },
        {
            "country_code": "DE",
            "city": "Stuttgart",
            "latitude": 48.7784485,
            "longitude": 9.1800132,
            "type": "FN"
        },
        {
            "country_code": "EE",
            "city": "Tallinn",
            "latitude": 59.4132995605,
            "longitude": 24.8327999115,
            "type": "TP"
        },
        {
            "country_code": "ES",
            "city": "Barcelona",
            "latitude": 41.3850639,
            "longitude": 2.1734035,
            "type": "FN"
        },
        {
            "country_code": "ES",
            "city": "Madrid",
            "latitude": 40.3707008362,
            "longitude": -3.7851400375,
            "type": "TP"
        },
        {
            "country_code": "ES",
            "city": "Malaga",
            "latitude": 36.7213028,
            "longitude": -4.4216366,
            "type": "FN"
        },
        {
            "country_code": "ES",
            "city": "Sevilla",
            "latitude": 37.4179992676,
            "longitude": -5.8931097984,
            "type": "FP"
        },
        {
            "country_code": "FI",
            "city": "Tampere",
            "latitude": 61.5,
            "longitude": 23.766667,
            "type": "FN"
        },
        {
            "country_code": "FR",
            "city": "Beaune/Challanges",
            "latitude": 47.0059013367,
            "longitude": 4.8934202194,
            "type": "FP"
        },
        {
            "country_code": "FR",
            "city": "Lyon",
            "latitude": 45.764043,
            "longitude": 4.835659,
            "type": "FN"
        },
        {
            "country_code": "FR",
            "city": "Marseille",
            "latitude": 43.296482,
            "longitude": 5.36978,
            "type": "FN"
        },
        {
            "country_code": "FR",
            "city": "Paris",
            "latitude": 49.0127983093,
            "longitude": 2.5499999523,
            "type": "TP"
        },
        {
            "country_code": "GB",
            "city": "Edinburgh",
            "latitude": 55.953252,
            "longitude": -3.188267,
            "type": "FN"
        },
        {
            "country_code": "GB",
            "city": "Leeds",
            "latitude": 53.8007554,
            "longitude": -1.5490774,
            "type": "FN"
        },
        {
            "country_code": "GB",
            "city": "Manchester",
            "latitude": 53.3536987305,
            "longitude": -2.2749500275,
            "type": "TP"
        },
        {
            "country_code": "GB",
            "city": "Southend",
            "latitude": 51.5713996887,
            "longitude": 0.695555985,
            "type": "TP"
        },
        {
            "country_code": "GR",
            "city": "Athens",
            "latitude": 37.983917,
            "longitude": 23.7293599,
            "type": "FN"
        },
        {
            "country_code": "GR",
            "city": "Nea Anchialos",
            "latitude": 39.2196006775,
            "longitude": 22.7943000793,
            "type": "FP"
        },
        {
            "country_code": "HR",
            "city": "Zagreb",
            "latitude": 45.7429008484,
            "longitude": 16.0687999725,
            "type": "TP"
        },
        {
            "country_code": "IE",
            "city": "Dublin",
            "latitude": 53.3498053,
            "longitude": -6.2603097,
            "type": "FN"
        },
        {
            "country_code": "IS",
            "city": "Reykjavik",
            "latitude": 64.133333,
            "longitude": -21.933333,
            "type": "FN"
        },
        {
            "country_code": "IT",
            "city": "Rome",
            "latitude": 41.7994003296,
            "longitude": 12.5949001312,
            "type": "TP"
        },
        {
            "country_code": "IT",
            "city": "Rome",
            "latitude": 41.8045005798,
            "longitude": 12.2508001328,
            "type": "FP"
        },
        {
            "country_code": "IT",
            "city": "Turin",
            "latitude": 45.070312,
            "longitude": 7.6868565,
            "type": "FN"
        },
        {
            "country_code": "LU",
            "city": "Luxembourg City",
            "latitude": 49.611621,
            "longitude": 6.1319346,
            "type": "FN"
        },
        {
            "country_code": "LV",
            "city": "Riga",
            "latitude": 56.9496487,
            "longitude": 24.1051864,
            "type": "FN"
        },
        {
            "country_code": "MK",
            "city": "Ohrid",
            "latitude": 41.1800003052,
            "longitude": 20.7423000336,
            "type": "TP"
        },
        {
            "country_code": "MK",
            "city": "Skopje",
            "latitude": 41.9960924,
            "longitude": 21.4316495,
            "type": "FN"
        },
        {
            "country_code": "NL",
            "city": "Arnhem",
            "latitude": 52.0606002808,
            "longitude": 5.8730602264,
            "type": "TP"
        },
        {
            "country_code": "NL",
            "city": "Uden",
            "latitude": 51.6563987732,
            "longitude": 5.7086100578,
            "type": "FP"
        },
        {
            "country_code": "NO",
            "city": "Rygge",
            "latitude": 59.3788986206,
            "longitude": 10.7855997086,
            "type": "TP"
        },
        {
            "country_code": "NO",
            "city": "Trondheim",
            "latitude": 63.4578018188,
            "longitude": 10.9239997864,
            "type": "TP"
        },
        {
            "country_code": "PL",
            "city": "Warsaw",
            "latitude": 52.4510993958,
            "longitude": 20.6518001556,
            "type": "TP"
        },
        {
            "country_code": "PT",
            "city": "Lisbon",
            "latitude": 38.7812995911,
            "longitude": -9.1359195709,
            "type": "TP"
        },
        {
            "country_code": "RO",
            "city": "Bucharest",
            "latitude": 44.4267674,
            "longitude": 26.1025384,
            "type": "FN"
        },
        {
            "country_code": "RS",
            "city": "Belgrade",
            "latitude": 44.8184013367,
            "longitude": 20.3090991974,
            "type": "TP"
        },
        {
            "country_code": "RU",
            "city": "St Petersburg",
            "latitude": 59.8003005981,
            "longitude": 30.2625007629,
            "type": "FP"
        },
        {
            "country_code": "SE",
            "city": "Stockholm",
            "latitude": 59.6519012451,
            "longitude": 17.9186000824,
            "type": "TP"
        },
        {
            "country_code": "UA",
            "city": "Kiev",
            "latitude": 50.3450012207,
            "longitude": 30.8946990967,
            "type": "OT"
        }
    ]
}