{
    "target": "199.7.91.13",
    "probes_filepath": "datasets/probes_sets/North-Central_1000.json",
    "alpha": 0.9,
    "threshold": -1,
    "noise": 0,
    "results_filepath": "datasets/results/campaigns/199.7.91.13_North-Central_20230410_alpha_light-factor_0.30/199.7.91.13_North-Central_1000_52070235_0.9_-1_0.json",
    "gt_filepath": "datasets/ground-truth/root_servers/root_servers_D.json",
    "statistics": {
        "TP": 29,
        "FP": 10,
        "TN": 0,
        "FN": 14,
        "accuracy": 0.5471698113207547,
        "precision": 0.7435897435897436,
        "recall": 0.6744186046511628,
        "f1": 0.7073170731707318,
        "OT": 3,
        "OF": 1
    },
    "instances": [
        {
            "country_code": "AL",
            "city": "Tirana",
            "latitude": 41.4146995544,
            "longitude": 19.7206001282,
            "type": "TP"
        },
        {
            "country_code": "AM",
            "city": "Yerevan",
            "latitude": 40.1473007202,
            "longitude": 44.3959007263,
            "type": "OT"
        },
        {
            "country_code": "AT",
            "city": "Feldkirch",
            "latitude": 47.2375671,
            "longitude": 9.5981724,
            "type": "FN"
        },
        {
            "country_code": "AT",
            "city": "Klagenfurt",
            "latitude": 46.62794,
            "longitude": 14.30899,
            "type": "FN"
        },
        {
            "country_code": "AT",
            "city": "Salzburg",
            "latitude": 47.80949,
            "longitude": 13.05501,
            "type": "FN"
        },
        {
            "country_code": "AT",
            "city": "Vienna",
            "latitude": 48.1102981567,
            "longitude": 16.5697002411,
            "type": "TP"
        },
        {
            "country_code": "BE",
            "city": "Brussels",
            "latitude": 50.9014015198,
            "longitude": 4.4844398499,
            "type": "FP"
        },
        {
            "country_code": "BG",
            "city": "Sofia",
            "latitude": 42.6966934204,
            "longitude": 23.4114360809,
            "type": "TP"
        },
        {
            "country_code": "BG",
            "city": "Varna",
            "latitude": 43.2321014404,
            "longitude": 27.8250999451,
            "type": "FP"
        },
        {
            "country_code": "CH",
            "city": "Geneva",
            "latitude": 46.2043907,
            "longitude": 6.1431577,
            "type": "FN"
        },
        {
            "country_code": "CH",
            "city": "Lausanne",
            "latitude": 46.5196535,
            "longitude": 6.6322734,
            "type": "FN"
        },
        {
            "country_code": "CH",
            "city": "Zurich",
            "latitude": 47.4646987915,
            "longitude": 8.5491695404,
            "type": "TP"
        },
        {
            "country_code": "CZ",
            "city": "Prague",
            "latitude": 50.1007995605,
            "longitude": 14.2600002289,
            "type": "TP"
        },
        {
            "country_code": "DE",
            "city": "Berlin",
            "latitude": 52.3800010681,
            "longitude": 13.5225000381,
            "type": "TP"
        },
        {
            "country_code": "DE",
            "city": "Dortmund",
            "latitude": 51.5142273,
            "longitude": 7.4652789,
            "type": "FN"
        },
        {
            "country_code": "DE",
            "city": "Frankfurt-am-Main",
            "latitude": 50.0264015198,
            "longitude": 8.543129921,
            "type": "TP"
        },
        {
            "country_code": "DE",
            "city": "Hamburg",
            "latitude": 53.5352783203,
            "longitude": 9.8355560303,
            "type": "TP"
        },
        {
            "country_code": "DE",
            "city": "Stuttgart",
            "latitude": 48.6898994446,
            "longitude": 9.2219600677,
            "type": "TP"
        },
        {
            "country_code": "EE",
            "city": "Tallinn",
            "latitude": 59.4132995605,
            "longitude": 24.8327999115,
            "type": "TP"
        },
        {
            "country_code": "ES",
            "city": "Barcelona",
            "latitude": 41.2971000671,
            "longitude": 2.0784599781,
            "type": "TP"
        },
        {
            "country_code": "ES",
            "city": "Madrid",
            "latitude": 40.4967002869,
            "longitude": -3.4458699226,
            "type": "TP"
        },
        {
            "country_code": "ES",
            "city": "Malaga",
            "latitude": 36.7213028,
            "longitude": -4.4216366,
            "type": "FN"
        },
        {
            "country_code": "FI",
            "city": "Pori",
            "latitude": 61.4617004395,
            "longitude": 21.7999992371,
            "type": "FP"
        },
        {
            "country_code": "FI",
            "city": "Tampere",
            "latitude": 61.5,
            "longitude": 23.766667,
            "type": "FN"
        },
        {
            "country_code": "FR",
            "city": "Lyon",
            "latitude": 45.764043,
            "longitude": 4.835659,
            "type": "FN"
        },
        {
            "country_code": "FR",
            "city": "Marseille",
            "latitude": 43.296482,
            "longitude": 5.36978,
            "type": "FN"
        },
        {
            "country_code": "FR",
            "city": "Nantes",
            "latitude": 47.1531982422,
            "longitude": -1.610730052,
            "type": "FP"
        },
        {
            "country_code": "FR",
            "city": "Paris",
            "latitude": 49.0127983093,
            "longitude": 2.5499999523,
            "type": "TP"
        },
        {
            "country_code": "GB",
            "city": "Edinburgh",
            "latitude": 55.953252,
            "longitude": -3.188267,
            "type": "FN"
        },
        {
            "country_code": "GB",
            "city": "Leeds",
            "latitude": 53.8007554,
            "longitude": -1.5490774,
            "type": "FN"
        },
        {
            "country_code": "GB",
            "city": "London",
            "latitude": 51.5530014038,
            "longitude": -0.418166995,
            "type": "TP"
        },
        {
            "country_code": "GB",
            "city": "Manchester",
            "latitude": 53.3536987305,
            "longitude": -2.2749500275,
            "type": "TP"
        },
        {
            "country_code": "GR",
            "city": "Athens",
            "latitude": 37.9364013672,
            "longitude": 23.9444999695,
            "type": "TP"
        },
        {
            "country_code": "IE",
            "city": "Dublin",
            "latitude": 53.3498053,
            "longitude": -6.2603097,
            "type": "FN"
        },
        {
            "country_code": "IS",
            "city": "Reykjav\u00edk",
            "latitude": 63.9850006104,
            "longitude": -22.6056003571,
            "type": "TP"
        },
        {
            "country_code": "IT",
            "city": "Bologna",
            "latitude": 44.5354003906,
            "longitude": 11.2887001038,
            "type": "FP"
        },
        {
            "country_code": "IT",
            "city": "Rome",
            "latitude": 41.8045005798,
            "longitude": 12.2508001328,
            "type": "TP"
        },
        {
            "country_code": "IT",
            "city": "Torino",
            "latitude": 45.2008018494,
            "longitude": 7.6496300697,
            "type": "TP"
        },
        {
            "country_code": "LU",
            "city": "Luxembourg",
            "latitude": 49.6265983582,
            "longitude": 6.211520195,
            "type": "TP"
        },
        {
            "country_code": "LV",
            "city": "Riga",
            "latitude": 56.9235992432,
            "longitude": 23.9710998535,
            "type": "TP"
        },
        {
            "country_code": "MK",
            "city": "Skopje",
            "latitude": 41.9960924,
            "longitude": 21.4316495,
            "type": "FN"
        },
        {
            "country_code": "N/A",
            "city": "N/A",
            "latitude": 46.3085,
            "longitude": 16.3515,
            "type": "OT"
        },
        {
            "country_code": "N/A",
            "city": "N/A",
            "latitude": 39.6715,
            "longitude": -8.3205,
            "type": "OF"
        },
        {
            "country_code": "NL",
            "city": "Amsterdam",
            "latitude": 52.3086013794,
            "longitude": 4.7638897896,
            "type": "TP"
        },
        {
            "country_code": "NO",
            "city": "Oslo",
            "latitude": 60.193901062,
            "longitude": 11.100399971,
            "type": "TP"
        },
        {
            "country_code": "NO",
            "city": "Trondheim",
            "latitude": 63.4578018188,
            "longitude": 10.9239997864,
            "type": "TP"
        },
        {
            "country_code": "PL",
            "city": "Warsaw",
            "latitude": 52.1656990051,
            "longitude": 20.9671001434,
            "type": "TP"
        },
        {
            "country_code": "PL",
            "city": "Warsaw",
            "latitude": 52.4510993958,
            "longitude": 20.6518001556,
            "type": "FP"
        },
        {
            "country_code": "PL",
            "city": "\u0141\u00f3d\u017a",
            "latitude": 51.7219009399,
            "longitude": 19.3980998993,
            "type": "FP"
        },
        {
            "country_code": "PT",
            "city": "Lisbon",
            "latitude": 38.7812995911,
            "longitude": -9.1359195709,
            "type": "TP"
        },
        {
            "country_code": "RO",
            "city": "Bucharest",
            "latitude": 44.5722007751,
            "longitude": 26.1021995544,
            "type": "TP"
        },
        {
            "country_code": "RS",
            "city": "Belgrade",
            "latitude": 44.8184013367,
            "longitude": 20.3090991974,
            "type": "TP"
        },
        {
            "country_code": "RU",
            "city": "Murmansk",
            "latitude": 68.7817001343,
            "longitude": 32.7508010864,
            "type": "FP"
        },
        {
            "country_code": "SE",
            "city": "Gothenburg",
            "latitude": 57.6627998352,
            "longitude": 12.279800415,
            "type": "FP"
        },
        {
            "country_code": "SE",
            "city": "Stockholm",
            "latitude": 59.3544006348,
            "longitude": 17.9416999817,
            "type": "TP"
        },
        {
            "country_code": "SE",
            "city": "Stockholm",
            "latitude": 59.6519012451,
            "longitude": 17.9186000824,
            "type": "FP"
        },
        {
            "country_code": "UA",
            "city": "Kiev",
            "latitude": 50.3450012207,
            "longitude": 30.8946990967,
            "type": "OT"
        }
    ]
}