{
    "target": "198.41.0.4",
    "measurement_filepath": "datasets/measurements/campaigns/198.41.0.4_North-Central_20230410/198.41.0.4_North-Central_300_52069377.json",
    "probes_filepath": "datasets/probes_sets/North-Central_300.json",
    "alpha": 0.0,
    "threshold": -1,
    "noise": 0,
    "num_anycast_instances": 8,
    "anycast_instances": [
        {
            "marker": {
                "id": "QEF",
                "latitude": 49.9599990845,
                "longitude": 8.6458330154,
                "city": "Egelsbach",
                "country_code": "DE"
            },
            "circle": {
                "id": "1002375",
                "latitude": 50.1195,
                "longitude": 8.6805,
                "radius": 29.929427788291843
            }
        },
        {
            "marker": {
                "id": "LGW",
                "latitude": 51.1481018066,
                "longitude": -0.1902779937,
                "city": "London",
                "country_code": "GB"
            },
            "circle": {
                "id": "1003887",
                "latitude": 51.5405,
                "longitude": -0.6685,
                "radius": 55.58558390100589
            }
        },
        {
            "marker": {
                "id": "DHR",
                "latitude": 52.9234008789,
                "longitude": 4.7806200981,
                "city": "Den Helder",
                "country_code": "NL"
            },
            "circle": {
                "id": "1005311",
                "latitude": 52.3775,
                "longitude": 4.8975,
                "radius": 72.57379570669725
            }
        },
        {
            "marker": {
                "id": "EKT",
                "latitude": 59.3511009216,
                "longitude": 16.7084007263,
                "city": "Eskilstuna",
                "country_code": "SE"
            },
            "circle": {
                "id": "28417",
                "latitude": 59.3105,
                "longitude": 18.0075,
                "radius": 119.32769615493228
            }
        },
        {
            "marker": {
                "id": "LIL",
                "latitude": 50.5619010925,
                "longitude": 3.0894401073,
                "city": "Lille/Lesquin",
                "country_code": "FR"
            },
            "circle": {
                "id": "61735",
                "latitude": 48.9095,
                "longitude": 2.2885,
                "radius": 193.50472946333338
            }
        },
        {
            "marker": {
                "id": "SQW",
                "latitude": 56.550201416,
                "longitude": 9.1729803085,
                "city": "Skive",
                "country_code": "DK"
            },
            "circle": {
                "id": "24592",
                "latitude": 53.5485,
                "longitude": 10.0515,
                "radius": 338.7452865179537
            }
        },
        {
            "marker": {
                "id": "OLB",
                "latitude": 40.8987007141,
                "longitude": 9.5176296234,
                "city": "Olbia",
                "country_code": "IT"
            },
            "circle": {
                "id": "30725",
                "latitude": 43.6395,
                "longitude": 6.9285,
                "radius": 372.93471267074534
            }
        },
        {
            "marker": {
                "id": "SDR",
                "latitude": 43.4271011353,
                "longitude": -3.8200099468,
                "city": "Santander",
                "country_code": "ES"
            },
            "circle": {
                "id": "60555",
                "latitude": 41.3895,
                "longitude": 2.1695,
                "radius": 550.8588308668119
            }
        }
    ]
}