{
    "target": "104.16.123.96",
    "measurement_filepath": "datasets/measurements/campaigns/104.16.123.96_North-Central_20230418/104.16.123.96_North-Central_500_52452416.json",
    "probes_filepath": "datasets/probes_sets/North-Central_500.json",
    "alpha": 0.9,
    "threshold": -1,
    "noise": 0,
    "num_anycast_instances": 27,
    "anycast_instances": [
        {
            "marker": {
                "id": "ZRH",
                "latitude": 47.4646987915,
                "longitude": 8.5491695404,
                "city": "Zurich",
                "country_code": "CH"
            },
            "circle": {
                "id": "7137",
                "latitude": 47.3805,
                "longitude": 8.4985,
                "radius": 51.05002064821382
            }
        },
        {
            "marker": {
                "id": "MUC",
                "latitude": 48.3538017273,
                "longitude": 11.7861003876,
                "city": "Munich",
                "country_code": "DE"
            },
            "circle": {
                "id": "31642",
                "latitude": 48.1485,
                "longitude": 11.5495,
                "radius": 58.837721440404614
            }
        },
        {
            "marker": {
                "id": "AMX",
                "latitude": 52.3086013794,
                "longitude": 4.7638897896,
                "city": "Amsterdam",
                "country_code": "NL"
            },
            "circle": {
                "id": "1004258",
                "latitude": 52.3815,
                "longitude": 4.8995,
                "radius": 70.33712898726776
            }
        },
        {
            "marker": {
                "id": "TOJ",
                "latitude": 40.4967002869,
                "longitude": -3.4458699226,
                "city": "Madrid",
                "country_code": "ES"
            },
            "circle": {
                "id": "1005513",
                "latitude": 40.4385,
                "longitude": -3.6225,
                "radius": 70.75920521103093
            }
        },
        {
            "marker": {
                "id": "VNO",
                "latitude": 54.6341018677,
                "longitude": 25.2858009338,
                "city": "Vilnius",
                "country_code": "LT"
            },
            "circle": {
                "id": "1002102",
                "latitude": 54.6385,
                "longitude": 25.3075,
                "radius": 71.41283166222303
            }
        },
        {
            "marker": {
                "id": "KBP",
                "latitude": 50.3450012207,
                "longitude": 30.8946990967,
                "city": "Kiev",
                "country_code": "UA"
            },
            "circle": {
                "id": "52319",
                "latitude": 50.4415,
                "longitude": 30.4975,
                "radius": 76.41098335591185
            }
        },
        {
            "marker": {
                "id": "SOF",
                "latitude": 42.6966934204,
                "longitude": 23.4114360809,
                "city": "Sofia",
                "country_code": "BG"
            },
            "circle": {
                "id": "1000559",
                "latitude": 42.6915,
                "longitude": 23.3395,
                "radius": 76.85810802846842
            }
        },
        {
            "marker": {
                "id": "RIX",
                "latitude": 56.9235992432,
                "longitude": 23.9710998535,
                "city": "Riga",
                "country_code": "LV"
            },
            "circle": {
                "id": "1004050",
                "latitude": 56.9475,
                "longitude": 24.0995,
                "radius": 78.06457544003817
            }
        },
        {
            "marker": {
                "id": "WMI",
                "latitude": 52.4510993958,
                "longitude": 20.6518001556,
                "city": "Warsaw",
                "country_code": "PL"
            },
            "circle": {
                "id": "1004056",
                "latitude": 52.2305,
                "longitude": 21.0095,
                "radius": 78.36298727487632
            }
        },
        {
            "marker": {
                "id": "FRA",
                "latitude": 50.0264015198,
                "longitude": 8.543129921,
                "city": "Frankfurt-am-Main",
                "country_code": "DE"
            },
            "circle": {
                "id": "1005266",
                "latitude": 50.1005,
                "longitude": 8.6305,
                "radius": 79.55949447649274
            }
        },
        {
            "marker": {
                "id": "BUD",
                "latitude": 47.4369010925,
                "longitude": 19.2555999756,
                "city": "Budapest",
                "country_code": "HU"
            },
            "circle": {
                "id": "50644",
                "latitude": 47.5195,
                "longitude": 19.0595,
                "radius": 96.47518530320262
            }
        },
        {
            "marker": {
                "id": "DME",
                "latitude": 55.4087982178,
                "longitude": 37.9062995911,
                "city": "Moscow",
                "country_code": "RU"
            },
            "circle": {
                "id": "1004132",
                "latitude": 55.7385,
                "longitude": 37.6085,
                "radius": 99.10132778890659
            }
        },
        {
            "marker": {
                "id": "LED",
                "latitude": 59.8003005981,
                "longitude": 30.2625007629,
                "city": "St Petersburg",
                "country_code": "RU"
            },
            "circle": {
                "id": "17285",
                "latitude": 59.9295,
                "longitude": 30.4515,
                "radius": 109.8727524657184
            }
        },
        {
            "marker": {
                "id": "ORY",
                "latitude": 48.7252998352,
                "longitude": 2.3594400883,
                "city": "Paris",
                "country_code": "FR"
            },
            "circle": {
                "id": "21997",
                "latitude": 48.9305,
                "longitude": 2.3515,
                "radius": 117.56094977431644
            }
        },
        {
            "marker": {
                "id": "ARN",
                "latitude": 59.6519012451,
                "longitude": 17.9186000824,
                "city": "Stockholm",
                "country_code": "SE"
            },
            "circle": {
                "id": "51501",
                "latitude": 59.3275,
                "longitude": 18.0675,
                "radius": 119.16503665649671
            }
        },
        {
            "marker": {
                "id": "STN",
                "latitude": 51.8849983215,
                "longitude": 0.2349999994,
                "city": "London",
                "country_code": "GB"
            },
            "circle": {
                "id": "1005028",
                "latitude": 51.5415,
                "longitude": -0.6715,
                "radius": 125.62921291618159
            }
        },
        {
            "marker": {
                "id": "OTP",
                "latitude": 44.5722007751,
                "longitude": 26.1021995544,
                "city": "Bucharest",
                "country_code": "RO"
            },
            "circle": {
                "id": "33382",
                "latitude": 44.4285,
                "longitude": 26.1015,
                "radius": 146.6753337793625
            }
        },
        {
            "marker": {
                "id": "BEY",
                "latitude": 33.8208999634,
                "longitude": 35.4883995056,
                "city": "Beirut",
                "country_code": "LB"
            },
            "circle": {
                "id": "53950",
                "latitude": 33.8875,
                "longitude": 35.5195,
                "radius": 157.81015819555918
            }
        },
        {
            "marker": {
                "id": "ZAG",
                "latitude": 45.7429008484,
                "longitude": 16.0687999725,
                "city": "Zagreb",
                "country_code": "HR"
            },
            "circle": {
                "id": "13593",
                "latitude": 46.3085,
                "longitude": 16.3415,
                "radius": 180.64704591558944
            }
        },
        {
            "marker": {
                "id": "PRG",
                "latitude": 50.1007995605,
                "longitude": 14.2600002289,
                "city": "Prague",
                "country_code": "CZ"
            },
            "circle": {
                "id": "10222",
                "latitude": 50.0785,
                "longitude": 14.4385,
                "radius": 191.19727503868617
            }
        },
        {
            "marker": {
                "id": "WIE",
                "latitude": 48.1102981567,
                "longitude": 16.5697002411,
                "city": "Vienna",
                "country_code": "AT"
            },
            "circle": {
                "id": "1001351",
                "latitude": 48.1475,
                "longitude": 16.2995,
                "radius": 140.96201928783947
            }
        },
        {
            "marker": {
                "id": "TBS",
                "latitude": 41.6692008972,
                "longitude": 44.95470047,
                "city": "Tbilisi",
                "country_code": "GE"
            },
            "circle": {
                "id": "11623",
                "latitude": 40.1785,
                "longitude": 44.5185,
                "radius": 204.71525226410262
            }
        },
        {
            "marker": {
                "id": "MXP",
                "latitude": 45.6305999756,
                "longitude": 8.7281103134,
                "city": "Milan",
                "country_code": "IT"
            },
            "circle": {
                "id": "33333",
                "latitude": 45.6185,
                "longitude": 9.9285,
                "radius": 212.18501526530918
            }
        },
        {
            "marker": {
                "id": "HEL",
                "latitude": 60.317199707,
                "longitude": 24.963300705,
                "city": "Helsinki",
                "country_code": "FI"
            },
            "circle": {
                "id": "6330",
                "latitude": 60.2075,
                "longitude": 24.8985,
                "radius": 229.45996396191842
            }
        },
        {
            "marker": {
                "id": "RKE",
                "latitude": 55.5856018066,
                "longitude": 12.1314001083,
                "city": "Copenhagen",
                "country_code": "DK"
            },
            "circle": {
                "id": "17918",
                "latitude": 55.5915,
                "longitude": 13.0075,
                "radius": 257.7324636860612
            }
        },
        {
            "marker": {
                "id": "ATH",
                "latitude": 37.9364013672,
                "longitude": 23.9444999695,
                "city": "Athens",
                "country_code": "GR"
            },
            "circle": {
                "id": "12891",
                "latitude": 38.0575,
                "longitude": 23.7815,
                "radius": 269.58047858128947
            }
        },
        {
            "marker": {
                "id": "NIX",
                "latitude": 60.193901062,
                "longitude": 11.100399971,
                "city": "Oslo",
                "country_code": "NO"
            },
            "circle": {
                "id": "20299",
                "latitude": 59.2015,
                "longitude": 9.6315,
                "radius": 308.38239946516114
            }
        }
    ]
}