{
    "target": "202.12.27.33",
    "measurement_filepath": "datasets/measurements/campaigns/202.12.27.33_North-Central_20230410/202.12.27.33_North-Central_500_52101224.json",
    "probes_filepath": "datasets/probes_sets/North-Central_500.json",
    "alpha": 0.4,
    "threshold": -1,
    "noise": 0,
    "num_anycast_instances": 7,
    "anycast_instances": [
        {
            "marker": {
                "id": "PAR",
                "latitude": 49.0127983093,
                "longitude": 2.5499999523,
                "city": "Paris",
                "country_code": "FR"
            },
            "circle": {
                "id": "1000724",
                "latitude": 48.7695,
                "longitude": 2.3785,
                "radius": 34.4086943565729
            }
        },
        {
            "marker": {
                "id": "TRN",
                "latitude": 45.2008018494,
                "longitude": 7.6496300697,
                "city": "Torino",
                "country_code": "IT"
            },
            "circle": {
                "id": "1001604",
                "latitude": 43.8995,
                "longitude": 5.5675,
                "radius": 248.66768094667378
            }
        },
        {
            "marker": {
                "id": "HAM",
                "latitude": 53.6304016113,
                "longitude": 9.9882297516,
                "city": "Hamburg",
                "country_code": "DE"
            },
            "circle": {
                "id": "1004423",
                "latitude": 50.1185,
                "longitude": 8.6785,
                "radius": 416.25581709421704
            }
        },
        {
            "marker": {
                "id": "CMN",
                "latitude": 33.3675003052,
                "longitude": -7.5899701118,
                "city": "Casablanca",
                "country_code": "MA"
            },
            "circle": {
                "id": "13881",
                "latitude": 40.3975,
                "longitude": -3.6985,
                "radius": 864.6025880833404
            }
        },
        {
            "marker": {
                "id": "BQH",
                "latitude": 51.3307991028,
                "longitude": 0.0324999988,
                "city": "London",
                "country_code": "GB"
            },
            "circle": {
                "id": "1002616",
                "latitude": 53.3405,
                "longitude": -6.2625,
                "radius": 755.9953952783735
            }
        },
        {
            "marker": {
                "id": "IST",
                "latitude": 40.9768981934,
                "longitude": 28.8145999908,
                "city": "Istanbul",
                "country_code": "TR"
            },
            "circle": {
                "id": "1004945",
                "latitude": 34.6995,
                "longitude": 33.0595,
                "radius": 2166.2539236147472
            }
        },
        {
            "marker": {
                "id": "FCO",
                "latitude": 41.8045005798,
                "longitude": 12.2508001328,
                "city": "Rome",
                "country_code": "IT"
            },
            "circle": {
                "id": "6621",
                "latitude": 40.9475,
                "longitude": 17.2785,
                "radius": 845.5981595754273
            }
        }
    ]
}