{
    "target": "199.7.83.42",
    "measurement_filepath": "datasets/measurements/campaigns/199.7.83.42_North-Central-section_20230425/199.7.83.42_North-Central-section_1.5_52655267.json",
    "probes_filepath": "datasets/probes_section/North-Central-section_1.5.json",
    "alpha": 1,
    "threshold": 10.0,
    "noise": 0,
    "num_anycast_instances": 22,
    "anycast_instances": [
        {
            "marker": {
                "id": "HER",
                "latitude": 35.3396987915,
                "longitude": 25.1802997589,
                "city": "Heraklion",
                "country_code": "GR"
            },
            "circle": {
                "id": "6297",
                "latitude": 35.3105,
                "longitude": 25.0715,
                "radius": 31.772484366772805
            }
        },
        {
            "marker": {
                "id": "EBL",
                "latitude": 36.2375984192,
                "longitude": 43.9631996155,
                "city": "Arbil",
                "country_code": "IQ"
            },
            "circle": {
                "id": "7020",
                "latitude": 36.2375,
                "longitude": 44.0085,
                "radius": 33.952515162857196
            }
        },
        {
            "marker": {
                "id": "NLV",
                "latitude": 47.0578994751,
                "longitude": 31.9197998047,
                "city": "Nikolayev",
                "country_code": "UA"
            },
            "circle": {
                "id": "6414",
                "latitude": 46.9795,
                "longitude": 31.9875,
                "radius": 36.0793627768924
            }
        },
        {
            "marker": {
                "id": "AOI",
                "latitude": 43.6162986755,
                "longitude": 13.3622999191,
                "city": "Ancona",
                "country_code": "IT"
            },
            "circle": {
                "id": "54353",
                "latitude": 43.5685,
                "longitude": 13.5095,
                "radius": 44.75151916795001
            }
        },
        {
            "marker": {
                "id": "MHP",
                "latitude": 53.8644981384,
                "longitude": 27.5396995544,
                "city": "Minsk",
                "country_code": "BY"
            },
            "circle": {
                "id": "17271",
                "latitude": 53.9575,
                "longitude": 27.7805,
                "radius": 45.9535670075468
            }
        },
        {
            "marker": {
                "id": "JAM",
                "latitude": 42.4548988342,
                "longitude": 26.3521995544,
                "city": "Yambol",
                "country_code": "BG"
            },
            "circle": {
                "id": "11518",
                "latitude": 42.1715,
                "longitude": 26.5675,
                "radius": 63.0170342150076
            }
        },
        {
            "marker": {
                "id": "SOF",
                "latitude": 42.6966934204,
                "longitude": 23.4114360809,
                "city": "Sofia",
                "country_code": "BG"
            },
            "circle": {
                "id": "16209",
                "latitude": 42.6615,
                "longitude": 23.3075,
                "radius": 87.65259936814081
            }
        },
        {
            "marker": {
                "id": "WIE",
                "latitude": 48.1102981567,
                "longitude": 16.5697002411,
                "city": "Vienna",
                "country_code": "AT"
            },
            "circle": {
                "id": "175",
                "latitude": 48.1495,
                "longitude": 17.1105,
                "radius": 100.56909746257921
            }
        },
        {
            "marker": {
                "id": "PRG",
                "latitude": 50.1007995605,
                "longitude": 14.2600002289,
                "city": "Prague",
                "country_code": "CZ"
            },
            "circle": {
                "id": "33280",
                "latitude": 50.0275,
                "longitude": 15.7815,
                "radius": 111.20081727610801
            }
        },
        {
            "marker": {
                "id": "ARN",
                "latitude": 59.6519012451,
                "longitude": 17.9186000824,
                "city": "Stockholm",
                "country_code": "SE"
            },
            "circle": {
                "id": "1333",
                "latitude": 59.3485,
                "longitude": 18.0185,
                "radius": 119.2646947698836
            }
        },
        {
            "marker": {
                "id": "BEG",
                "latitude": 44.8184013367,
                "longitude": 20.3090991974,
                "city": "Belgrade",
                "country_code": "RS"
            },
            "circle": {
                "id": "60080",
                "latitude": 44.8075,
                "longitude": 20.4615,
                "radius": 122.4659985533908
            }
        },
        {
            "marker": {
                "id": "LED",
                "latitude": 59.8003005981,
                "longitude": 30.2625007629,
                "city": "St Petersburg",
                "country_code": "RU"
            },
            "circle": {
                "id": "11054",
                "latitude": 60.0995,
                "longitude": 30.2895,
                "radius": 140.66627876158762
            }
        },
        {
            "marker": {
                "id": "ECV",
                "latitude": 40.3707008362,
                "longitude": -3.7851400375,
                "city": "Madrid",
                "country_code": "ES"
            },
            "circle": {
                "id": "32648",
                "latitude": 40.5615,
                "longitude": -3.6305,
                "radius": 153.6522687477904
            }
        },
        {
            "marker": {
                "id": "MIK",
                "latitude": 61.6865997314,
                "longitude": 27.2017993927,
                "city": "Mikkeli",
                "country_code": "FI"
            },
            "circle": {
                "id": "22068",
                "latitude": 62.2415,
                "longitude": 25.7605,
                "radius": 155.0723256628448
            }
        },
        {
            "marker": {
                "id": "LIN",
                "latitude": 45.445098877,
                "longitude": 9.2767400742,
                "city": "Milan",
                "country_code": "IT"
            },
            "circle": {
                "id": "32208",
                "latitude": 46.3015,
                "longitude": 7.5375,
                "radius": 232.8053921806816
            }
        },
        {
            "marker": {
                "id": "GML",
                "latitude": 50.6035003662,
                "longitude": 30.1919002533,
                "city": "Kiev",
                "country_code": "UA"
            },
            "circle": {
                "id": "657",
                "latitude": 51.5405,
                "longitude": 31.2695,
                "radius": 275.78225991425484
            }
        },
        {
            "marker": {
                "id": "BCN",
                "latitude": 41.2971000671,
                "longitude": 2.0784599781,
                "city": "Barcelona",
                "country_code": "ES"
            },
            "circle": {
                "id": "53792",
                "latitude": 40.8285,
                "longitude": 0.5115,
                "radius": 278.62207395190563
            }
        },
        {
            "marker": {
                "id": "BQH",
                "latitude": 51.3307991028,
                "longitude": 0.0324999988,
                "city": "London",
                "country_code": "GB"
            },
            "circle": {
                "id": "30960",
                "latitude": 48.1175,
                "longitude": -1.6995,
                "radius": 395.3037569036612
            }
        },
        {
            "marker": {
                "id": "PAR",
                "latitude": 49.0127983093,
                "longitude": 2.5499999523,
                "city": "Paris",
                "country_code": "FR"
            },
            "circle": {
                "id": "50382",
                "latitude": 47.1685,
                "longitude": 0.2415,
                "radius": 386.6548044488528
            }
        },
        {
            "marker": {
                "id": "IST",
                "latitude": 40.9768981934,
                "longitude": 28.8145999908,
                "city": "Istanbul",
                "country_code": "TR"
            },
            "circle": {
                "id": "50199",
                "latitude": 39.9315,
                "longitude": 32.8615,
                "radius": 414.4880159175056
            }
        },
        {
            "marker": {
                "id": "CKL",
                "latitude": 55.8782997131,
                "longitude": 38.0616989136,
                "city": "Moscow",
                "country_code": "RU"
            },
            "circle": {
                "id": "32216",
                "latitude": 57.5905,
                "longitude": 39.9075,
                "radius": 454.98763861213325
            }
        },
        {
            "marker": {
                "id": "SXF",
                "latitude": 52.3800010681,
                "longitude": 13.5225000381,
                "city": "Berlin",
                "country_code": "DE"
            },
            "circle": {
                "id": "789",
                "latitude": 54.3615,
                "longitude": 10.1315,
                "radius": 538.9934426041788
            }
        }
    ]
}