{
    "target": "192.203.230.10",
    "measurement_filepath": "datasets/measurements/campaigns/192.203.230.10_North-Central_20230410/192.203.230.10_North-Central_100_52070327.json",
    "probes_filepath": "datasets/probes_sets/North-Central_100.json",
    "alpha": 0.0,
    "threshold": -1,
    "noise": 0,
    "num_anycast_instances": 17,
    "anycast_instances": [
        {
            "marker": {
                "id": "BVA",
                "latitude": 49.4543991089,
                "longitude": 2.1127800941,
                "city": "Beauvais/Till\u00e9",
                "country_code": "FR"
            },
            "circle": {
                "id": "1003845",
                "latitude": 48.8995,
                "longitude": 2.2995,
                "radius": 64.19455903154001
            }
        },
        {
            "marker": {
                "id": "PRG",
                "latitude": 50.1007995605,
                "longitude": 14.2600002289,
                "city": "Prague",
                "country_code": "CZ"
            },
            "circle": {
                "id": "1004003",
                "latitude": 50.1285,
                "longitude": 14.4975,
                "radius": 76.99042064087921
            }
        },
        {
            "marker": {
                "id": "FKB",
                "latitude": 48.7793998718,
                "longitude": 8.0804996491,
                "city": "Baden-Baden",
                "country_code": "DE"
            },
            "circle": {
                "id": "22152",
                "latitude": 48.7785,
                "longitude": 9.1795,
                "radius": 88.46725539351002
            }
        },
        {
            "marker": {
                "id": "UDE",
                "latitude": 51.6563987732,
                "longitude": 5.7086100578,
                "city": "Uden",
                "country_code": "NL"
            },
            "circle": {
                "id": "32321",
                "latitude": 52.3975,
                "longitude": 4.8385,
                "radius": 108.42365986217919
            }
        },
        {
            "marker": {
                "id": "QCY",
                "latitude": 53.0929985046,
                "longitude": -0.1660140008,
                "city": "Coningsby",
                "country_code": "GB"
            },
            "circle": {
                "id": "61364",
                "latitude": 53.6595,
                "longitude": -1.8095,
                "radius": 129.6376936921584
            }
        },
        {
            "marker": {
                "id": "VEY",
                "latitude": 63.4243011475,
                "longitude": -20.2789001465,
                "city": "Vestmannaeyjar",
                "country_code": "IS"
            },
            "circle": {
                "id": "54607",
                "latitude": 64.0505,
                "longitude": -21.9925,
                "radius": 140.4877823320944
            }
        },
        {
            "marker": {
                "id": "VLL",
                "latitude": 41.7061004639,
                "longitude": -4.851940155,
                "city": "Valladolid",
                "country_code": "ES"
            },
            "circle": {
                "id": "33818",
                "latitude": 40.2915,
                "longitude": -3.8325,
                "radius": 188.2934671451652
            }
        },
        {
            "marker": {
                "id": "EMA",
                "latitude": 52.8311004639,
                "longitude": -1.3280600309,
                "city": "Nottingham",
                "country_code": "GB"
            },
            "circle": {
                "id": "11461",
                "latitude": 51.1375,
                "longitude": -0.4795,
                "radius": 200.3212604771084
            }
        },
        {
            "marker": {
                "id": "BRN",
                "latitude": 46.914100647,
                "longitude": 7.4971499443,
                "city": "Bern",
                "country_code": "CH"
            },
            "circle": {
                "id": "32124",
                "latitude": 45.4895,
                "longitude": 9.2385,
                "radius": 212.03469143759278
            }
        },
        {
            "marker": {
                "id": "VNO",
                "latitude": 54.6341018677,
                "longitude": 25.2858009338,
                "city": "Vilnius",
                "country_code": "LT"
            },
            "circle": {
                "id": "50831",
                "latitude": 53.1275,
                "longitude": 23.1685,
                "radius": 231.0325395010528
            }
        },
        {
            "marker": {
                "id": "PYR",
                "latitude": 37.9207000732,
                "longitude": 21.2926006317,
                "city": "Andravida",
                "country_code": "GR"
            },
            "circle": {
                "id": "62748",
                "latitude": 37.9815,
                "longitude": 23.7595,
                "radius": 236.36998446479322
            }
        },
        {
            "marker": {
                "id": "URE",
                "latitude": 58.2299003601,
                "longitude": 22.5095005035,
                "city": "Kuressaare",
                "country_code": "EE"
            },
            "circle": {
                "id": "54507",
                "latitude": 60.1305,
                "longitude": 24.4675,
                "radius": 254.52379684200002
            }
        },
        {
            "marker": {
                "id": "IWA",
                "latitude": 56.9393997192,
                "longitude": 40.9407997131,
                "city": "Ivanovo",
                "country_code": "RU"
            },
            "circle": {
                "id": "55348",
                "latitude": 54.6615,
                "longitude": 39.6695,
                "radius": 286.8663665469056
            }
        },
        {
            "marker": {
                "id": "KVA",
                "latitude": 40.9132995605,
                "longitude": 24.6191997528,
                "city": "Kavala",
                "country_code": "GR"
            },
            "circle": {
                "id": "28731",
                "latitude": 41.9875,
                "longitude": 21.4485,
                "radius": 297.4027523587904
            }
        },
        {
            "marker": {
                "id": "SLM",
                "latitude": 40.9520988464,
                "longitude": -5.5019898415,
                "city": "Salamanca",
                "country_code": "ES"
            },
            "circle": {
                "id": "1001333",
                "latitude": 38.6885,
                "longitude": -9.3615,
                "radius": 424.85256069246486
            }
        },
        {
            "marker": {
                "id": "SBZ",
                "latitude": 45.7855987549,
                "longitude": 24.091299057,
                "city": "Sibiu",
                "country_code": "RO"
            },
            "circle": {
                "id": "22642",
                "latitude": 46.4685,
                "longitude": 30.6995,
                "radius": 517.2277906514796
            }
        },
        {
            "marker": {
                "id": "AER",
                "latitude": 43.4499015808,
                "longitude": 39.9566001892,
                "city": "Sochi",
                "country_code": "RU"
            },
            "circle": {
                "id": "53249",
                "latitude": 48.7415,
                "longitude": 37.5795,
                "radius": 617.7673285777
            }
        }
    ]
}