{
    "target": "198.41.0.4",
    "measurement_filepath": "datasets/measurements/campaigns/198.41.0.4_North-Central_20230410/198.41.0.4_North-Central_1000_52069452.json",
    "probes_filepath": "datasets/probes_sets/North-Central_1000.json",
    "alpha": 0.8,
    "threshold": -1,
    "noise": 0,
    "num_anycast_instances": 16,
    "anycast_instances": [
        {
            "marker": {
                "id": "NHT",
                "latitude": 51.5530014038,
                "longitude": -0.418166995,
                "city": "London",
                "country_code": "GB"
            },
            "circle": {
                "id": "13526",
                "latitude": 51.5305,
                "longitude": -0.6415,
                "radius": 20.684330535938997
            }
        },
        {
            "marker": {
                "id": "FRA",
                "latitude": 50.0264015198,
                "longitude": 8.543129921,
                "city": "Frankfurt-am-Main",
                "country_code": "DE"
            },
            "circle": {
                "id": "32663",
                "latitude": 50.1185,
                "longitude": 8.7405,
                "radius": 31.5274490012265
            }
        },
        {
            "marker": {
                "id": "PAR",
                "latitude": 49.0127983093,
                "longitude": 2.5499999523,
                "city": "Paris",
                "country_code": "FR"
            },
            "circle": {
                "id": "1005546",
                "latitude": 48.8305,
                "longitude": 2.4095,
                "radius": 32.6497820262411
            }
        },
        {
            "marker": {
                "id": "RTM",
                "latitude": 51.9569015503,
                "longitude": 4.4372200966,
                "city": "Rotterdam",
                "country_code": "NL"
            },
            "circle": {
                "id": "1005453",
                "latitude": 52.3885,
                "longitude": 4.6595,
                "radius": 57.70126424598059
            }
        },
        {
            "marker": {
                "id": "AMX",
                "latitude": 52.3086013794,
                "longitude": 4.7638897896,
                "city": "Amsterdam",
                "country_code": "NL"
            },
            "circle": {
                "id": "11608",
                "latitude": 52.3815,
                "longitude": 5.2375,
                "radius": 66.6362636745897
            }
        },
        {
            "marker": {
                "id": "BMA",
                "latitude": 59.3544006348,
                "longitude": 17.9416999817,
                "city": "Stockholm",
                "country_code": "SE"
            },
            "circle": {
                "id": "52699",
                "latitude": 59.5415,
                "longitude": 17.9415,
                "radius": 71.5267630523208
            }
        },
        {
            "marker": {
                "id": "WIE",
                "latitude": 48.1102981567,
                "longitude": 16.5697002411,
                "city": "Vienna",
                "country_code": "AT"
            },
            "circle": {
                "id": "1004575",
                "latitude": 48.1995,
                "longitude": 16.3805,
                "radius": 182.2578355259886
            }
        },
        {
            "marker": {
                "id": "GLA",
                "latitude": 55.8718986511,
                "longitude": -4.4330601692,
                "city": "Glasgow",
                "country_code": "GB"
            },
            "circle": {
                "id": "1002711",
                "latitude": 55.3775,
                "longitude": -3.4425,
                "radius": 205.2597266481195
            }
        },
        {
            "marker": {
                "id": "TXL",
                "latitude": 52.5597000122,
                "longitude": 13.2876996994,
                "city": "Berlin",
                "country_code": "DE"
            },
            "circle": {
                "id": "1002570",
                "latitude": 50.4775,
                "longitude": 12.3305,
                "radius": 244.4445645493194
            }
        },
        {
            "marker": {
                "id": "BCN",
                "latitude": 41.2971000671,
                "longitude": 2.0784599781,
                "city": "Barcelona",
                "country_code": "ES"
            },
            "circle": {
                "id": "30910",
                "latitude": 43.6175,
                "longitude": 1.4175,
                "radius": 310.3213490004348
            }
        },
        {
            "marker": {
                "id": "MXP",
                "latitude": 45.6305999756,
                "longitude": 8.7281103134,
                "city": "Milan",
                "country_code": "IT"
            },
            "circle": {
                "id": "6763",
                "latitude": 45.4785,
                "longitude": 9.1005,
                "radius": 316.66528718341857
            }
        },
        {
            "marker": {
                "id": "MUC",
                "latitude": 48.3538017273,
                "longitude": 11.7861003876,
                "city": "Munich",
                "country_code": "DE"
            },
            "circle": {
                "id": "1004881",
                "latitude": 49.4375,
                "longitude": 11.0215,
                "radius": 179.8077966526065
            }
        },
        {
            "marker": {
                "id": "LED",
                "latitude": 59.8003005981,
                "longitude": 30.2625007629,
                "city": "St Petersburg",
                "country_code": "RU"
            },
            "circle": {
                "id": "6330",
                "latitude": 60.2075,
                "longitude": 24.8985,
                "radius": 320.1258664742271
            }
        },
        {
            "marker": {
                "id": "SJJ",
                "latitude": 43.8246002197,
                "longitude": 18.3314990997,
                "city": "Sarajevo",
                "country_code": "BA"
            },
            "circle": {
                "id": "6621",
                "latitude": 40.9475,
                "longitude": 17.2785,
                "radius": 339.00267333276963
            }
        },
        {
            "marker": {
                "id": "RIX",
                "latitude": 56.9235992432,
                "longitude": 23.9710998535,
                "city": "Riga",
                "country_code": "LV"
            },
            "circle": {
                "id": "1005505",
                "latitude": 56.9495,
                "longitude": 24.0975,
                "radius": 366.6704893023438
            }
        },
        {
            "marker": {
                "id": "NIX",
                "latitude": 60.193901062,
                "longitude": 11.100399971,
                "city": "Oslo",
                "country_code": "NO"
            },
            "circle": {
                "id": "1001345",
                "latitude": 59.9395,
                "longitude": 10.7095,
                "radius": 368.98652094699986
            }
        }
    ]
}