{
    "target": "198.97.190.53",
    "measurement_filepath": "datasets/measurements/campaigns/198.97.190.53_North-Central_20230410/198.97.190.53_North-Central_100_52071700.json",
    "probes_filepath": "datasets/probes_sets/North-Central_100.json",
    "alpha": 0.2,
    "threshold": -1,
    "noise": 0,
    "num_anycast_instances": 5,
    "anycast_instances": [
        {
            "marker": {
                "id": "LGW",
                "latitude": 51.1481018066,
                "longitude": -0.1902779937,
                "city": "London",
                "country_code": "GB"
            },
            "circle": {
                "id": "1005027",
                "latitude": 51.5405,
                "longitude": -0.6715,
                "radius": 67.1059635081612
            }
        },
        {
            "marker": {
                "id": "CGN",
                "latitude": 50.8658981323,
                "longitude": 7.1427397728,
                "city": "Cologne",
                "country_code": "DE"
            },
            "circle": {
                "id": "1005265",
                "latitude": 51.2995,
                "longitude": 9.4905,
                "radius": 174.0821804142477
            }
        },
        {
            "marker": {
                "id": "MUC",
                "latitude": 48.3538017273,
                "longitude": 11.7861003876,
                "city": "Munich",
                "country_code": "DE"
            },
            "circle": {
                "id": "1004882",
                "latitude": 49.4385,
                "longitude": 11.0215,
                "radius": 175.9255892488668
            }
        },
        {
            "marker": {
                "id": "DME",
                "latitude": 55.4087982178,
                "longitude": 37.9062995911,
                "city": "Moscow",
                "country_code": "RU"
            },
            "circle": {
                "id": "54054",
                "latitude": 55.6995,
                "longitude": 37.6895,
                "radius": 1464.7822023822753
            }
        },
        {
            "marker": {
                "id": "BHX",
                "latitude": 52.4538993835,
                "longitude": -1.7480299473,
                "city": "Birmingham",
                "country_code": "GB"
            },
            "circle": {
                "id": "62763",
                "latitude": 64.1485,
                "longitude": -21.9295,
                "radius": 1800.268310182705
            }
        }
    ]
}