{
    "target": "192.36.148.17",
    "measurement_filepath": "datasets/measurements/campaigns/192.36.148.17_North-Central-section_20230425/192.36.148.17_North-Central-section_1_52653005.json",
    "probes_filepath": "datasets/probes_section/North-Central-section_1.json",
    "alpha": 0.1,
    "threshold": -1,
    "noise": 0,
    "num_anycast_instances": 21,
    "anycast_instances": [
        {
            "marker": {
                "id": "WIE",
                "latitude": 48.1102981567,
                "longitude": 16.5697002411,
                "city": "Vienna",
                "country_code": "AT"
            },
            "circle": {
                "id": "6042",
                "latitude": 48.2085,
                "longitude": 16.3695,
                "radius": 26.6229493157068
            }
        },
        {
            "marker": {
                "id": "LIN",
                "latitude": 45.445098877,
                "longitude": 9.2767400742,
                "city": "Milan",
                "country_code": "IT"
            },
            "circle": {
                "id": "33227",
                "latitude": 45.4405,
                "longitude": 9.2185,
                "radius": 38.976317257038005
            }
        },
        {
            "marker": {
                "id": "JAM",
                "latitude": 42.4548988342,
                "longitude": 26.3521995544,
                "city": "Yambol",
                "country_code": "BG"
            },
            "circle": {
                "id": "11518",
                "latitude": 42.1715,
                "longitude": 26.5675,
                "radius": 71.17996313690641
            }
        },
        {
            "marker": {
                "id": "RIX",
                "latitude": 56.9235992432,
                "longitude": 23.9710998535,
                "city": "Riga",
                "country_code": "LV"
            },
            "circle": {
                "id": "33536",
                "latitude": 56.9205,
                "longitude": 24.1385,
                "radius": 80.73434877336639
            }
        },
        {
            "marker": {
                "id": "ESB",
                "latitude": 40.1281013489,
                "longitude": 32.995098114,
                "city": "Ankara",
                "country_code": "TR"
            },
            "circle": {
                "id": "32508",
                "latitude": 39.8915,
                "longitude": 32.7775,
                "radius": 85.505006116012
            }
        },
        {
            "marker": {
                "id": "RJK",
                "latitude": 45.2168998718,
                "longitude": 14.5703001022,
                "city": "Rijeka",
                "country_code": "HR"
            },
            "circle": {
                "id": "22305",
                "latitude": 46.0695,
                "longitude": 14.4875,
                "radius": 99.36986767208761
            }
        },
        {
            "marker": {
                "id": "EKT",
                "latitude": 59.3511009216,
                "longitude": 16.7084007263,
                "city": "Eskilstuna",
                "country_code": "SE"
            },
            "circle": {
                "id": "10748",
                "latitude": 59.2015,
                "longitude": 18.1295,
                "radius": 105.4947475060108
            }
        },
        {
            "marker": {
                "id": "LWN",
                "latitude": 40.7504005432,
                "longitude": 43.8592987061,
                "city": "Gyumri",
                "country_code": "AM"
            },
            "circle": {
                "id": "1004560",
                "latitude": 40.1675,
                "longitude": 44.5205,
                "radius": 115.440182424686
            }
        },
        {
            "marker": {
                "id": "AGH",
                "latitude": 56.2961006165,
                "longitude": 12.8471002579,
                "city": "\u00c4ngelholm",
                "country_code": "SE"
            },
            "circle": {
                "id": "50708",
                "latitude": 55.5915,
                "longitude": 13.0075,
                "radius": 117.65103188545281
            }
        },
        {
            "marker": {
                "id": "RYG",
                "latitude": 59.3788986206,
                "longitude": 10.7855997086,
                "city": "Rygge",
                "country_code": "NO"
            },
            "circle": {
                "id": "27765",
                "latitude": 59.9295,
                "longitude": 10.7505,
                "radius": 124.74040401525359
            }
        },
        {
            "marker": {
                "id": "VEY",
                "latitude": 63.4243011475,
                "longitude": -20.2789001465,
                "city": "Vestmannaeyjar",
                "country_code": "IS"
            },
            "circle": {
                "id": "1000959",
                "latitude": 64.0715,
                "longitude": -22.0205,
                "radius": 144.4044508788812
            }
        },
        {
            "marker": {
                "id": "AUF",
                "latitude": 47.8502006531,
                "longitude": 3.49710989,
                "city": "Auxerre/Branches",
                "country_code": "FR"
            },
            "circle": {
                "id": "31833",
                "latitude": 48.7885,
                "longitude": 1.9785,
                "radius": 156.58747674557682
            }
        },
        {
            "marker": {
                "id": "ZAG",
                "latitude": 45.7429008484,
                "longitude": 16.0687999725,
                "city": "Zagreb",
                "country_code": "HR"
            },
            "circle": {
                "id": "27478",
                "latitude": 46.5615,
                "longitude": 15.6605,
                "radius": 157.3165720034328
            }
        },
        {
            "marker": {
                "id": "ZRH",
                "latitude": 47.4646987915,
                "longitude": 8.5491695404,
                "city": "Zurich",
                "country_code": "CH"
            },
            "circle": {
                "id": "6250",
                "latitude": 48.9975,
                "longitude": 8.3895,
                "radius": 171.9121476966376
            }
        },
        {
            "marker": {
                "id": "TLL",
                "latitude": 59.4132995605,
                "longitude": 24.8327999115,
                "city": "Tallinn",
                "country_code": "EE"
            },
            "circle": {
                "id": "20413",
                "latitude": 60.8685,
                "longitude": 26.6975,
                "radius": 201.7532491319912
            }
        },
        {
            "marker": {
                "id": "HAM",
                "latitude": 53.6304016113,
                "longitude": 9.9882297516,
                "city": "Hamburg",
                "country_code": "DE"
            },
            "circle": {
                "id": "54477",
                "latitude": 52.1405,
                "longitude": 11.6405,
                "radius": 204.8806840538472
            }
        },
        {
            "marker": {
                "id": "PVN",
                "latitude": 43.4514007568,
                "longitude": 24.5027999878,
                "city": "Dolna Mitropoliya",
                "country_code": "BG"
            },
            "circle": {
                "id": "19798",
                "latitude": 45.1415,
                "longitude": 26.0315,
                "radius": 244.09281805834806
            }
        },
        {
            "marker": {
                "id": "LTN",
                "latitude": 51.8746986389,
                "longitude": -0.3683330119,
                "city": "London",
                "country_code": "GB"
            },
            "circle": {
                "id": "6696",
                "latitude": 51.0205,
                "longitude": 2.1615,
                "radius": 282.22965647449445
            }
        },
        {
            "marker": {
                "id": "KSF",
                "latitude": 51.4083328247,
                "longitude": 9.3774995804,
                "city": "Kassel",
                "country_code": "DE"
            },
            "circle": {
                "id": "15189",
                "latitude": 52.0415,
                "longitude": 5.6515,
                "radius": 270.86416464076484
            }
        },
        {
            "marker": {
                "id": "MMK",
                "latitude": 68.7817001343,
                "longitude": 32.7508010864,
                "city": "Murmansk",
                "country_code": "RU"
            },
            "circle": {
                "id": "665",
                "latitude": 65.8595,
                "longitude": 23.1505,
                "radius": 596.82982331098
            }
        },
        {
            "marker": {
                "id": "SVQ",
                "latitude": 37.4179992676,
                "longitude": -5.8931097984,
                "city": "Sevilla",
                "country_code": "ES"
            },
            "circle": {
                "id": "32925",
                "latitude": 30.4095,
                "longitude": -9.5615,
                "radius": 911.6392452831496
            }
        }
    ]
}