{
    "target": "192.36.148.17",
    "measurement_filepath": "datasets/measurements/campaigns/192.36.148.17_North-Central-section_20230425/192.36.148.17_North-Central-section_1_52653005.json",
    "probes_filepath": "datasets/probes_section/North-Central-section_1.json",
    "alpha": 0.6,
    "threshold": -1,
    "noise": 0,
    "num_anycast_instances": 24,
    "anycast_instances": [
        {
            "marker": {
                "id": "WIE",
                "latitude": 48.1102981567,
                "longitude": 16.5697002411,
                "city": "Vienna",
                "country_code": "AT"
            },
            "circle": {
                "id": "6042",
                "latitude": 48.2085,
                "longitude": 16.3695,
                "radius": 26.6229493157068
            }
        },
        {
            "marker": {
                "id": "LIN",
                "latitude": 45.445098877,
                "longitude": 9.2767400742,
                "city": "Milan",
                "country_code": "IT"
            },
            "circle": {
                "id": "33227",
                "latitude": 45.4405,
                "longitude": 9.2185,
                "radius": 38.976317257038005
            }
        },
        {
            "marker": {
                "id": "JAM",
                "latitude": 42.4548988342,
                "longitude": 26.3521995544,
                "city": "Yambol",
                "country_code": "BG"
            },
            "circle": {
                "id": "11518",
                "latitude": 42.1715,
                "longitude": 26.5675,
                "radius": 71.17996313690641
            }
        },
        {
            "marker": {
                "id": "RIX",
                "latitude": 56.9235992432,
                "longitude": 23.9710998535,
                "city": "Riga",
                "country_code": "LV"
            },
            "circle": {
                "id": "33536",
                "latitude": 56.9205,
                "longitude": 24.1385,
                "radius": 80.73434877336639
            }
        },
        {
            "marker": {
                "id": "ESB",
                "latitude": 40.1281013489,
                "longitude": 32.995098114,
                "city": "Ankara",
                "country_code": "TR"
            },
            "circle": {
                "id": "32508",
                "latitude": 39.8915,
                "longitude": 32.7775,
                "radius": 85.505006116012
            }
        },
        {
            "marker": {
                "id": "TRS",
                "latitude": 45.8274993896,
                "longitude": 13.4722003937,
                "city": "Trieste",
                "country_code": "IT"
            },
            "circle": {
                "id": "22305",
                "latitude": 46.0695,
                "longitude": 14.4875,
                "radius": 99.36986767208761
            }
        },
        {
            "marker": {
                "id": "ARN",
                "latitude": 59.6519012451,
                "longitude": 17.9186000824,
                "city": "Stockholm",
                "country_code": "SE"
            },
            "circle": {
                "id": "10748",
                "latitude": 59.2015,
                "longitude": 18.1295,
                "radius": 105.4947475060108
            }
        },
        {
            "marker": {
                "id": "EVN",
                "latitude": 40.1473007202,
                "longitude": 44.3959007263,
                "city": "Yerevan",
                "country_code": "AM"
            },
            "circle": {
                "id": "1004560",
                "latitude": 40.1675,
                "longitude": 44.5205,
                "radius": 115.440182424686
            }
        },
        {
            "marker": {
                "id": "RKE",
                "latitude": 55.5856018066,
                "longitude": 12.1314001083,
                "city": "Copenhagen",
                "country_code": "DK"
            },
            "circle": {
                "id": "50708",
                "latitude": 55.5915,
                "longitude": 13.0075,
                "radius": 117.65103188545281
            }
        },
        {
            "marker": {
                "id": "NIX",
                "latitude": 60.193901062,
                "longitude": 11.100399971,
                "city": "Oslo",
                "country_code": "NO"
            },
            "circle": {
                "id": "27765",
                "latitude": 59.9295,
                "longitude": 10.7505,
                "radius": 124.74040401525359
            }
        },
        {
            "marker": {
                "id": "VEY",
                "latitude": 63.4243011475,
                "longitude": -20.2789001465,
                "city": "Vestmannaeyjar",
                "country_code": "IS"
            },
            "circle": {
                "id": "1000959",
                "latitude": 64.0715,
                "longitude": -22.0205,
                "radius": 144.4044508788812
            }
        },
        {
            "marker": {
                "id": "PAR",
                "latitude": 49.0127983093,
                "longitude": 2.5499999523,
                "city": "Paris",
                "country_code": "FR"
            },
            "circle": {
                "id": "31833",
                "latitude": 48.7885,
                "longitude": 1.9785,
                "radius": 156.58747674557682
            }
        },
        {
            "marker": {
                "id": "ZAG",
                "latitude": 45.7429008484,
                "longitude": 16.0687999725,
                "city": "Zagreb",
                "country_code": "HR"
            },
            "circle": {
                "id": "27478",
                "latitude": 46.5615,
                "longitude": 15.6605,
                "radius": 157.3165720034328
            }
        },
        {
            "marker": {
                "id": "DEX",
                "latitude": 50.121212,
                "longitude": 8.6365638,
                "city": "Frankfurt-am-Main",
                "country_code": "DE"
            },
            "circle": {
                "id": "6250",
                "latitude": 48.9975,
                "longitude": 8.3895,
                "radius": 171.9121476966376
            }
        },
        {
            "marker": {
                "id": "FICIX",
                "latitude": 60.1733244,
                "longitude": 24.9410248,
                "city": "Helsinki",
                "country_code": "FI"
            },
            "circle": {
                "id": "20413",
                "latitude": 60.8685,
                "longitude": 26.6975,
                "radius": 201.7532491319912
            }
        },
        {
            "marker": {
                "id": "SXF",
                "latitude": 52.3800010681,
                "longitude": 13.5225000381,
                "city": "Berlin",
                "country_code": "DE"
            },
            "circle": {
                "id": "54477",
                "latitude": 52.1405,
                "longitude": 11.6405,
                "radius": 204.8806840538472
            }
        },
        {
            "marker": {
                "id": "BBU",
                "latitude": 44.503200531,
                "longitude": 26.1021003723,
                "city": "Bucharest",
                "country_code": "RO"
            },
            "circle": {
                "id": "19798",
                "latitude": 45.1415,
                "longitude": 26.0315,
                "radius": 244.09281805834806
            }
        },
        {
            "marker": {
                "id": "BEG",
                "latitude": 44.8184013367,
                "longitude": 20.3090991974,
                "city": "Belgrade",
                "country_code": "RS"
            },
            "circle": {
                "id": "12835",
                "latitude": 43.3195,
                "longitude": 21.8885,
                "radius": 249.9940527186032
            }
        },
        {
            "marker": {
                "id": "GOT",
                "latitude": 57.6627998352,
                "longitude": 12.279800415,
                "city": "Gothenburg",
                "country_code": "SE"
            },
            "circle": {
                "id": "21552",
                "latitude": 58.1585,
                "longitude": 8.0195,
                "radius": 268.44382021034755
            }
        },
        {
            "marker": {
                "id": "STN",
                "latitude": 51.8849983215,
                "longitude": 0.2349999994,
                "city": "London",
                "country_code": "GB"
            },
            "circle": {
                "id": "1005065",
                "latitude": 50.7295,
                "longitude": -2.0495,
                "radius": 315.276438663242
            }
        },
        {
            "marker": {
                "id": "HAM",
                "latitude": 53.6304016113,
                "longitude": 9.9882297516,
                "city": "Hamburg",
                "country_code": "DE"
            },
            "circle": {
                "id": "60345",
                "latitude": 53.1695,
                "longitude": 6.7995,
                "radius": 342.37563827772766
            }
        },
        {
            "marker": {
                "id": "BNX",
                "latitude": 50.4592018127,
                "longitude": 4.4538202286,
                "city": "Brussels",
                "country_code": "BE"
            },
            "circle": {
                "id": "15189",
                "latitude": 52.0415,
                "longitude": 5.6515,
                "radius": 270.86416464076484
            }
        },
        {
            "marker": {
                "id": "MMK",
                "latitude": 68.7817001343,
                "longitude": 32.7508010864,
                "city": "Murmansk",
                "country_code": "RU"
            },
            "circle": {
                "id": "665",
                "latitude": 65.8595,
                "longitude": 23.1505,
                "radius": 596.82982331098
            }
        },
        {
            "marker": {
                "id": "CMN",
                "latitude": 33.3675003052,
                "longitude": -7.5899701118,
                "city": "Casablanca",
                "country_code": "MA"
            },
            "circle": {
                "id": "32925",
                "latitude": 30.4095,
                "longitude": -9.5615,
                "radius": 911.6392452831496
            }
        }
    ]
}