{
    "target": "198.97.190.53",
    "probes_filepath": "datasets/probes_section/North-Central-section_2.json",
    "alpha": 0.0,
    "threshold": -1,
    "noise": 0,
    "results_filepath": "datasets/results/campaigns/198.97.190.53_North-Central-section_20230425_alpha_light-factor_0.35/198.97.190.53_North-Central-section_2_52652506_0.0_-1_0.json",
    "gt_filepath": "datasets/ground-truth/root_servers/root_servers_H.json",
    "statistics": {
        "TP": 0,
        "FP": 7,
        "TN": 0,
        "FN": 2,
        "accuracy": 0.0,
        "precision": 0.0,
        "recall": 0.0,
        "f1": 0,
        "OT": 0,
        "OF": 0
    },
    "instances": [
        {
            "country_code": "BE",
            "city": "Wevelgem",
            "latitude": 50.817199707,
            "longitude": 3.2047200203,
            "type": "FP"
        },
        {
            "country_code": "DE",
            "city": "Frankfurt",
            "latitude": 50.11944,
            "longitude": 8.735556,
            "type": "FN"
        },
        {
            "country_code": "DE",
            "city": "Fritzlar",
            "latitude": 51.1146,
            "longitude": 9.286,
            "type": "FP"
        },
        {
            "country_code": "DE",
            "city": "Memmingen",
            "latitude": 47.9888000488,
            "longitude": 10.2395000458,
            "type": "FP"
        },
        {
            "country_code": "FR",
            "city": "Granville",
            "latitude": 48.8830986023,
            "longitude": -1.5641700029,
            "type": "FP"
        },
        {
            "country_code": "GB",
            "city": "London",
            "latitude": 51.523551,
            "longitude": -0.100785,
            "type": "FN"
        },
        {
            "country_code": "IT",
            "city": "Genova",
            "latitude": 44.4132995605,
            "longitude": 8.8374996185,
            "type": "FP"
        },
        {
            "country_code": "RU",
            "city": "Lipetsk",
            "latitude": 52.7028007507,
            "longitude": 39.5377998352,
            "type": "FP"
        },
        {
            "country_code": "SE",
            "city": "Karlstad",
            "latitude": 59.4446983337,
            "longitude": 13.3374004364,
            "type": "FP"
        }
    ]
}