{
    "target": "199.9.14.201",
    "probes_filepath": "datasets/probes_sets/North-Central_500.json",
    "alpha": 0.0,
    "threshold": -1,
    "noise": 0,
    "results_filepath": "datasets/results/campaigns/199.9.14.201_North-Central_20230410_alpha_light-factor_0.30/199.9.14.201_North-Central_500_52069589_0.0_-1_0.json",
    "gt_filepath": "datasets/ground-truth/root_servers/root_servers_B.json",
    "statistics": {
        "TP": 1,
        "FP": 6,
        "TN": 0,
        "FN": 0,
        "accuracy": 0.14285714285714285,
        "precision": 0.14285714285714285,
        "recall": 1.0,
        "f1": 0.25,
        "OT": 0,
        "OF": 0
    },
    "instances": [
        {
            "country_code": "BY",
            "city": "Minsk",
            "latitude": 53.8644981384,
            "longitude": 27.5396995544,
            "type": "FP"
        },
        {
            "country_code": "DE",
            "city": "Dortmund",
            "latitude": 51.5182991028,
            "longitude": 7.6122398377,
            "type": "FP"
        },
        {
            "country_code": "DE",
            "city": "Friedrichshafen",
            "latitude": 47.6712989807,
            "longitude": 9.5114898682,
            "type": "FP"
        },
        {
            "country_code": "GB",
            "city": "Cardiff",
            "latitude": 51.3967018127,
            "longitude": -3.3433299065,
            "type": "FP"
        },
        {
            "country_code": "GB",
            "city": "Hawarden",
            "latitude": 53.1781005859,
            "longitude": -2.9777801037,
            "type": "FP"
        },
        {
            "country_code": "NL",
            "city": "Amsterdam",
            "latitude": 52.3086013794,
            "longitude": 4.7638897896,
            "type": "TP"
        },
        {
            "country_code": "NL",
            "city": "Den Helder",
            "latitude": 52.9234008789,
            "longitude": 4.7806200981,
            "type": "FP"
        }
    ]
}