{
    "target": "192.5.5.241",
    "measurement_filepath": "datasets/measurements/campaigns/20230408_192.5.5.241/192.5.5.241_North-Central_100_52022060.json",
    "probes_filepath": "datasets/probes_sets/North-Central_100.json",
    "alpha": 0.1,
    "threshold": -1,
    "noise": 0,
    "num_anycast_instances": 15,
    "anycast_instances": [
        {
            "marker": {
                "id": "RIX",
                "latitude": 56.9235992432,
                "longitude": 23.9710998535,
                "city": "Riga",
                "country_code": "LV"
            },
            "circle": {
                "id": "1004050",
                "latitude": 56.9475,
                "longitude": 24.0995,
                "radius": 75.60598143661775
            }
        },
        {
            "marker": {
                "id": "ZAG",
                "latitude": 45.7429008484,
                "longitude": 16.0687999725,
                "city": "Zagreb",
                "country_code": "HR"
            },
            "circle": {
                "id": "24282",
                "latitude": 46.3085,
                "longitude": 16.3515,
                "radius": 94.14252385533027
            }
        },
        {
            "marker": {
                "id": "BEG",
                "latitude": 44.8184013367,
                "longitude": 20.3090991974,
                "city": "Belgrade",
                "country_code": "RS"
            },
            "circle": {
                "id": "61257",
                "latitude": 44.8105,
                "longitude": 20.3895,
                "radius": 114.43373969680393
            }
        },
        {
            "marker": {
                "id": "DRS",
                "latitude": 51.1328010559,
                "longitude": 13.76720047,
                "city": "Dresden",
                "country_code": "DE"
            },
            "circle": {
                "id": "62603",
                "latitude": 50.0685,
                "longitude": 14.4075,
                "radius": 147.10184772043158
            }
        },
        {
            "marker": {
                "id": "FMM",
                "latitude": 47.9888000488,
                "longitude": 10.2395000458,
                "city": "Memmingen",
                "country_code": "DE"
            },
            "circle": {
                "id": "22294",
                "latitude": 47.8495,
                "longitude": 12.1215,
                "radius": 147.64403815927503
            }
        },
        {
            "marker": {
                "id": "KBP",
                "latitude": 50.3450012207,
                "longitude": 30.8946990967,
                "city": "Kiev",
                "country_code": "UA"
            },
            "circle": {
                "id": "52720",
                "latitude": 50.5575,
                "longitude": 30.3485,
                "radius": 153.72163993364407
            }
        },
        {
            "marker": {
                "id": "GNA",
                "latitude": 53.6020011902,
                "longitude": 24.0538005829,
                "city": "Hrodna",
                "country_code": "BY"
            },
            "circle": {
                "id": "19206",
                "latitude": 54.6705,
                "longitude": 25.1875,
                "radius": 155.21902436860196
            }
        },
        {
            "marker": {
                "id": "VEY",
                "latitude": 63.4243011475,
                "longitude": -20.2789001465,
                "city": "Vestmannaeyjar",
                "country_code": "IS"
            },
            "circle": {
                "id": "33893",
                "latitude": 64.1485,
                "longitude": -21.9385,
                "radius": 215.62710603966184
            }
        },
        {
            "marker": {
                "id": "IWA",
                "latitude": 56.9393997192,
                "longitude": 40.9407997131,
                "city": "Ivanovo",
                "country_code": "RU"
            },
            "circle": {
                "id": "34854",
                "latitude": 55.9595,
                "longitude": 37.7295,
                "radius": 235.85076996214534
            }
        },
        {
            "marker": {
                "id": "BNX",
                "latitude": 50.4592018127,
                "longitude": 4.4538202286,
                "city": "Brussels",
                "country_code": "BE"
            },
            "circle": {
                "id": "1004422",
                "latitude": 48.8285,
                "longitude": 2.4085,
                "radius": 251.85524950203944
            }
        },
        {
            "marker": {
                "id": "WIE",
                "latitude": 48.1102981567,
                "longitude": 16.5697002411,
                "city": "Vienna",
                "country_code": "AT"
            },
            "circle": {
                "id": "1000789",
                "latitude": 47.5715,
                "longitude": 19.0615,
                "radius": 252.48254549721645
            }
        },
        {
            "marker": {
                "id": "XFW",
                "latitude": 53.5352783203,
                "longitude": 9.8355560303,
                "city": "Hamburg",
                "country_code": "DE"
            },
            "circle": {
                "id": "62777",
                "latitude": 56.0005,
                "longitude": 12.9605,
                "radius": 360.67734774159607
            }
        },
        {
            "marker": {
                "id": "LGW",
                "latitude": 51.1481018066,
                "longitude": -0.1902779937,
                "city": "London",
                "country_code": "GB"
            },
            "circle": {
                "id": "54916",
                "latitude": 53.8305,
                "longitude": -0.4525,
                "radius": 433.3760326471947
            }
        },
        {
            "marker": {
                "id": "ECV",
                "latitude": 40.3707008362,
                "longitude": -3.7851400375,
                "city": "Madrid",
                "country_code": "ES"
            },
            "circle": {
                "id": "55420",
                "latitude": 41.4975,
                "longitude": 2.0385,
                "radius": 735.8598182693256
            }
        },
        {
            "marker": {
                "id": "CWE",
                "latitude": 30.116399765,
                "longitude": 30.9153995514,
                "city": "El Cairo",
                "country_code": "EG"
            },
            "circle": {
                "id": "32508",
                "latitude": 39.8915,
                "longitude": 32.7775,
                "radius": 1108.1840043882814
            }
        }
    ]
}