{
    "target": "199.7.83.42",
    "probes_filepath": "datasets/probes_section/North-Central-section_2.json",
    "alpha": 0.0,
    "threshold": -1,
    "noise": 0,
    "results_filepath": "datasets/results/campaigns/199.7.83.42_North-Central-section_20230425_alpha_light-factor_0.30/199.7.83.42_North-Central-section_2_52655401_0.0_-1_0.json",
    "gt_filepath": "datasets/ground-truth/root_servers/root_servers_L.json",
    "statistics": {
        "TP": 8,
        "FP": 23,
        "TN": 0,
        "FN": 33,
        "accuracy": 0.125,
        "precision": 0.25806451612903225,
        "recall": 0.1951219512195122,
        "f1": 0.2222222222222222,
        "OT": 0,
        "OF": 0
    },
    "instances": [
        {
            "country_code": "AM",
            "city": "Yerevan",
            "latitude": 40.183333,
            "longitude": 44.516667,
            "type": "FN"
        },
        {
            "country_code": "AT",
            "city": "Vienna",
            "latitude": 48.1102981567,
            "longitude": 16.5697002411,
            "type": "TP"
        },
        {
            "country_code": "BE",
            "city": "Brussels",
            "latitude": 50.8503396,
            "longitude": 4.3517103,
            "type": "FN"
        },
        {
            "country_code": "BG",
            "city": "Sofia",
            "latitude": 42.6977082,
            "longitude": 23.3218675,
            "type": "FN"
        },
        {
            "country_code": "BG",
            "city": "Yambol",
            "latitude": 42.4548988342,
            "longitude": 26.3521995544,
            "type": "FP"
        },
        {
            "country_code": "BY",
            "city": "Minsk",
            "latitude": 53.902334,
            "longitude": 27.5618791,
            "type": "FN"
        },
        {
            "country_code": "CH",
            "city": "Geneva",
            "latitude": 46.204705,
            "longitude": 6.1431301,
            "type": "TP"
        },
        {
            "country_code": "DE",
            "city": "Dortmund",
            "latitude": 51.5142273,
            "longitude": 7.4652789,
            "type": "FN"
        },
        {
            "country_code": "DE",
            "city": "Dusseldorf",
            "latitude": 51.2254018,
            "longitude": 6.7763137,
            "type": "FN"
        },
        {
            "country_code": "DE",
            "city": "Hamburg",
            "latitude": 53.5437641,
            "longitude": 10.0099133,
            "type": "FN"
        },
        {
            "country_code": "DE",
            "city": "Stuttgart",
            "latitude": 48.6898994446,
            "longitude": 9.2219600677,
            "type": "FP"
        },
        {
            "country_code": "DK",
            "city": "R\u00f8nne",
            "latitude": 55.0633010864,
            "longitude": 14.7595996857,
            "type": "FP"
        },
        {
            "country_code": "EE",
            "city": "Tartu",
            "latitude": 58.3074989319,
            "longitude": 26.6903991699,
            "type": "FP"
        },
        {
            "country_code": "ES",
            "city": "El Prat de Llobregat",
            "latitude": 41.3246333,
            "longitude": 2.0952568,
            "type": "FN"
        },
        {
            "country_code": "ES",
            "city": "Madrid",
            "latitude": 40.4167754,
            "longitude": -3.7037902,
            "type": "FN"
        },
        {
            "country_code": "FI",
            "city": "Helsinki-Vantaa",
            "latitude": 60.32135905,
            "longitude": 24.947206800038444,
            "type": "FN"
        },
        {
            "country_code": "FI",
            "city": "Mikkeli",
            "latitude": 61.6865997314,
            "longitude": 27.2017993927,
            "type": "FP"
        },
        {
            "country_code": "FI",
            "city": "Pori",
            "latitude": 61.4617004395,
            "longitude": 21.7999992371,
            "type": "FP"
        },
        {
            "country_code": "FI",
            "city": "Tampere",
            "latitude": 61.4977524,
            "longitude": 23.7609535,
            "type": "FN"
        },
        {
            "country_code": "FR",
            "city": "Granville",
            "latitude": 48.8830986023,
            "longitude": -1.5641700029,
            "type": "FP"
        },
        {
            "country_code": "FR",
            "city": "Lyon",
            "latitude": 45.764043,
            "longitude": 4.835659,
            "type": "FN"
        },
        {
            "country_code": "FR",
            "city": "Marseille",
            "latitude": 43.2961743,
            "longitude": 5.3699525,
            "type": "FN"
        },
        {
            "country_code": "FR",
            "city": "Orange/Caritat",
            "latitude": 44.140499115,
            "longitude": 4.8667201996,
            "type": "TP"
        },
        {
            "country_code": "FR",
            "city": "Paris",
            "latitude": 48.856614,
            "longitude": 2.3522219,
            "type": "FN"
        },
        {
            "country_code": "FR",
            "city": "Paris-Orly",
            "latitude": 48.73005725,
            "longitude": 2.3678372321914303,
            "type": "FN"
        },
        {
            "country_code": "FR",
            "city": "Perpignan/Rivesaltes",
            "latitude": 42.740398407,
            "longitude": 2.8706700802,
            "type": "FP"
        },
        {
            "country_code": "FR",
            "city": "Toulouse/Blagnac",
            "latitude": 43.6291007996,
            "longitude": 1.3638199568,
            "type": "FP"
        },
        {
            "country_code": "GB",
            "city": "Dundee",
            "latitude": 56.4605938,
            "longitude": -2.97019,
            "type": "FN"
        },
        {
            "country_code": "GB",
            "city": "Hawarden",
            "latitude": 53.1781005859,
            "longitude": -2.9777801037,
            "type": "FP"
        },
        {
            "country_code": "GB",
            "city": "Leeds-Bradford",
            "latitude": 53.8665524,
            "longitude": -1.6567664615412192,
            "type": "FN"
        },
        {
            "country_code": "GR",
            "city": "Heraklion",
            "latitude": 35.3400127,
            "longitude": 25.1343475,
            "type": "FN"
        },
        {
            "country_code": "HR",
            "city": "Osijek",
            "latitude": 45.4626998901,
            "longitude": 18.8101997375,
            "type": "FP"
        },
        {
            "country_code": "IQ",
            "city": "Arbil",
            "latitude": 36.2375984192,
            "longitude": 43.9631996155,
            "type": "TP"
        },
        {
            "country_code": "IT",
            "city": "Ancona",
            "latitude": 43.480120400000004,
            "longitude": 13.218790609151764,
            "type": "FN"
        },
        {
            "country_code": "IT",
            "city": "Firenze",
            "latitude": 43.8100013733,
            "longitude": 11.2051000595,
            "type": "TP"
        },
        {
            "country_code": "IT",
            "city": "Latina",
            "latitude": 41.45952605,
            "longitude": 13.012591212188894,
            "type": "FN"
        },
        {
            "country_code": "JO",
            "city": "Amman",
            "latitude": 31.9515694,
            "longitude": 35.9239625,
            "type": "FN"
        },
        {
            "country_code": "LB",
            "city": "Beirut",
            "latitude": 33.8886289,
            "longitude": 35.4954794,
            "type": "FN"
        },
        {
            "country_code": "LT",
            "city": "Vilnius",
            "latitude": 54.6341018677,
            "longitude": 25.2858009338,
            "type": "FP"
        },
        {
            "country_code": "MA",
            "city": "Meknes",
            "latitude": 33.8791007996,
            "longitude": -5.5151200294,
            "type": "FP"
        },
        {
            "country_code": "MA",
            "city": "Rabat",
            "latitude": 34.022405,
            "longitude": -6.834543,
            "type": "FN"
        },
        {
            "country_code": "N/A",
            "city": "N/A",
            "latitude": 50.0715,
            "longitude": 14.5285,
            "type": "TP"
        },
        {
            "country_code": "NL",
            "city": "Groningen",
            "latitude": 53.1197013855,
            "longitude": 6.5794401169,
            "type": "FP"
        },
        {
            "country_code": "PS",
            "city": "Ramallah",
            "latitude": 31.9030543,
            "longitude": 35.1952255,
            "type": "FN"
        },
        {
            "country_code": "PT",
            "city": "Porto",
            "latitude": 41.1494512,
            "longitude": -8.6107884,
            "type": "FN"
        },
        {
            "country_code": "RO",
            "city": "Bucharest",
            "latitude": 44.5722007751,
            "longitude": 26.1021995544,
            "type": "TP"
        },
        {
            "country_code": "RS",
            "city": "Belgrade",
            "latitude": 44.786568,
            "longitude": 20.4489216,
            "type": "FN"
        },
        {
            "country_code": "RS",
            "city": "Nis",
            "latitude": 43.337299,
            "longitude": 21.853701,
            "type": "FP"
        },
        {
            "country_code": "RU",
            "city": "Bryansk",
            "latitude": 53.2141990662,
            "longitude": 34.176399231,
            "type": "FP"
        },
        {
            "country_code": "RU",
            "city": "Kostroma",
            "latitude": 57.7969017029,
            "longitude": 41.0194015503,
            "type": "FP"
        },
        {
            "country_code": "RU",
            "city": "Moscow",
            "latitude": 55.755826,
            "longitude": 37.6173,
            "type": "FN"
        },
        {
            "country_code": "RU",
            "city": "Rostov-on-Don",
            "latitude": 47.2213858,
            "longitude": 39.7114196,
            "type": "FN"
        },
        {
            "country_code": "RU",
            "city": "Saint Petersburg",
            "latitude": 59.9342802,
            "longitude": 30.3350986,
            "type": "FN"
        },
        {
            "country_code": "RU",
            "city": "Velikiye Luki",
            "latitude": 56.3810997009,
            "longitude": 30.6081008911,
            "type": "FP"
        },
        {
            "country_code": "SE",
            "city": "Stockholm",
            "latitude": 59.3544006348,
            "longitude": 17.9416999817,
            "type": "TP"
        },
        {
            "country_code": "SE",
            "city": "S\u00f6derhamn",
            "latitude": 61.2615013123,
            "longitude": 17.0991001129,
            "type": "FP"
        },
        {
            "country_code": "SE",
            "city": "\u00d6rnsk\u00f6ldsvik",
            "latitude": 63.4082984924,
            "longitude": 18.9899997711,
            "type": "FP"
        },
        {
            "country_code": "TR",
            "city": "Ankara",
            "latitude": 39.7160439,
            "longitude": 32.7059948,
            "type": "FN"
        },
        {
            "country_code": "TR",
            "city": "\u0130zmir",
            "latitude": 38.2924003601,
            "longitude": 27.156999588,
            "type": "FP"
        },
        {
            "country_code": "UA",
            "city": "Kharkiv",
            "latitude": 49.9902794,
            "longitude": 36.2303893,
            "type": "FN"
        },
        {
            "country_code": "UA",
            "city": "Kiev",
            "latitude": 50.4501,
            "longitude": 30.5234,
            "type": "FN"
        },
        {
            "country_code": "UA",
            "city": "Lviv",
            "latitude": 49.8125,
            "longitude": 23.9561004639,
            "type": "FP"
        },
        {
            "country_code": "UA",
            "city": "Odessa",
            "latitude": 46.4873195,
            "longitude": 30.7392776,
            "type": "FN"
        },
        {
            "country_code": "UA",
            "city": "Rivne",
            "latitude": 50.6071014404,
            "longitude": 26.1415996552,
            "type": "FP"
        }
    ]
}