{
    "target": "192.36.148.17",
    "probes_filepath": "datasets/probes_section/North-Central-section_2.json",
    "alpha": 0.3,
    "threshold": -1,
    "noise": 0,
    "results_filepath": "datasets/results/campaigns/192.36.148.17_North-Central-section_20230425_alpha_light-factor_0.35/192.36.148.17_North-Central-section_2_52653539_0.3_-1_0.json",
    "gt_filepath": "datasets/ground-truth/root_servers/root_servers_I.json",
    "statistics": {
        "TP": 12,
        "FP": 7,
        "TN": 0,
        "FN": 15,
        "accuracy": 0.35294117647058826,
        "precision": 0.631578947368421,
        "recall": 0.4444444444444444,
        "f1": 0.5217391304347826,
        "OT": 0,
        "OF": 0
    },
    "instances": [
        {
            "country_code": "AM",
            "city": "Yerevan",
            "latitude": 40.177822,
            "longitude": 44.521246,
            "type": "FN"
        },
        {
            "country_code": "AT",
            "city": "Vienna",
            "latitude": 48.1102981567,
            "longitude": 16.5697002411,
            "type": "TP"
        },
        {
            "country_code": "BE",
            "city": "Brussels",
            "latitude": 50.4592018127,
            "longitude": 4.4538202286,
            "type": "TP"
        },
        {
            "country_code": "BG",
            "city": "Sofia",
            "latitude": 42.6966934204,
            "longitude": 23.4114360809,
            "type": "TP"
        },
        {
            "country_code": "DE",
            "city": "Berlin",
            "latitude": 52.514029,
            "longitude": 13.41072,
            "type": "FN"
        },
        {
            "country_code": "DE",
            "city": "Cologne",
            "latitude": 50.8658981323,
            "longitude": 7.1427397728,
            "type": "FP"
        },
        {
            "country_code": "DE",
            "city": "Frankfurt",
            "latitude": 50.119606,
            "longitude": 8.685439,
            "type": "FN"
        },
        {
            "country_code": "EE",
            "city": "Tallinn",
            "latitude": 59.4132995605,
            "longitude": 24.8327999115,
            "type": "TP"
        },
        {
            "country_code": "FI",
            "city": "Helsinki",
            "latitude": 60.1733244,
            "longitude": 24.9410248,
            "type": "TP"
        },
        {
            "country_code": "FR",
            "city": "Paris",
            "latitude": 48.855725,
            "longitude": 2.349194,
            "type": "FN"
        },
        {
            "country_code": "GB",
            "city": "London",
            "latitude": 51.505088,
            "longitude": -0.119949,
            "type": "FN"
        },
        {
            "country_code": "IS",
            "city": "Reykjavik",
            "latitude": 64.147725,
            "longitude": -21.947503,
            "type": "FN"
        },
        {
            "country_code": "IS",
            "city": "Vestmannaeyjar",
            "latitude": 63.4243011475,
            "longitude": -20.2789001465,
            "type": "FP"
        },
        {
            "country_code": "IT",
            "city": "Milan",
            "latitude": 45.445098877,
            "longitude": 9.2767400742,
            "type": "TP"
        },
        {
            "country_code": "IT",
            "city": "Rome",
            "latitude": 41.8045005798,
            "longitude": 12.2508001328,
            "type": "FP"
        },
        {
            "country_code": "LT",
            "city": "Vilnius",
            "latitude": 54.755187,
            "longitude": 25.296416,
            "type": "FN"
        },
        {
            "country_code": "LU",
            "city": "Luxembourg",
            "latitude": 49.617173,
            "longitude": 6.136898,
            "type": "FN"
        },
        {
            "country_code": "LV",
            "city": "Riga",
            "latitude": 56.9235992432,
            "longitude": 23.9710998535,
            "type": "TP"
        },
        {
            "country_code": "MA",
            "city": "Casablanca",
            "latitude": 33.3675003052,
            "longitude": -7.5899701118,
            "type": "TP"
        },
        {
            "country_code": "N/A",
            "city": "N/A",
            "latitude": 40.9475,
            "longitude": 17.2785,
            "type": "FP"
        },
        {
            "country_code": "NL",
            "city": "Amsterdam",
            "latitude": 52.376051,
            "longitude": 4.902197,
            "type": "FN"
        },
        {
            "country_code": "NO",
            "city": "Oslo",
            "latitude": 60.193901062,
            "longitude": 11.100399971,
            "type": "TP"
        },
        {
            "country_code": "NO",
            "city": "Troms\u00f8",
            "latitude": 69.6832962036,
            "longitude": 18.9188995361,
            "type": "FP"
        },
        {
            "country_code": "RO",
            "city": "Bucharest",
            "latitude": 44.5722007751,
            "longitude": 26.1021995544,
            "type": "TP"
        },
        {
            "country_code": "RO",
            "city": "Craiova",
            "latitude": 44.3180999756,
            "longitude": 23.8885993958,
            "type": "FP"
        },
        {
            "country_code": "RS",
            "city": "Belgrade",
            "latitude": 44.810497,
            "longitude": 20.455291,
            "type": "FN"
        },
        {
            "country_code": "SE",
            "city": "Gothenburg",
            "latitude": 57.6627998352,
            "longitude": 12.279800415,
            "type": "TP"
        },
        {
            "country_code": "SE",
            "city": "Gothenburg",
            "latitude": 57.7747001648,
            "longitude": 11.8704004288,
            "type": "FP"
        },
        {
            "country_code": "SE",
            "city": "Malm\u00f6",
            "latitude": 55.566894,
            "longitude": 13.018172,
            "type": "FN"
        },
        {
            "country_code": "SE",
            "city": "Stockholm",
            "latitude": 59.3544006348,
            "longitude": 17.9416999817,
            "type": "TP"
        },
        {
            "country_code": "SE",
            "city": "Sundsvall",
            "latitude": 62.387574,
            "longitude": 17.27741,
            "type": "FN"
        },
        {
            "country_code": "SI",
            "city": "Ljubljana",
            "latitude": 46.065823,
            "longitude": 14.50024,
            "type": "FN"
        },
        {
            "country_code": "SK",
            "city": "Bratislava",
            "latitude": 48.155683,
            "longitude": 17.104361,
            "type": "FN"
        },
        {
            "country_code": "TR",
            "city": "Ankara",
            "latitude": 39.939289,
            "longitude": 32.852299,
            "type": "FN"
        }
    ]
}