{
    "target": "199.7.91.13",
    "probes_filepath": "datasets/probes_section/North-Central-section_2.json",
    "alpha": 0.0,
    "threshold": -1,
    "noise": 0,
    "results_filepath": "datasets/results/campaigns/199.7.91.13_North-Central-section_20230425_alpha_light-factor_0.18/199.7.91.13_North-Central-section_2_52646325_0.0_-1_0.json",
    "gt_filepath": "datasets/ground-truth/root_servers/root_servers_D.json",
    "statistics": {
        "TP": 23,
        "FP": 34,
        "TN": 0,
        "FN": 29,
        "accuracy": 0.26744186046511625,
        "precision": 0.40350877192982454,
        "recall": 0.4423076923076923,
        "f1": 0.42201834862385323,
        "OT": 0,
        "OF": 1
    },
    "instances": [
        {
            "country_code": "AL",
            "city": "Tirana",
            "latitude": 41.3275459,
            "longitude": 19.8186982,
            "type": "FN"
        },
        {
            "country_code": "AM",
            "city": "Yerevan",
            "latitude": 40.1473007202,
            "longitude": 44.3959007263,
            "type": "TP"
        },
        {
            "country_code": "AT",
            "city": "Feldkirch",
            "latitude": 47.2375671,
            "longitude": 9.5981724,
            "type": "FN"
        },
        {
            "country_code": "AT",
            "city": "Klagenfurt",
            "latitude": 46.62794,
            "longitude": 14.30899,
            "type": "FN"
        },
        {
            "country_code": "AT",
            "city": "Linz",
            "latitude": 48.2332000732,
            "longitude": 14.1875,
            "type": "TP"
        },
        {
            "country_code": "AT",
            "city": "Vienna",
            "latitude": 48.2081743,
            "longitude": 16.3738189,
            "type": "FN"
        },
        {
            "country_code": "BG",
            "city": "Burgas",
            "latitude": 42.5695991516,
            "longitude": 27.5151996613,
            "type": "FP"
        },
        {
            "country_code": "BG",
            "city": "Sofia",
            "latitude": 42.6966934204,
            "longitude": 23.4114360809,
            "type": "TP"
        },
        {
            "country_code": "CH",
            "city": "Geneva",
            "latitude": 46.2043907,
            "longitude": 6.1431577,
            "type": "FN"
        },
        {
            "country_code": "CH",
            "city": "Lausanne",
            "latitude": 46.5196535,
            "longitude": 6.6322734,
            "type": "FN"
        },
        {
            "country_code": "CH",
            "city": "Zurich",
            "latitude": 47.4646987915,
            "longitude": 8.5491695404,
            "type": "TP"
        },
        {
            "country_code": "CZ",
            "city": "Prague",
            "latitude": 50.0755381,
            "longitude": 14.4378005,
            "type": "FN"
        },
        {
            "country_code": "DE",
            "city": "Berlin",
            "latitude": 52.5200066,
            "longitude": 13.404954,
            "type": "FN"
        },
        {
            "country_code": "DE",
            "city": "Dortmund",
            "latitude": 51.5142273,
            "longitude": 7.4652789,
            "type": "FN"
        },
        {
            "country_code": "DE",
            "city": "Dresden",
            "latitude": 51.1328010559,
            "longitude": 13.76720047,
            "type": "FP"
        },
        {
            "country_code": "DE",
            "city": "Frankfurt",
            "latitude": 50.1109221,
            "longitude": 8.6821267,
            "type": "FN"
        },
        {
            "country_code": "DE",
            "city": "Hamburg",
            "latitude": 53.5437641,
            "longitude": 10.0099133,
            "type": "FN"
        },
        {
            "country_code": "DE",
            "city": "Magdeburg",
            "latitude": 52.0736122131,
            "longitude": 11.6263885498,
            "type": "FP"
        },
        {
            "country_code": "DE",
            "city": "Siegerland",
            "latitude": 50.7072535,
            "longitude": 8.0761931,
            "type": "FN"
        },
        {
            "country_code": "DE",
            "city": "Stuttgart",
            "latitude": 48.7784485,
            "longitude": 9.1800132,
            "type": "FN"
        },
        {
            "country_code": "EE",
            "city": "Tallinn",
            "latitude": 59.4132995605,
            "longitude": 24.8327999115,
            "type": "TP"
        },
        {
            "country_code": "ES",
            "city": "Burgos",
            "latitude": 42.3576011658,
            "longitude": -3.620759964,
            "type": "FP"
        },
        {
            "country_code": "ES",
            "city": "Las Palmas de Gran Canaria",
            "latitude": 27.9319000244,
            "longitude": -15.3865995407,
            "type": "OF"
        },
        {
            "country_code": "ES",
            "city": "Madrid",
            "latitude": 40.4967002869,
            "longitude": -3.4458699226,
            "type": "TP"
        },
        {
            "country_code": "ES",
            "city": "M\u00e1laga",
            "latitude": 36.6749000549,
            "longitude": -4.4991102219,
            "type": "TP"
        },
        {
            "country_code": "ES",
            "city": "Pamplona",
            "latitude": 42.7700004578,
            "longitude": -1.646329999,
            "type": "FP"
        },
        {
            "country_code": "ES",
            "city": "Reus",
            "latitude": 41.1473999023,
            "longitude": 1.1671700478,
            "type": "TP"
        },
        {
            "country_code": "FI",
            "city": "Kajaani",
            "latitude": 64.2854995728,
            "longitude": 27.6923999786,
            "type": "FP"
        },
        {
            "country_code": "FI",
            "city": "Tampere",
            "latitude": 61.5,
            "longitude": 23.766667,
            "type": "FN"
        },
        {
            "country_code": "FI",
            "city": "Vaasa",
            "latitude": 63.0507011414,
            "longitude": 21.7621994019,
            "type": "FP"
        },
        {
            "country_code": "FR",
            "city": "Charleville-M\u00e9zi\u00e8res",
            "latitude": 49.7839012146,
            "longitude": 4.6470799446,
            "type": "FP"
        },
        {
            "country_code": "FR",
            "city": "Deauville",
            "latitude": 49.3652992249,
            "longitude": 0.1543059945,
            "type": "FP"
        },
        {
            "country_code": "FR",
            "city": "La Rochelle/\u00cele de R\u00e9",
            "latitude": 46.1791992188,
            "longitude": -1.1952799559,
            "type": "FP"
        },
        {
            "country_code": "FR",
            "city": "Le Castellet",
            "latitude": 43.2524986267,
            "longitude": 5.7851901054,
            "type": "TP"
        },
        {
            "country_code": "FR",
            "city": "Lyon",
            "latitude": 45.764043,
            "longitude": 4.835659,
            "type": "FN"
        },
        {
            "country_code": "FR",
            "city": "Marseille",
            "latitude": 43.439271922,
            "longitude": 5.2214241028,
            "type": "FP"
        },
        {
            "country_code": "FR",
            "city": "Paris",
            "latitude": 48.856614,
            "longitude": 2.3522219,
            "type": "FN"
        },
        {
            "country_code": "GB",
            "city": "Benson",
            "latitude": 51.6164016724,
            "longitude": -1.0958299637,
            "type": "FP"
        },
        {
            "country_code": "GB",
            "city": "Edinburgh",
            "latitude": 55.953252,
            "longitude": -3.188267,
            "type": "FN"
        },
        {
            "country_code": "GB",
            "city": "Farnborough",
            "latitude": 51.2757987976,
            "longitude": -0.7763329744,
            "type": "TP"
        },
        {
            "country_code": "GB",
            "city": "Haverfordwest",
            "latitude": 51.8330993652,
            "longitude": -4.9611101151,
            "type": "FP"
        },
        {
            "country_code": "GB",
            "city": "Leeds",
            "latitude": 53.8007554,
            "longitude": -1.5490774,
            "type": "FN"
        },
        {
            "country_code": "GB",
            "city": "Manchester",
            "latitude": 53.4807593,
            "longitude": -2.2426305,
            "type": "FN"
        },
        {
            "country_code": "GR",
            "city": "Athens",
            "latitude": 37.9364013672,
            "longitude": 23.9444999695,
            "type": "TP"
        },
        {
            "country_code": "HR",
            "city": "Zagreb",
            "latitude": 45.8150108,
            "longitude": 15.981919,
            "type": "FN"
        },
        {
            "country_code": "HU",
            "city": "Debrecen",
            "latitude": 47.488899231,
            "longitude": 21.6152992249,
            "type": "FP"
        },
        {
            "country_code": "IE",
            "city": "Dublin",
            "latitude": 53.3498053,
            "longitude": -6.2603097,
            "type": "FN"
        },
        {
            "country_code": "IL",
            "city": "Tel Aviv",
            "latitude": 32.0852999,
            "longitude": 34.7817676,
            "type": "FN"
        },
        {
            "country_code": "IS",
            "city": "Reykjav\u00edk",
            "latitude": 63.9850006104,
            "longitude": -22.6056003571,
            "type": "TP"
        },
        {
            "country_code": "IT",
            "city": "Ancona",
            "latitude": 43.6162986755,
            "longitude": 13.3622999191,
            "type": "FP"
        },
        {
            "country_code": "IT",
            "city": "Aosta",
            "latitude": 45.7384986877,
            "longitude": 7.3687200546,
            "type": "TP"
        },
        {
            "country_code": "IT",
            "city": "Rome",
            "latitude": 41.9027835,
            "longitude": 12.4963655,
            "type": "FN"
        },
        {
            "country_code": "LB",
            "city": "Beirut",
            "latitude": 33.8886289,
            "longitude": 35.4954794,
            "type": "FN"
        },
        {
            "country_code": "LU",
            "city": "Luxembourg City",
            "latitude": 49.611621,
            "longitude": 6.1319346,
            "type": "FN"
        },
        {
            "country_code": "LV",
            "city": "Riga",
            "latitude": 56.9235992432,
            "longitude": 23.9710998535,
            "type": "TP"
        },
        {
            "country_code": "MK",
            "city": "Skopje",
            "latitude": 41.9616012573,
            "longitude": 21.6214008331,
            "type": "TP"
        },
        {
            "country_code": "N/A",
            "city": "N/A",
            "latitude": 59.9415,
            "longitude": 10.8305,
            "type": "TP"
        },
        {
            "country_code": "N/A",
            "city": "N/A",
            "latitude": 50.8805,
            "longitude": 20.6315,
            "type": "FP"
        },
        {
            "country_code": "N/A",
            "city": "N/A",
            "latitude": 58.1585,
            "longitude": 8.0195,
            "type": "FP"
        },
        {
            "country_code": "NL",
            "city": "Amsterdam",
            "latitude": 52.3086013794,
            "longitude": 4.7638897896,
            "type": "TP"
        },
        {
            "country_code": "NO",
            "city": "Berlev\u00e5g",
            "latitude": 70.8713989258,
            "longitude": 29.0342006683,
            "type": "FP"
        },
        {
            "country_code": "NO",
            "city": "Trondheim",
            "latitude": 63.4305658,
            "longitude": 10.3951929,
            "type": "FN"
        },
        {
            "country_code": "NO",
            "city": "\u00c5r\u00f8",
            "latitude": 62.7447013855,
            "longitude": 7.2624998093,
            "type": "FP"
        },
        {
            "country_code": "PL",
            "city": "Bydgoszcz",
            "latitude": 53.0968017578,
            "longitude": 17.9776992798,
            "type": "FP"
        },
        {
            "country_code": "PL",
            "city": "Warsaw",
            "latitude": 52.1656990051,
            "longitude": 20.9671001434,
            "type": "TP"
        },
        {
            "country_code": "PL",
            "city": "Wroc\u0142aw",
            "latitude": 51.1026992798,
            "longitude": 16.885799408,
            "type": "FP"
        },
        {
            "country_code": "PS",
            "city": "Gaza",
            "latitude": 31.7721276,
            "longitude": 35.2136806,
            "type": "FN"
        },
        {
            "country_code": "PT",
            "city": "Beja",
            "latitude": 38.0788993835,
            "longitude": -7.9324002266,
            "type": "FP"
        },
        {
            "country_code": "PT",
            "city": "Lisbon",
            "latitude": 38.7222524,
            "longitude": -9.1393366,
            "type": "FN"
        },
        {
            "country_code": "RO",
            "city": "Bucharest",
            "latitude": 44.5722007751,
            "longitude": 26.1021995544,
            "type": "TP"
        },
        {
            "country_code": "RO",
            "city": "Caransebe\u015f",
            "latitude": 45.4199981689,
            "longitude": 22.2532997131,
            "type": "FP"
        },
        {
            "country_code": "RO",
            "city": "Constan\u0163a",
            "latitude": 44.3622016907,
            "longitude": 28.4883003235,
            "type": "FP"
        },
        {
            "country_code": "RO",
            "city": "Tulcea",
            "latitude": 45.0625,
            "longitude": 28.7143001556,
            "type": "FP"
        },
        {
            "country_code": "RS",
            "city": "Belgrade",
            "latitude": 44.786568,
            "longitude": 20.4489216,
            "type": "FN"
        },
        {
            "country_code": "RS",
            "city": "Nis",
            "latitude": 43.337299,
            "longitude": 21.853701,
            "type": "FP"
        },
        {
            "country_code": "RU",
            "city": "Ivanovo",
            "latitude": 56.9393997192,
            "longitude": 40.9407997131,
            "type": "FP"
        },
        {
            "country_code": "SE",
            "city": "Eskilstuna",
            "latitude": 59.3511009216,
            "longitude": 16.7084007263,
            "type": "FP"
        },
        {
            "country_code": "SE",
            "city": "Gothenburg",
            "latitude": 57.7747001648,
            "longitude": 11.8704004288,
            "type": "FP"
        },
        {
            "country_code": "SE",
            "city": "Sk\u00f6vde",
            "latitude": 58.456401825,
            "longitude": 13.972700119,
            "type": "FP"
        },
        {
            "country_code": "SE",
            "city": "Stockholm",
            "latitude": 59.3544006348,
            "longitude": 17.9416999817,
            "type": "TP"
        },
        {
            "country_code": "SE",
            "city": "\u00d6rnsk\u00f6ldsvik",
            "latitude": 63.4082984924,
            "longitude": 18.9899997711,
            "type": "FP"
        },
        {
            "country_code": "SI",
            "city": "Portoroz",
            "latitude": 45.473400116,
            "longitude": 13.6149997711,
            "type": "FP"
        },
        {
            "country_code": "TN",
            "city": "Tunis",
            "latitude": 36.8510017395,
            "longitude": 10.2271995544,
            "type": "TP"
        },
        {
            "country_code": "TR",
            "city": "Bursa",
            "latitude": 40.2551994324,
            "longitude": 29.5625991821,
            "type": "FP"
        },
        {
            "country_code": "TR",
            "city": "Istanbul",
            "latitude": 40.9768981934,
            "longitude": 28.8145999908,
            "type": "TP"
        },
        {
            "country_code": "UA",
            "city": "Kiev",
            "latitude": 50.4016990662,
            "longitude": 30.4496994019,
            "type": "TP"
        },
        {
            "country_code": "UA",
            "city": "Zaporizhia",
            "latitude": 47.8670005798,
            "longitude": 35.315700531,
            "type": "FP"
        }
    ]
}