{
    "target": "199.9.14.201",
    "measurement_filepath": "datasets/measurements/campaigns/199.9.14.201_North-Central_20230410/199.9.14.201_North-Central_100_52069552.json",
    "probes_filepath": "datasets/probes_sets/North-Central_100.json",
    "alpha": 0.1,
    "threshold": -1,
    "noise": 0,
    "num_anycast_instances": 5,
    "anycast_instances": [
        {
            "marker": {
                "id": "DHR",
                "latitude": 52.9234008789,
                "longitude": 4.7806200981,
                "city": "Den Helder",
                "country_code": "NL"
            },
            "circle": {
                "id": "54521",
                "latitude": 52.0075,
                "longitude": 4.3585,
                "radius": 119.9038672799625
            }
        },
        {
            "marker": {
                "id": "LBA",
                "latitude": 53.8658981323,
                "longitude": -1.6605700254,
                "city": "Leeds",
                "country_code": "GB"
            },
            "circle": {
                "id": "54438",
                "latitude": 51.5115,
                "longitude": -0.1315,
                "radius": 289.5357935410521
            }
        },
        {
            "marker": {
                "id": "LTN",
                "latitude": 51.8746986389,
                "longitude": -0.3683330119,
                "city": "London",
                "country_code": "GB"
            },
            "circle": {
                "id": "31879",
                "latitude": 48.8615,
                "longitude": 2.3905,
                "radius": 390.9664945279234
            }
        },
        {
            "marker": {
                "id": "KBP",
                "latitude": 50.3450012207,
                "longitude": 30.8946990967,
                "city": "Kiev",
                "country_code": "UA"
            },
            "circle": {
                "id": "1003897",
                "latitude": 52.2305,
                "longitude": 21.0115,
                "radius": 925.1307752912777
            }
        },
        {
            "marker": {
                "id": "MUC",
                "latitude": 48.3538017273,
                "longitude": 11.7861003876,
                "city": "Munich",
                "country_code": "DE"
            },
            "circle": {
                "id": "1002824",
                "latitude": 50.1195,
                "longitude": 8.6785,
                "radius": 314.3142697589139
            }
        }
    ]
}