{
    "target": "192.58.128.30",
    "measurement_filepath": "datasets/measurements/campaigns/192.58.128.30_North-Central_20230410/192.58.128.30_North-Central_300_52096887.json",
    "probes_filepath": "datasets/probes_sets/North-Central_300.json",
    "alpha": 0.6,
    "threshold": -1,
    "noise": 0,
    "num_anycast_instances": 21,
    "anycast_instances": [
        {
            "marker": {
                "id": "BCN",
                "latitude": 41.2971000671,
                "longitude": 2.0784599781,
                "city": "Barcelona",
                "country_code": "ES"
            },
            "circle": {
                "id": "32626",
                "latitude": 41.3905,
                "longitude": 2.1085,
                "radius": 46.33174099261842
            }
        },
        {
            "marker": {
                "id": "LJU",
                "latitude": 46.2237014771,
                "longitude": 14.4575996399,
                "city": "Ljubljana",
                "country_code": "SI"
            },
            "circle": {
                "id": "6827",
                "latitude": 46.6205,
                "longitude": 14.2685,
                "radius": 58.410319955874336
            }
        },
        {
            "marker": {
                "id": "NIX",
                "latitude": 60.193901062,
                "longitude": 11.100399971,
                "city": "Oslo",
                "country_code": "NO"
            },
            "circle": {
                "id": "11148",
                "latitude": 59.9415,
                "longitude": 10.8295,
                "radius": 69.03076362834473
            }
        },
        {
            "marker": {
                "id": "QMZ",
                "latitude": 49.9674987793,
                "longitude": 8.1472215652,
                "city": "Mainz",
                "country_code": "DE"
            },
            "circle": {
                "id": "1004538",
                "latitude": 50.1015,
                "longitude": 8.6285,
                "radius": 70.19462895377764
            }
        },
        {
            "marker": {
                "id": "KEF",
                "latitude": 63.9850006104,
                "longitude": -22.6056003571,
                "city": "Reykjav\u00edk",
                "country_code": "IS"
            },
            "circle": {
                "id": "33893",
                "latitude": 64.1485,
                "longitude": -21.9385,
                "radius": 76.08535352159737
            }
        },
        {
            "marker": {
                "id": "GML",
                "latitude": 50.6035003662,
                "longitude": 30.1919002533,
                "city": "Kiev",
                "country_code": "UA"
            },
            "circle": {
                "id": "11055",
                "latitude": 50.5295,
                "longitude": 30.5995,
                "radius": 113.83543678802565
            }
        },
        {
            "marker": {
                "id": "SVO",
                "latitude": 55.9725990295,
                "longitude": 37.4146003723,
                "city": "Moscow",
                "country_code": "RU"
            },
            "circle": {
                "id": "7168",
                "latitude": 55.5715,
                "longitude": 37.6005,
                "radius": 116.36680935526316
            }
        },
        {
            "marker": {
                "id": "SXF",
                "latitude": 52.3800010681,
                "longitude": 13.5225000381,
                "city": "Berlin",
                "country_code": "DE"
            },
            "circle": {
                "id": "29560",
                "latitude": 52.4875,
                "longitude": 13.3805,
                "radius": 125.78561779723024
            }
        },
        {
            "marker": {
                "id": "WIE",
                "latitude": 48.1102981567,
                "longitude": 16.5697002411,
                "city": "Vienna",
                "country_code": "AT"
            },
            "circle": {
                "id": "53983",
                "latitude": 48.2085,
                "longitude": 16.3715,
                "radius": 127.42412164251645
            }
        },
        {
            "marker": {
                "id": "TRN",
                "latitude": 45.2008018494,
                "longitude": 7.6496300697,
                "city": "Torino",
                "country_code": "IT"
            },
            "circle": {
                "id": "14292",
                "latitude": 45.4685,
                "longitude": 9.1915,
                "radius": 128.56678454082106
            }
        },
        {
            "marker": {
                "id": "PRG",
                "latitude": 50.1007995605,
                "longitude": 14.2600002289,
                "city": "Prague",
                "country_code": "CZ"
            },
            "circle": {
                "id": "62603",
                "latitude": 50.0685,
                "longitude": 14.4075,
                "radius": 151.27566877056051
            }
        },
        {
            "marker": {
                "id": "STN",
                "latitude": 51.8849983215,
                "longitude": 0.2349999994,
                "city": "London",
                "country_code": "GB"
            },
            "circle": {
                "id": "1004416",
                "latitude": 51.5205,
                "longitude": -0.0925,
                "radius": 152.9469131079704
            }
        },
        {
            "marker": {
                "id": "JSI",
                "latitude": 39.1771011353,
                "longitude": 23.5037002563,
                "city": "Skiathos",
                "country_code": "GR"
            },
            "circle": {
                "id": "32739",
                "latitude": 37.9015,
                "longitude": 23.8685,
                "radius": 159.81699257723685
            }
        },
        {
            "marker": {
                "id": "MXP",
                "latitude": 45.6305999756,
                "longitude": 8.7281103134,
                "city": "Milan",
                "country_code": "IT"
            },
            "circle": {
                "id": "1002399",
                "latitude": 47.1915,
                "longitude": 8.8315,
                "radius": 195.147632368477
            }
        },
        {
            "marker": {
                "id": "ARN",
                "latitude": 59.6519012451,
                "longitude": 17.9186000824,
                "city": "Stockholm",
                "country_code": "SE"
            },
            "circle": {
                "id": "14012",
                "latitude": 59.4385,
                "longitude": 18.0675,
                "radius": 245.29452823696582
            }
        },
        {
            "marker": {
                "id": "WMI",
                "latitude": 52.4510993958,
                "longitude": 20.6518001556,
                "city": "Warsaw",
                "country_code": "PL"
            },
            "circle": {
                "id": "25742",
                "latitude": 52.1785,
                "longitude": 21.1795,
                "radius": 249.96783902386116
            }
        },
        {
            "marker": {
                "id": "CGN",
                "latitude": 50.8658981323,
                "longitude": 7.1427397728,
                "city": "Cologne",
                "country_code": "DE"
            },
            "circle": {
                "id": "33069",
                "latitude": 52.0815,
                "longitude": 4.3205,
                "radius": 258.1912250395533
            }
        },
        {
            "marker": {
                "id": "LED",
                "latitude": 59.8003005981,
                "longitude": 30.2625007629,
                "city": "St Petersburg",
                "country_code": "RU"
            },
            "circle": {
                "id": "25331",
                "latitude": 60.8675,
                "longitude": 26.7085,
                "radius": 333.36625481779606
            }
        },
        {
            "marker": {
                "id": "MSQ",
                "latitude": 53.8824996948,
                "longitude": 28.0307006836,
                "city": "Minsk",
                "country_code": "BY"
            },
            "circle": {
                "id": "2432",
                "latitude": 55.7185,
                "longitude": 24.3685,
                "radius": 352.55593060800004
            }
        },
        {
            "marker": {
                "id": "TOJ",
                "latitude": 40.4967002869,
                "longitude": -3.4458699226,
                "city": "Madrid",
                "country_code": "ES"
            },
            "circle": {
                "id": "1000043",
                "latitude": 39.7485,
                "longitude": -8.8105,
                "radius": 686.790104314894
            }
        },
        {
            "marker": {
                "id": "IST",
                "latitude": 40.9768981934,
                "longitude": 28.8145999908,
                "city": "Istanbul",
                "country_code": "TR"
            },
            "circle": {
                "id": "60841",
                "latitude": 31.3575,
                "longitude": 34.8995,
                "radius": 1308.1845271706334
            }
        }
    ]
}