{
    "target": "192.203.230.10",
    "probes_filepath": "datasets/probes_sets/North-Central_100.json",
    "alpha": 1,
    "threshold": 30.0,
    "noise": 0,
    "results_filepath": "datasets/results/campaigns/192.203.230.10_North-Central_20230410_threshold_light-factor_0.40/192.203.230.10_North-Central_100_52070327_1_30.0_0.json",
    "gt_filepath": "datasets/ground-truth/root_servers/root_servers_E.json",
    "statistics": {
        "TP": 14,
        "FP": 1,
        "TN": 0,
        "FN": 39,
        "accuracy": 0.25925925925925924,
        "precision": 0.9333333333333333,
        "recall": 0.2641509433962264,
        "f1": 0.411764705882353,
        "OT": 2,
        "OF": 0
    },
    "instances": [
        {
            "country_code": "AL",
            "city": "Tirana",
            "latitude": 41.3324581,
            "longitude": 19.804366,
            "type": "FN"
        },
        {
            "country_code": "AT",
            "city": "Klagenfurt",
            "latitude": 46.6247222,
            "longitude": 14.3052778,
            "type": "FN"
        },
        {
            "country_code": "AT",
            "city": "Vienna",
            "latitude": 48.2,
            "longitude": 16.3666667,
            "type": "FN"
        },
        {
            "country_code": "BE",
            "city": "Brussels",
            "latitude": 50.901402,
            "longitude": 4.48444,
            "type": "FN"
        },
        {
            "country_code": "BG",
            "city": "Sofia",
            "latitude": 42.6966934204,
            "longitude": 23.4114360809,
            "type": "TP"
        },
        {
            "country_code": "CH",
            "city": "Geneva",
            "latitude": 46.238098,
            "longitude": 6.10895,
            "type": "FN"
        },
        {
            "country_code": "CH",
            "city": "Lausanne",
            "latitude": 46.5333333,
            "longitude": 6.6666667,
            "type": "FN"
        },
        {
            "country_code": "CH",
            "city": "Zurich",
            "latitude": 47.3666667,
            "longitude": 8.55,
            "type": "FN"
        },
        {
            "country_code": "CZ",
            "city": "Prague",
            "latitude": 50.1007995605,
            "longitude": 14.2600002289,
            "type": "TP"
        },
        {
            "country_code": "DE",
            "city": "Berlin",
            "latitude": 52.5597,
            "longitude": 13.2877,
            "type": "FN"
        },
        {
            "country_code": "DE",
            "city": "Dortmund",
            "latitude": 51.5228159,
            "longitude": 7.475772,
            "type": "FN"
        },
        {
            "country_code": "DE",
            "city": "Frankfurt",
            "latitude": 50.1109221,
            "longitude": 8.6821267,
            "type": "FN"
        },
        {
            "country_code": "DE",
            "city": "Hamburg",
            "latitude": 53.630402,
            "longitude": 9.98823,
            "type": "FN"
        },
        {
            "country_code": "DE",
            "city": "Munich",
            "latitude": 48.353802,
            "longitude": 11.7861,
            "type": "FN"
        },
        {
            "country_code": "DE",
            "city": "Siegerland",
            "latitude": 50.87481,
            "longitude": 8.02431,
            "type": "FN"
        },
        {
            "country_code": "DE",
            "city": "Stuttgart",
            "latitude": 48.6898994446,
            "longitude": 9.2219600677,
            "type": "TP"
        },
        {
            "country_code": "DK",
            "city": "Copenhagen",
            "latitude": 55.617901,
            "longitude": 12.656,
            "type": "FN"
        },
        {
            "country_code": "EE",
            "city": "Tallinn",
            "latitude": 59.4133,
            "longitude": 24.8328,
            "type": "FN"
        },
        {
            "country_code": "ES",
            "city": "Barcelona",
            "latitude": 41.3833333,
            "longitude": 2.1833333,
            "type": "FN"
        },
        {
            "country_code": "ES",
            "city": "Madrid",
            "latitude": 40.3707008362,
            "longitude": -3.7851400375,
            "type": "TP"
        },
        {
            "country_code": "ES",
            "city": "Malaga",
            "latitude": 40.536766,
            "longitude": -3.6512564,
            "type": "FN"
        },
        {
            "country_code": "ES",
            "city": "Sevilla",
            "latitude": 37.4179992676,
            "longitude": -5.8931097984,
            "type": "FP"
        },
        {
            "country_code": "FI",
            "city": "Helsinki",
            "latitude": 60.1733244,
            "longitude": 24.9410248,
            "type": "TP"
        },
        {
            "country_code": "FI",
            "city": "Tampere",
            "latitude": 61.5,
            "longitude": 23.75,
            "type": "FN"
        },
        {
            "country_code": "FR",
            "city": "Lyon",
            "latitude": 45.75,
            "longitude": 4.85,
            "type": "FN"
        },
        {
            "country_code": "FR",
            "city": "Marseille",
            "latitude": 43.439272,
            "longitude": 5.221424,
            "type": "FN"
        },
        {
            "country_code": "FR",
            "city": "Paris",
            "latitude": 49.0127983093,
            "longitude": 2.5499999523,
            "type": "TP"
        },
        {
            "country_code": "GB",
            "city": "Edinburgh",
            "latitude": 55.950001,
            "longitude": -3.3725,
            "type": "FN"
        },
        {
            "country_code": "GB",
            "city": "Liverpool",
            "latitude": 53.3335990906,
            "longitude": -2.8497200012,
            "type": "TP"
        },
        {
            "country_code": "GB",
            "city": "London",
            "latitude": 51.3307991028,
            "longitude": 0.0324999988,
            "type": "TP"
        },
        {
            "country_code": "GR",
            "city": "Athens",
            "latitude": 37.9364013672,
            "longitude": 23.9444999695,
            "type": "TP"
        },
        {
            "country_code": "GR",
            "city": "Thessaloniki",
            "latitude": 40.519699,
            "longitude": 22.9709,
            "type": "FN"
        },
        {
            "country_code": "HR",
            "city": "Zagreb",
            "latitude": 45.742901,
            "longitude": 16.0688,
            "type": "FN"
        },
        {
            "country_code": "HU",
            "city": "Budapest",
            "latitude": 47.436901,
            "longitude": 19.2556,
            "type": "FN"
        },
        {
            "country_code": "IE",
            "city": "Cork",
            "latitude": 51.841301,
            "longitude": -8.49111,
            "type": "FN"
        },
        {
            "country_code": "IE",
            "city": "Dublin",
            "latitude": 53.3330556,
            "longitude": -6.2488889,
            "type": "FN"
        },
        {
            "country_code": "IS",
            "city": "Reykjav\u00edk",
            "latitude": 63.9850006104,
            "longitude": -22.6056003571,
            "type": "TP"
        },
        {
            "country_code": "IT",
            "city": "Milan",
            "latitude": 45.445098877,
            "longitude": 9.2767400742,
            "type": "TP"
        },
        {
            "country_code": "IT",
            "city": "Rome",
            "latitude": 41.804501,
            "longitude": 12.2508,
            "type": "FN"
        },
        {
            "country_code": "IT",
            "city": "Turin",
            "latitude": 45.05,
            "longitude": 7.6666667,
            "type": "FN"
        },
        {
            "country_code": "LT",
            "city": "Vilnius",
            "latitude": 54.634102,
            "longitude": 25.285801,
            "type": "FN"
        },
        {
            "country_code": "LU",
            "city": "Luxembourg City",
            "latitude": 49.626598,
            "longitude": 6.21152,
            "type": "FN"
        },
        {
            "country_code": "LV",
            "city": "Riga",
            "latitude": 56.923599,
            "longitude": 23.9711,
            "type": "FN"
        },
        {
            "country_code": "MK",
            "city": "Skopje",
            "latitude": 41.9990607,
            "longitude": 21.3423175,
            "type": "FN"
        },
        {
            "country_code": "NL",
            "city": "Amsterdam",
            "latitude": 52.3086013794,
            "longitude": 4.7638897896,
            "type": "TP"
        },
        {
            "country_code": "NO",
            "city": "Oslo",
            "latitude": 60.193901,
            "longitude": 11.1004,
            "type": "FN"
        },
        {
            "country_code": "NO",
            "city": "Trondheim",
            "latitude": 59.9435786,
            "longitude": 10.7145421,
            "type": "FN"
        },
        {
            "country_code": "PL",
            "city": "Warsaw",
            "latitude": 52.1656990051,
            "longitude": 20.9671001434,
            "type": "TP"
        },
        {
            "country_code": "PT",
            "city": "Lisbon",
            "latitude": 38.7813,
            "longitude": -9.13592,
            "type": "FN"
        },
        {
            "country_code": "RO",
            "city": "Bucharest",
            "latitude": 44.4333333,
            "longitude": 26.1,
            "type": "FN"
        },
        {
            "country_code": "RS",
            "city": "Belgrade",
            "latitude": 44.818401,
            "longitude": 20.309099,
            "type": "FN"
        },
        {
            "country_code": "RU",
            "city": "Moscow",
            "latitude": 55.8782997131,
            "longitude": 38.0616989136,
            "type": "TP"
        },
        {
            "country_code": "SE",
            "city": "Gothenburg",
            "latitude": 57.6628,
            "longitude": 12.2798,
            "type": "FN"
        },
        {
            "country_code": "SE",
            "city": "Stockholm",
            "latitude": 59.651901,
            "longitude": 17.9186,
            "type": "FN"
        },
        {
            "country_code": "TR",
            "city": "Istanbul",
            "latitude": 40.9768981934,
            "longitude": 28.8145999908,
            "type": "OT"
        },
        {
            "country_code": "UA",
            "city": "Kiev",
            "latitude": 50.6035003662,
            "longitude": 30.1919002533,
            "type": "OT"
        }
    ]
}