{
    "target": "192.36.148.17",
    "probes_filepath": "datasets/probes_section/North-Central-section_1.json",
    "alpha": 1,
    "threshold": 5.0,
    "noise": 0,
    "results_filepath": "datasets/results/campaigns/192.36.148.17_North-Central-section_20230425_threshold_light-factor_0.30/192.36.148.17_North-Central-section_1_52653005_1_5.0_0.json",
    "gt_filepath": "datasets/ground-truth/root_servers/root_servers_I.json",
    "statistics": {
        "TP": 17,
        "FP": 2,
        "TN": 0,
        "FN": 10,
        "accuracy": 0.5862068965517241,
        "precision": 0.8947368421052632,
        "recall": 0.6296296296296297,
        "f1": 0.7391304347826088,
        "OT": 0,
        "OF": 0
    },
    "instances": [
        {
            "country_code": "AM",
            "city": "Yerevan",
            "latitude": 40.1473007202,
            "longitude": 44.3959007263,
            "type": "TP"
        },
        {
            "country_code": "AT",
            "city": "Vienna",
            "latitude": 48.1102981567,
            "longitude": 16.5697002411,
            "type": "TP"
        },
        {
            "country_code": "BE",
            "city": "Brussels",
            "latitude": 50.4592018127,
            "longitude": 4.4538202286,
            "type": "TP"
        },
        {
            "country_code": "BG",
            "city": "Sofia",
            "latitude": 42.6966934204,
            "longitude": 23.4114360809,
            "type": "TP"
        },
        {
            "country_code": "BG",
            "city": "Yambol",
            "latitude": 42.4548988342,
            "longitude": 26.3521995544,
            "type": "FP"
        },
        {
            "country_code": "DE",
            "city": "Berlin",
            "latitude": 52.3800010681,
            "longitude": 13.5225000381,
            "type": "TP"
        },
        {
            "country_code": "DE",
            "city": "Frankfurt-am-Main",
            "latitude": 50.121212,
            "longitude": 8.6365638,
            "type": "TP"
        },
        {
            "country_code": "DK",
            "city": "Aalborg",
            "latitude": 57.0927589138,
            "longitude": 9.8492431641,
            "type": "FP"
        },
        {
            "country_code": "DK",
            "city": "Copenhagen",
            "latitude": 55.6179008484,
            "longitude": 12.6560001373,
            "type": "TP"
        },
        {
            "country_code": "EE",
            "city": "Tallinn",
            "latitude": 59.442733,
            "longitude": 24.762087,
            "type": "FN"
        },
        {
            "country_code": "FI",
            "city": "Helsinki",
            "latitude": 60.1733244,
            "longitude": 24.9410248,
            "type": "TP"
        },
        {
            "country_code": "FR",
            "city": "Paris",
            "latitude": 49.0127983093,
            "longitude": 2.5499999523,
            "type": "TP"
        },
        {
            "country_code": "GB",
            "city": "London",
            "latitude": 51.505088,
            "longitude": -0.119949,
            "type": "FN"
        },
        {
            "country_code": "IS",
            "city": "Reykjav\u00edk",
            "latitude": 63.9850006104,
            "longitude": -22.6056003571,
            "type": "TP"
        },
        {
            "country_code": "IT",
            "city": "Milan",
            "latitude": 45.445098877,
            "longitude": 9.2767400742,
            "type": "TP"
        },
        {
            "country_code": "LT",
            "city": "Vilnius",
            "latitude": 54.755187,
            "longitude": 25.296416,
            "type": "FN"
        },
        {
            "country_code": "LU",
            "city": "Luxembourg",
            "latitude": 49.617173,
            "longitude": 6.136898,
            "type": "FN"
        },
        {
            "country_code": "LV",
            "city": "Riga",
            "latitude": 56.9235992432,
            "longitude": 23.9710998535,
            "type": "TP"
        },
        {
            "country_code": "MA",
            "city": "Rabat",
            "latitude": 34.011544,
            "longitude": -6.836315,
            "type": "FN"
        },
        {
            "country_code": "NL",
            "city": "Amsterdam",
            "latitude": 52.376051,
            "longitude": 4.902197,
            "type": "FN"
        },
        {
            "country_code": "NO",
            "city": "Oslo",
            "latitude": 60.193901062,
            "longitude": 11.100399971,
            "type": "TP"
        },
        {
            "country_code": "RO",
            "city": "Bucharest",
            "latitude": 44.503200531,
            "longitude": 26.1021003723,
            "type": "TP"
        },
        {
            "country_code": "RS",
            "city": "Belgrade",
            "latitude": 44.810497,
            "longitude": 20.455291,
            "type": "FN"
        },
        {
            "country_code": "SE",
            "city": "Gothenburg",
            "latitude": 57.717614,
            "longitude": 11.98341,
            "type": "FN"
        },
        {
            "country_code": "SE",
            "city": "Stockholm",
            "latitude": 59.6519012451,
            "longitude": 17.9186000824,
            "type": "TP"
        },
        {
            "country_code": "SE",
            "city": "Sundsvall",
            "latitude": 62.387574,
            "longitude": 17.27741,
            "type": "FN"
        },
        {
            "country_code": "SI",
            "city": "Ljubljana",
            "latitude": 46.2237014771,
            "longitude": 14.4575996399,
            "type": "TP"
        },
        {
            "country_code": "SK",
            "city": "Bratislava",
            "latitude": 48.155683,
            "longitude": 17.104361,
            "type": "FN"
        },
        {
            "country_code": "TR",
            "city": "Ankara",
            "latitude": 39.949798584,
            "longitude": 32.6885986328,
            "type": "TP"
        }
    ]
}