{
    "target": "199.9.14.201",
    "measurement_filepath": "datasets/measurements/campaigns/199.9.14.201_North-Central-section_20230425/199.9.14.201_North-Central-section_1_52639768.json",
    "probes_filepath": "datasets/probes_section/North-Central-section_1.json",
    "alpha": 0.0,
    "threshold": -1,
    "noise": 0,
    "num_anycast_instances": 7,
    "anycast_instances": [
        {
            "marker": {
                "id": "UDE",
                "latitude": 51.6563987732,
                "longitude": 5.7086100578,
                "city": "Uden",
                "country_code": "NL"
            },
            "circle": {
                "id": "6863",
                "latitude": 52.5385,
                "longitude": 5.7005,
                "radius": 106.3787155476696
            }
        },
        {
            "marker": {
                "id": "BNX",
                "latitude": 50.4592018127,
                "longitude": 4.4538202286,
                "city": "Brussels",
                "country_code": "BE"
            },
            "circle": {
                "id": "22278",
                "latitude": 51.5715,
                "longitude": -3.3195,
                "radius": 558.3022728791336
            }
        },
        {
            "marker": {
                "id": "PRV",
                "latitude": 49.4258003235,
                "longitude": 17.4046993256,
                "city": "P\u0159erov",
                "country_code": "CZ"
            },
            "circle": {
                "id": "1003320",
                "latitude": 60.3375,
                "longitude": 25.0285,
                "radius": 1311.989048881375
            }
        },
        {
            "marker": {
                "id": "LEY",
                "latitude": 52.4603004456,
                "longitude": 5.5272197723,
                "city": "Lelystad",
                "country_code": "NL"
            },
            "circle": {
                "id": "25327",
                "latitude": 54.1405,
                "longitude": -2.6115,
                "radius": 571.8777222910674
            }
        },
        {
            "marker": {
                "id": "ERF",
                "latitude": 50.979801178,
                "longitude": 10.9581003189,
                "city": "Erfurt",
                "country_code": "DE"
            },
            "circle": {
                "id": "10179",
                "latitude": 59.4115,
                "longitude": 17.8505,
                "radius": 1034.6319342163777
            }
        },
        {
            "marker": {
                "id": "INV",
                "latitude": 57.5424995422,
                "longitude": -4.0475001335,
                "city": "Inverness",
                "country_code": "GB"
            },
            "circle": {
                "id": "6536",
                "latitude": 65.8105,
                "longitude": 21.6785,
                "radius": 1626.9798303010118
            }
        },
        {
            "marker": {
                "id": "KTW",
                "latitude": 50.4743003845,
                "longitude": 19.0799999237,
                "city": "Katowice",
                "country_code": "PL"
            },
            "circle": {
                "id": "12063",
                "latitude": 65.7385,
                "longitude": 24.5705,
                "radius": 1733.041980002656
            }
        }
    ]
}