{
    "target": "192.203.230.10",
    "probes_filepath": "datasets/probes_sets/North-Central_500.json",
    "alpha": 0.2,
    "threshold": -1,
    "noise": 0,
    "results_filepath": "datasets/results/campaigns/North-Central_20230410_192.203.230.10/192.203.230.10_North-Central_500_52070371_0.2_-1_0.json",
    "gt_filepath": "datasets/ground-truth/root_servers/root_servers_E.json",
    "statistics": {
        "TP": 14,
        "FP": 14,
        "TN": 0,
        "FN": 40,
        "accuracy": 0.20588235294117646,
        "precision": 0.5,
        "recall": 0.25925925925925924,
        "f1": 0.3414634146341463
    },
    "instances": [
        {
            "country_code": "AL",
            "city": "Tirana",
            "latitude": 41.3324581,
            "longitude": 19.804366,
            "type": "FN"
        },
        {
            "country_code": "AT",
            "city": "Klagenfurt",
            "latitude": 46.6247222,
            "longitude": 14.3052778,
            "type": "FN"
        },
        {
            "country_code": "AT",
            "city": "Salzburg",
            "latitude": 47.7933006287,
            "longitude": 13.0043001175,
            "type": "FP"
        },
        {
            "country_code": "AT",
            "city": "Vienna",
            "latitude": 48.1102981567,
            "longitude": 16.5697002411,
            "type": "TP"
        },
        {
            "country_code": "BA",
            "city": "Sarajevo",
            "latitude": 43.8246002197,
            "longitude": 18.3314990997,
            "type": "FP"
        },
        {
            "country_code": "BE",
            "city": "Brussels",
            "latitude": 50.901402,
            "longitude": 4.48444,
            "type": "FN"
        },
        {
            "country_code": "BG",
            "city": "Sofia",
            "latitude": 42.6833333,
            "longitude": 23.3166667,
            "type": "FN"
        },
        {
            "country_code": "CH",
            "city": "Geneva",
            "latitude": 46.238098,
            "longitude": 6.10895,
            "type": "FN"
        },
        {
            "country_code": "CH",
            "city": "Lausanne",
            "latitude": 46.5333333,
            "longitude": 6.6666667,
            "type": "FN"
        },
        {
            "country_code": "CH",
            "city": "Zurich",
            "latitude": 47.3666667,
            "longitude": 8.55,
            "type": "FN"
        },
        {
            "country_code": "CZ",
            "city": "Prague",
            "latitude": 50.0833333,
            "longitude": 14.4666667,
            "type": "FN"
        },
        {
            "country_code": "DE",
            "city": "Augsburg",
            "latitude": 48.42527771,
            "longitude": 10.9316673279,
            "type": "TP"
        },
        {
            "country_code": "DE",
            "city": "Berlin",
            "latitude": 52.5597,
            "longitude": 13.2877,
            "type": "FN"
        },
        {
            "country_code": "DE",
            "city": "Dortmund",
            "latitude": 51.5228159,
            "longitude": 7.475772,
            "type": "FN"
        },
        {
            "country_code": "DE",
            "city": "Dresden",
            "latitude": 51.1328010559,
            "longitude": 13.76720047,
            "type": "FP"
        },
        {
            "country_code": "DE",
            "city": "Hamburg",
            "latitude": 53.630402,
            "longitude": 9.98823,
            "type": "FN"
        },
        {
            "country_code": "DE",
            "city": "Mainz",
            "latitude": 49.9674987793,
            "longitude": 8.1472215652,
            "type": "TP"
        },
        {
            "country_code": "DE",
            "city": "Siegerland",
            "latitude": 50.87481,
            "longitude": 8.02431,
            "type": "FN"
        },
        {
            "country_code": "DE",
            "city": "Stuttgart",
            "latitude": 48.7088294,
            "longitude": 9.1682655,
            "type": "FN"
        },
        {
            "country_code": "DK",
            "city": "Copenhagen",
            "latitude": 55.617901,
            "longitude": 12.656,
            "type": "FN"
        },
        {
            "country_code": "DK",
            "city": "Odense",
            "latitude": 55.4766998291,
            "longitude": 10.3309001923,
            "type": "FP"
        },
        {
            "country_code": "EE",
            "city": "Tallinn",
            "latitude": 59.4132995605,
            "longitude": 24.8327999115,
            "type": "TP"
        },
        {
            "country_code": "ES",
            "city": "Barcelona",
            "latitude": 41.3833333,
            "longitude": 2.1833333,
            "type": "FN"
        },
        {
            "country_code": "ES",
            "city": "Madrid",
            "latitude": 40.4,
            "longitude": -3.6833333,
            "type": "FN"
        },
        {
            "country_code": "ES",
            "city": "Malaga",
            "latitude": 40.536766,
            "longitude": -3.6512564,
            "type": "FN"
        },
        {
            "country_code": "ES",
            "city": "Valencia",
            "latitude": 39.4892997742,
            "longitude": -0.4816249907,
            "type": "FP"
        },
        {
            "country_code": "FI",
            "city": "Helsinki",
            "latitude": 60.3172,
            "longitude": 24.963301,
            "type": "FN"
        },
        {
            "country_code": "FI",
            "city": "Tampere",
            "latitude": 61.5,
            "longitude": 23.75,
            "type": "FN"
        },
        {
            "country_code": "FR",
            "city": "Lille/Lesquin",
            "latitude": 50.5619010925,
            "longitude": 3.0894401073,
            "type": "FP"
        },
        {
            "country_code": "FR",
            "city": "Lyon",
            "latitude": 45.75,
            "longitude": 4.85,
            "type": "FN"
        },
        {
            "country_code": "FR",
            "city": "Marseille",
            "latitude": 43.439271922,
            "longitude": 5.2214241028,
            "type": "TP"
        },
        {
            "country_code": "FR",
            "city": "Orl\u00e9ans/Bricy",
            "latitude": 47.9878005981,
            "longitude": 1.7605600357,
            "type": "FP"
        },
        {
            "country_code": "FR",
            "city": "Paris",
            "latitude": 49.012798,
            "longitude": 2.55,
            "type": "FN"
        },
        {
            "country_code": "GB",
            "city": "Edinburgh",
            "latitude": 55.950001,
            "longitude": -3.3725,
            "type": "FN"
        },
        {
            "country_code": "GB",
            "city": "Leeds",
            "latitude": 53.8658981323,
            "longitude": -1.6605700254,
            "type": "TP"
        },
        {
            "country_code": "GB",
            "city": "London",
            "latitude": 51.8746986389,
            "longitude": -0.3683330119,
            "type": "TP"
        },
        {
            "country_code": "GB",
            "city": "Manchester",
            "latitude": 53.5,
            "longitude": -2.216667,
            "type": "FN"
        },
        {
            "country_code": "GR",
            "city": "Athens",
            "latitude": 37.9876042,
            "longitude": 23.7593092,
            "type": "FN"
        },
        {
            "country_code": "GR",
            "city": "Patras",
            "latitude": 38.1511001587,
            "longitude": 21.4256000519,
            "type": "FP"
        },
        {
            "country_code": "GR",
            "city": "Thessaloniki",
            "latitude": 40.519699,
            "longitude": 22.9709,
            "type": "FN"
        },
        {
            "country_code": "HR",
            "city": "Zagreb",
            "latitude": 45.742901,
            "longitude": 16.0688,
            "type": "FN"
        },
        {
            "country_code": "HU",
            "city": "Budapest",
            "latitude": 47.436901,
            "longitude": 19.2556,
            "type": "FN"
        },
        {
            "country_code": "IE",
            "city": "Cork",
            "latitude": 51.841301,
            "longitude": -8.49111,
            "type": "FN"
        },
        {
            "country_code": "IE",
            "city": "Dublin",
            "latitude": 53.3330556,
            "longitude": -6.2488889,
            "type": "FN"
        },
        {
            "country_code": "IS",
            "city": "Reykjavik",
            "latitude": 63.985001,
            "longitude": -22.6056,
            "type": "FN"
        },
        {
            "country_code": "IT",
            "city": "Bari",
            "latitude": 41.1389007568,
            "longitude": 16.7605991364,
            "type": "FP"
        },
        {
            "country_code": "IT",
            "city": "Bergamo",
            "latitude": 45.6739006042,
            "longitude": 9.7041702271,
            "type": "TP"
        },
        {
            "country_code": "IT",
            "city": "Milan",
            "latitude": 45.6305999756,
            "longitude": 8.7281103134,
            "type": "FP"
        },
        {
            "country_code": "IT",
            "city": "Rome",
            "latitude": 41.804501,
            "longitude": 12.2508,
            "type": "FN"
        },
        {
            "country_code": "IT",
            "city": "Turin",
            "latitude": 45.05,
            "longitude": 7.6666667,
            "type": "FN"
        },
        {
            "country_code": "LT",
            "city": "Panev\u0117\u017eys",
            "latitude": 55.7294006348,
            "longitude": 24.4608001709,
            "type": "FP"
        },
        {
            "country_code": "LT",
            "city": "Vilnius",
            "latitude": 54.634102,
            "longitude": 25.285801,
            "type": "FN"
        },
        {
            "country_code": "LU",
            "city": "Luxembourg",
            "latitude": 49.6265983582,
            "longitude": 6.211520195,
            "type": "TP"
        },
        {
            "country_code": "LV",
            "city": "Riga",
            "latitude": 56.923599,
            "longitude": 23.9711,
            "type": "FN"
        },
        {
            "country_code": "MD",
            "city": "Chi\u015fin\u0103u",
            "latitude": 46.9277000427,
            "longitude": 28.9309997559,
            "type": "FP"
        },
        {
            "country_code": "MK",
            "city": "Skopje",
            "latitude": 41.9990607,
            "longitude": 21.3423175,
            "type": "FN"
        },
        {
            "country_code": "NL",
            "city": "Uden",
            "latitude": 51.6563987732,
            "longitude": 5.7086100578,
            "type": "TP"
        },
        {
            "country_code": "NO",
            "city": "Oslo",
            "latitude": 60.193901,
            "longitude": 11.1004,
            "type": "FN"
        },
        {
            "country_code": "NO",
            "city": "Trondheim",
            "latitude": 59.9435786,
            "longitude": 10.7145421,
            "type": "FN"
        },
        {
            "country_code": "PL",
            "city": "Warsaw",
            "latitude": 52.4510993958,
            "longitude": 20.6518001556,
            "type": "TP"
        },
        {
            "country_code": "PT",
            "city": "Lisbon",
            "latitude": 38.7813,
            "longitude": -9.13592,
            "type": "FN"
        },
        {
            "country_code": "PT",
            "city": "Porto",
            "latitude": 41.2481002808,
            "longitude": -8.6813898087,
            "type": "FP"
        },
        {
            "country_code": "RO",
            "city": "Bucharest",
            "latitude": 44.503200531,
            "longitude": 26.1021003723,
            "type": "TP"
        },
        {
            "country_code": "RS",
            "city": "Belgrade",
            "latitude": 44.818401,
            "longitude": 20.309099,
            "type": "FN"
        },
        {
            "country_code": "RU",
            "city": "Moscow",
            "latitude": 55.4087982178,
            "longitude": 37.9062995911,
            "type": "TP"
        },
        {
            "country_code": "SE",
            "city": "Eskilstuna",
            "latitude": 59.3511009216,
            "longitude": 16.7084007263,
            "type": "TP"
        },
        {
            "country_code": "SE",
            "city": "Gothenburg",
            "latitude": 57.6628,
            "longitude": 12.2798,
            "type": "FN"
        },
        {
            "country_code": "SE",
            "city": "Karlstad",
            "latitude": 59.4446983337,
            "longitude": 13.3374004364,
            "type": "FP"
        }
    ]
}