{
    "target": "192.203.230.10",
    "probes_filepath": "datasets/probes_section/North-Central-section_1.5.json",
    "alpha": 1.0,
    "threshold": -1,
    "noise": 0,
    "results_filepath": "datasets/results/campaigns/192.203.230.10_North-Central-section_20230425_alpha_light-factor_0.18/192.203.230.10_North-Central-section_1.5_52648603_1.0_-1_0.json",
    "gt_filepath": "datasets/ground-truth/root_servers/root_servers_E.json",
    "statistics": {
        "TP": 42,
        "FP": 37,
        "TN": 0,
        "FN": 23,
        "accuracy": 0.4117647058823529,
        "precision": 0.5316455696202531,
        "recall": 0.6461538461538462,
        "f1": 0.5833333333333333,
        "OT": 0,
        "OF": 3
    },
    "instances": [
        {
            "country_code": "AL",
            "city": "Tirana",
            "latitude": 41.4146995544,
            "longitude": 19.7206001282,
            "type": "TP"
        },
        {
            "country_code": "AM",
            "city": "Yerevan",
            "latitude": 40.1473007202,
            "longitude": 44.3959007263,
            "type": "TP"
        },
        {
            "country_code": "AT",
            "city": "Klagenfurt",
            "latitude": 46.6247222,
            "longitude": 14.3052778,
            "type": "FN"
        },
        {
            "country_code": "AT",
            "city": "Linz",
            "latitude": 48.2332000732,
            "longitude": 14.1875,
            "type": "FP"
        },
        {
            "country_code": "AT",
            "city": "Vienna",
            "latitude": 48.1102981567,
            "longitude": 16.5697002411,
            "type": "TP"
        },
        {
            "country_code": "AU",
            "city": "Feldkirch",
            "latitude": 47.2520853,
            "longitude": 9.4992525,
            "type": "FN"
        },
        {
            "country_code": "BE",
            "city": "Brussels",
            "latitude": 50.4592018127,
            "longitude": 4.4538202286,
            "type": "TP"
        },
        {
            "country_code": "BG",
            "city": "Sofia",
            "latitude": 42.6966934204,
            "longitude": 23.4114360809,
            "type": "TP"
        },
        {
            "country_code": "BY",
            "city": "Gomel",
            "latitude": 52.5270004272,
            "longitude": 31.0167007446,
            "type": "FP"
        },
        {
            "country_code": "BY",
            "city": "Mogilev",
            "latitude": 53.9548988342,
            "longitude": 30.0951004028,
            "type": "FP"
        },
        {
            "country_code": "CH",
            "city": "Geneva",
            "latitude": 46.204705,
            "longitude": 6.1431301,
            "type": "TP"
        },
        {
            "country_code": "CH",
            "city": "Lausanne",
            "latitude": 46.5333333,
            "longitude": 6.6666667,
            "type": "FN"
        },
        {
            "country_code": "CH",
            "city": "Zurich",
            "latitude": 47.4646987915,
            "longitude": 8.5491695404,
            "type": "TP"
        },
        {
            "country_code": "CZ",
            "city": "Brno",
            "latitude": 49.1512985229,
            "longitude": 16.6944007874,
            "type": "FP"
        },
        {
            "country_code": "CZ",
            "city": "Prague",
            "latitude": 50.1007995605,
            "longitude": 14.2600002289,
            "type": "TP"
        },
        {
            "country_code": "DE",
            "city": "Berlin",
            "latitude": 52.5597,
            "longitude": 13.2877,
            "type": "FN"
        },
        {
            "country_code": "DE",
            "city": "Cologne",
            "latitude": 50.8658981323,
            "longitude": 7.1427397728,
            "type": "TP"
        },
        {
            "country_code": "DE",
            "city": "Frankfurt-am-Main",
            "latitude": 50.121212,
            "longitude": 8.6365638,
            "type": "TP"
        },
        {
            "country_code": "DE",
            "city": "Hamburg",
            "latitude": 53.6304016113,
            "longitude": 9.9882297516,
            "type": "TP"
        },
        {
            "country_code": "DE",
            "city": "Munich",
            "latitude": 48.3538017273,
            "longitude": 11.7861003876,
            "type": "TP"
        },
        {
            "country_code": "DE",
            "city": "Stuttgart",
            "latitude": 48.7088294,
            "longitude": 9.1682655,
            "type": "FN"
        },
        {
            "country_code": "DK",
            "city": "Copenhagen",
            "latitude": 55.6179008484,
            "longitude": 12.6560001373,
            "type": "TP"
        },
        {
            "country_code": "EE",
            "city": "Tallinn",
            "latitude": 59.4132995605,
            "longitude": 24.8327999115,
            "type": "TP"
        },
        {
            "country_code": "ES",
            "city": "Barcelona",
            "latitude": 41.2971000671,
            "longitude": 2.0784599781,
            "type": "TP"
        },
        {
            "country_code": "ES",
            "city": "Las Palmas de Gran Canaria",
            "latitude": 27.9319000244,
            "longitude": -15.3865995407,
            "type": "OF"
        },
        {
            "country_code": "ES",
            "city": "Madrid",
            "latitude": 40.3707008362,
            "longitude": -3.7851400375,
            "type": "TP"
        },
        {
            "country_code": "ES",
            "city": "Malaga",
            "latitude": 40.536766,
            "longitude": -3.6512564,
            "type": "FN"
        },
        {
            "country_code": "ES",
            "city": "Sevilla",
            "latitude": 37.4179992676,
            "longitude": -5.8931097984,
            "type": "FP"
        },
        {
            "country_code": "ES",
            "city": "Vigo",
            "latitude": 42.2318000793,
            "longitude": -8.6267700195,
            "type": "FP"
        },
        {
            "country_code": "ES",
            "city": "Zaragoza",
            "latitude": 41.6661987305,
            "longitude": -1.0415500402,
            "type": "FP"
        },
        {
            "country_code": "FI",
            "city": "Helsinki",
            "latitude": 60.3172,
            "longitude": 24.963301,
            "type": "FN"
        },
        {
            "country_code": "FI",
            "city": "Tampere/Pirkkala",
            "latitude": 61.414100647,
            "longitude": 23.6044006348,
            "type": "TP"
        },
        {
            "country_code": "FR",
            "city": "Lyon",
            "latitude": 45.75,
            "longitude": 4.85,
            "type": "FN"
        },
        {
            "country_code": "FR",
            "city": "Marseille",
            "latitude": 43.439271922,
            "longitude": 5.2214241028,
            "type": "TP"
        },
        {
            "country_code": "FR",
            "city": "Nantes",
            "latitude": 47.1531982422,
            "longitude": -1.610730052,
            "type": "FP"
        },
        {
            "country_code": "FR",
            "city": "Paris",
            "latitude": 49.0127983093,
            "longitude": 2.5499999523,
            "type": "TP"
        },
        {
            "country_code": "FR",
            "city": "Paris",
            "latitude": 48.9693984985,
            "longitude": 2.4413900375,
            "type": "FP"
        },
        {
            "country_code": "GB",
            "city": "Glasgow",
            "latitude": 55.8718986511,
            "longitude": -4.4330601692,
            "type": "TP"
        },
        {
            "country_code": "GB",
            "city": "Leeds",
            "latitude": 53.8,
            "longitude": -1.583333,
            "type": "FN"
        },
        {
            "country_code": "GB",
            "city": "London",
            "latitude": 51.4706001282,
            "longitude": -0.4619410038,
            "type": "FP"
        },
        {
            "country_code": "GB",
            "city": "Manchester",
            "latitude": 53.5,
            "longitude": -2.216667,
            "type": "FN"
        },
        {
            "country_code": "GB",
            "city": "Southend",
            "latitude": 51.5713996887,
            "longitude": 0.695555985,
            "type": "TP"
        },
        {
            "country_code": "GR",
            "city": "Athens",
            "latitude": 37.9364013672,
            "longitude": 23.9444999695,
            "type": "TP"
        },
        {
            "country_code": "GR",
            "city": "Thessaloniki",
            "latitude": 40.519699,
            "longitude": 22.9709,
            "type": "FN"
        },
        {
            "country_code": "HR",
            "city": "Zagreb",
            "latitude": 45.7429008484,
            "longitude": 16.0687999725,
            "type": "TP"
        },
        {
            "country_code": "HU",
            "city": "Budapest",
            "latitude": 47.4812134,
            "longitude": 19.1303031,
            "type": "TP"
        },
        {
            "country_code": "IE",
            "city": "Cork",
            "latitude": 51.841301,
            "longitude": -8.49111,
            "type": "FN"
        },
        {
            "country_code": "IE",
            "city": "Dublin",
            "latitude": 53.4212989807,
            "longitude": -6.270070076,
            "type": "TP"
        },
        {
            "country_code": "IE",
            "city": "Galway",
            "latitude": 53.300201416,
            "longitude": -8.9415903091,
            "type": "FP"
        },
        {
            "country_code": "IL",
            "city": "Tel Aviv",
            "latitude": 32.011398,
            "longitude": 34.8867,
            "type": "FN"
        },
        {
            "country_code": "IQ",
            "city": "Arbil",
            "latitude": 36.2375984192,
            "longitude": 43.9631996155,
            "type": "FP"
        },
        {
            "country_code": "IQ",
            "city": "Baghdad",
            "latitude": 33.262501,
            "longitude": 44.2346,
            "type": "FN"
        },
        {
            "country_code": "IR",
            "city": "Tabriz",
            "latitude": 38.1338996887,
            "longitude": 46.2350006104,
            "type": "OF"
        },
        {
            "country_code": "IS",
            "city": "Reykjav\u00edk",
            "latitude": 63.9850006104,
            "longitude": -22.6056003571,
            "type": "TP"
        },
        {
            "country_code": "IT",
            "city": "Firenze",
            "latitude": 43.8100013733,
            "longitude": 11.2051000595,
            "type": "FP"
        },
        {
            "country_code": "IT",
            "city": "Milan",
            "latitude": 45.6306,
            "longitude": 8.72811,
            "type": "FN"
        },
        {
            "country_code": "IT",
            "city": "Perugia",
            "latitude": 43.0959014893,
            "longitude": 12.5131998062,
            "type": "FP"
        },
        {
            "country_code": "IT",
            "city": "Rome",
            "latitude": 41.7994003296,
            "longitude": 12.5949001312,
            "type": "TP"
        },
        {
            "country_code": "IT",
            "city": "Turin",
            "latitude": 45.05,
            "longitude": 7.6666667,
            "type": "FN"
        },
        {
            "country_code": "JO",
            "city": "Amman",
            "latitude": 31.972700119,
            "longitude": 35.9916000366,
            "type": "TP"
        },
        {
            "country_code": "KS",
            "city": "Prishtina",
            "latitude": 42.5727996826,
            "longitude": 21.0358009338,
            "type": "TP"
        },
        {
            "country_code": "LB",
            "city": "Beirut",
            "latitude": 33.8209,
            "longitude": 35.4884,
            "type": "FN"
        },
        {
            "country_code": "LB",
            "city": "Rene Mouawad",
            "latitude": 34.5894444444,
            "longitude": 36.0113888889,
            "type": "FN"
        },
        {
            "country_code": "LT",
            "city": "Kaunas",
            "latitude": 54.9639015198,
            "longitude": 24.0848007202,
            "type": "FP"
        },
        {
            "country_code": "LT",
            "city": "Vilnius",
            "latitude": 54.6341018677,
            "longitude": 25.2858009338,
            "type": "TP"
        },
        {
            "country_code": "LU",
            "city": "Luxembourg City",
            "latitude": 49.626598,
            "longitude": 6.21152,
            "type": "FN"
        },
        {
            "country_code": "LV",
            "city": "Riga",
            "latitude": 56.9235992432,
            "longitude": 23.9710998535,
            "type": "TP"
        },
        {
            "country_code": "MA",
            "city": "Casablanca",
            "latitude": 33.590875,
            "longitude": -7.6142353,
            "type": "FN"
        },
        {
            "country_code": "MD",
            "city": "Chi\u015fin\u0103u",
            "latitude": 46.9277000427,
            "longitude": 28.9309997559,
            "type": "FP"
        },
        {
            "country_code": "N/A",
            "city": "N/A",
            "latitude": 42.1715,
            "longitude": 26.5675,
            "type": "FP"
        },
        {
            "country_code": "N/A",
            "city": "N/A",
            "latitude": 62.2415,
            "longitude": 25.7605,
            "type": "FP"
        },
        {
            "country_code": "N/A",
            "city": "N/A",
            "latitude": 53.1685,
            "longitude": 22.0705,
            "type": "FP"
        },
        {
            "country_code": "N/A",
            "city": "N/A",
            "latitude": 56.0495,
            "longitude": 40.2785,
            "type": "FP"
        },
        {
            "country_code": "N/A",
            "city": "N/A",
            "latitude": 60.1475,
            "longitude": 19.9475,
            "type": "FP"
        },
        {
            "country_code": "N/A",
            "city": "N/A",
            "latitude": 58.1585,
            "longitude": 8.0195,
            "type": "FP"
        },
        {
            "country_code": "NL",
            "city": "Lelystad",
            "latitude": 52.4603004456,
            "longitude": 5.5272197723,
            "type": "TP"
        },
        {
            "country_code": "NO",
            "city": "Hammerfest",
            "latitude": 70.6797027588,
            "longitude": 23.6686000824,
            "type": "FP"
        },
        {
            "country_code": "NO",
            "city": "Oslo",
            "latitude": 60.193901062,
            "longitude": 11.100399971,
            "type": "TP"
        },
        {
            "country_code": "NO",
            "city": "Rygge",
            "latitude": 59.3788986206,
            "longitude": 10.7855997086,
            "type": "TP"
        },
        {
            "country_code": "NO",
            "city": "Troms\u00f8",
            "latitude": 69.6832962036,
            "longitude": 18.9188995361,
            "type": "FP"
        },
        {
            "country_code": "NO",
            "city": "Trondheim",
            "latitude": 63.4578018188,
            "longitude": 10.9239997864,
            "type": "FP"
        },
        {
            "country_code": "PL",
            "city": "Krak\u00f3w",
            "latitude": 50.0777015686,
            "longitude": 19.7847995758,
            "type": "FP"
        },
        {
            "country_code": "PL",
            "city": "Warsaw",
            "latitude": 52.1656990051,
            "longitude": 20.9671001434,
            "type": "TP"
        },
        {
            "country_code": "PT",
            "city": "Lisbon",
            "latitude": 38.7812995911,
            "longitude": -9.1359195709,
            "type": "TP"
        },
        {
            "country_code": "RO",
            "city": "Bucharest",
            "latitude": 44.503200531,
            "longitude": 26.1021003723,
            "type": "TP"
        },
        {
            "country_code": "RO",
            "city": "Constan\u0163a",
            "latitude": 44.3622016907,
            "longitude": 28.4883003235,
            "type": "FP"
        },
        {
            "country_code": "RS",
            "city": "Belgrade",
            "latitude": 44.8184013367,
            "longitude": 20.3090991974,
            "type": "TP"
        },
        {
            "country_code": "RU",
            "city": "Kaliningrad",
            "latitude": 54.8899993896,
            "longitude": 20.5925998688,
            "type": "FP"
        },
        {
            "country_code": "RU",
            "city": "Moscow",
            "latitude": 55.8782997131,
            "longitude": 38.0616989136,
            "type": "TP"
        },
        {
            "country_code": "RU",
            "city": "Murmansk",
            "latitude": 68.7817001343,
            "longitude": 32.7508010864,
            "type": "FP"
        },
        {
            "country_code": "RU",
            "city": "Samara",
            "latitude": 53.504901886,
            "longitude": 50.1642990112,
            "type": "OF"
        },
        {
            "country_code": "RU",
            "city": "St Petersburg",
            "latitude": 59.8003005981,
            "longitude": 30.2625007629,
            "type": "FP"
        },
        {
            "country_code": "SE",
            "city": "Gothenburg",
            "latitude": 57.6628,
            "longitude": 12.2798,
            "type": "FN"
        },
        {
            "country_code": "SE",
            "city": "Norrk\u00f6ping",
            "latitude": 58.5862998962,
            "longitude": 16.2506008148,
            "type": "FP"
        },
        {
            "country_code": "SE",
            "city": "Stockholm",
            "latitude": 59.6519012451,
            "longitude": 17.9186000824,
            "type": "TP"
        },
        {
            "country_code": "SE",
            "city": "Ume\u00e5",
            "latitude": 63.7918014526,
            "longitude": 20.2828006744,
            "type": "FP"
        },
        {
            "country_code": "SE",
            "city": "V\u00e4xj\u00f6",
            "latitude": 56.9291000366,
            "longitude": 14.7279996872,
            "type": "FP"
        },
        {
            "country_code": "SE",
            "city": "\u00d6rebro",
            "latitude": 59.2237014771,
            "longitude": 15.0380001068,
            "type": "FP"
        },
        {
            "country_code": "TN",
            "city": "Enfidha",
            "latitude": 36.8243212,
            "longitude": 10.1739441,
            "type": "FN"
        },
        {
            "country_code": "TN",
            "city": "Tunis",
            "latitude": 36.8510017395,
            "longitude": 10.2271995544,
            "type": "TP"
        },
        {
            "country_code": "TR",
            "city": "Istanbul",
            "latitude": 41.0186111,
            "longitude": 28.9647222,
            "type": "FN"
        },
        {
            "country_code": "UA",
            "city": "Dnipropetrovsk",
            "latitude": 48.3572006226,
            "longitude": 35.1006011963,
            "type": "FP"
        },
        {
            "country_code": "UA",
            "city": "Kharkiv",
            "latitude": 49.9248008728,
            "longitude": 36.2900009155,
            "type": "FP"
        },
        {
            "country_code": "UA",
            "city": "Kiev",
            "latitude": 50.6035003662,
            "longitude": 30.1919002533,
            "type": "TP"
        },
        {
            "country_code": "UA",
            "city": "Odessa",
            "latitude": 46.4267997742,
            "longitude": 30.6765003204,
            "type": "FP"
        }
    ]
}