{
    "target": "199.7.83.42",
    "probes_filepath": "datasets/probes_section/North-Central-section_1.json",
    "alpha": 0.0,
    "threshold": -1,
    "noise": 0,
    "results_filepath": "datasets/results/campaigns/199.7.83.42_North-Central-section_20230425_alpha_light-factor_0.30/199.7.83.42_North-Central-section_1_52655092_0.0_-1_0.json",
    "gt_filepath": "datasets/ground-truth/root_servers/root_servers_L.json",
    "statistics": {
        "TP": 14,
        "FP": 25,
        "TN": 0,
        "FN": 27,
        "accuracy": 0.21212121212121213,
        "precision": 0.358974358974359,
        "recall": 0.34146341463414637,
        "f1": 0.35000000000000003,
        "OT": 0,
        "OF": 0
    },
    "instances": [
        {
            "country_code": "AM",
            "city": "Yerevan",
            "latitude": 40.183333,
            "longitude": 44.516667,
            "type": "FN"
        },
        {
            "country_code": "AT",
            "city": "Vienna",
            "latitude": 48.1102981567,
            "longitude": 16.5697002411,
            "type": "TP"
        },
        {
            "country_code": "BA",
            "city": "Tuzla",
            "latitude": 44.4586982727,
            "longitude": 18.7248001099,
            "type": "FP"
        },
        {
            "country_code": "BE",
            "city": "Brussels",
            "latitude": 50.8503396,
            "longitude": 4.3517103,
            "type": "FN"
        },
        {
            "country_code": "BG",
            "city": "Dolna Mitropoliya",
            "latitude": 43.4514007568,
            "longitude": 24.5027999878,
            "type": "FP"
        },
        {
            "country_code": "BG",
            "city": "Sofia",
            "latitude": 42.6977082,
            "longitude": 23.3218675,
            "type": "FN"
        },
        {
            "country_code": "BG",
            "city": "Varna",
            "latitude": 43.2321014404,
            "longitude": 27.8250999451,
            "type": "FP"
        },
        {
            "country_code": "BG",
            "city": "Yambol",
            "latitude": 42.4548988342,
            "longitude": 26.3521995544,
            "type": "FP"
        },
        {
            "country_code": "BY",
            "city": "Minsk",
            "latitude": 53.8824996948,
            "longitude": 28.0307006836,
            "type": "TP"
        },
        {
            "country_code": "CH",
            "city": "Geneva",
            "latitude": 46.2043907,
            "longitude": 6.1431577,
            "type": "FN"
        },
        {
            "country_code": "CZ",
            "city": "Prague",
            "latitude": 50.0755381,
            "longitude": 14.4378005,
            "type": "FN"
        },
        {
            "country_code": "DE",
            "city": "Dortmund",
            "latitude": 51.5182991028,
            "longitude": 7.6122398377,
            "type": "TP"
        },
        {
            "country_code": "DE",
            "city": "Dusseldorf",
            "latitude": 51.2254018,
            "longitude": 6.7763137,
            "type": "FN"
        },
        {
            "country_code": "DE",
            "city": "Hamburg",
            "latitude": 53.5437641,
            "longitude": 10.0099133,
            "type": "FN"
        },
        {
            "country_code": "DE",
            "city": "Munich",
            "latitude": 48.3538017273,
            "longitude": 11.7861003876,
            "type": "FP"
        },
        {
            "country_code": "ES",
            "city": "El Prat de Llobregat",
            "latitude": 41.3246333,
            "longitude": 2.0952568,
            "type": "FN"
        },
        {
            "country_code": "ES",
            "city": "Madrid",
            "latitude": 40.4967002869,
            "longitude": -3.4458699226,
            "type": "TP"
        },
        {
            "country_code": "ES",
            "city": "Pamplona",
            "latitude": 42.7700004578,
            "longitude": -1.646329999,
            "type": "FP"
        },
        {
            "country_code": "FI",
            "city": "Helsinki-Vantaa",
            "latitude": 60.32135905,
            "longitude": 24.947206800038444,
            "type": "FN"
        },
        {
            "country_code": "FI",
            "city": "Mikkeli",
            "latitude": 61.6865997314,
            "longitude": 27.2017993927,
            "type": "FP"
        },
        {
            "country_code": "FI",
            "city": "Tampere",
            "latitude": 61.4977524,
            "longitude": 23.7609535,
            "type": "FN"
        },
        {
            "country_code": "FI",
            "city": "Turku",
            "latitude": 60.5140991211,
            "longitude": 22.2628002167,
            "type": "FP"
        },
        {
            "country_code": "FR",
            "city": "Cambrai/\u00c9pinoy",
            "latitude": 50.2218017578,
            "longitude": 3.154239893,
            "type": "FP"
        },
        {
            "country_code": "FR",
            "city": "Lyon",
            "latitude": 45.726398468,
            "longitude": 5.0908298492,
            "type": "TP"
        },
        {
            "country_code": "FR",
            "city": "Marseille",
            "latitude": 43.2961743,
            "longitude": 5.3699525,
            "type": "FN"
        },
        {
            "country_code": "FR",
            "city": "Montauban",
            "latitude": 44.0256996155,
            "longitude": 1.3780399561,
            "type": "FP"
        },
        {
            "country_code": "FR",
            "city": "Pontoise",
            "latitude": 49.0965995789,
            "longitude": 2.0408298969,
            "type": "TP"
        },
        {
            "country_code": "GB",
            "city": "Dundee",
            "latitude": 56.4605938,
            "longitude": -2.97019,
            "type": "FN"
        },
        {
            "country_code": "GB",
            "city": "Hawarden",
            "latitude": 53.1781005859,
            "longitude": -2.9777801037,
            "type": "FP"
        },
        {
            "country_code": "GB",
            "city": "Leeds-Bradford",
            "latitude": 53.8665524,
            "longitude": -1.6567664615412192,
            "type": "FN"
        },
        {
            "country_code": "GR",
            "city": "Heraklion",
            "latitude": 35.3396987915,
            "longitude": 25.1802997589,
            "type": "TP"
        },
        {
            "country_code": "HR",
            "city": "Osijek",
            "latitude": 45.4626998901,
            "longitude": 18.8101997375,
            "type": "FP"
        },
        {
            "country_code": "IQ",
            "city": "Arbil",
            "latitude": 36.2375984192,
            "longitude": 43.9631996155,
            "type": "TP"
        },
        {
            "country_code": "IT",
            "city": "Ancona",
            "latitude": 43.6162986755,
            "longitude": 13.3622999191,
            "type": "TP"
        },
        {
            "country_code": "IT",
            "city": "Florence",
            "latitude": 43.7698712,
            "longitude": 11.2555757,
            "type": "FN"
        },
        {
            "country_code": "IT",
            "city": "Lampedusa",
            "latitude": 35.4978981018,
            "longitude": 12.6181001663,
            "type": "FP"
        },
        {
            "country_code": "IT",
            "city": "Latina",
            "latitude": 41.45952605,
            "longitude": 13.012591212188894,
            "type": "FN"
        },
        {
            "country_code": "IT",
            "city": "Pescara",
            "latitude": 42.4317016602,
            "longitude": 14.1810998917,
            "type": "FP"
        },
        {
            "country_code": "JO",
            "city": "Amman",
            "latitude": 31.7226009369,
            "longitude": 35.9931983948,
            "type": "TP"
        },
        {
            "country_code": "LB",
            "city": "Beirut",
            "latitude": 33.8886289,
            "longitude": 35.4954794,
            "type": "FN"
        },
        {
            "country_code": "MA",
            "city": "Casablanca",
            "latitude": 33.3675003052,
            "longitude": -7.5899701118,
            "type": "FP"
        },
        {
            "country_code": "MA",
            "city": "Rabat",
            "latitude": 34.022405,
            "longitude": -6.834543,
            "type": "FN"
        },
        {
            "country_code": "ME",
            "city": "Tivat",
            "latitude": 42.4047012329,
            "longitude": 18.7233009338,
            "type": "FP"
        },
        {
            "country_code": "PL",
            "city": "\u0141\u00f3d\u017a",
            "latitude": 51.7219009399,
            "longitude": 19.3980998993,
            "type": "FP"
        },
        {
            "country_code": "PR",
            "city": "Carolina",
            "latitude": 50.0142635,
            "longitude": 14.4570023,
            "type": "FN"
        },
        {
            "country_code": "PS",
            "city": "Ramallah",
            "latitude": 31.9030543,
            "longitude": 35.1952255,
            "type": "FN"
        },
        {
            "country_code": "PT",
            "city": "Porto",
            "latitude": 41.1494512,
            "longitude": -8.6107884,
            "type": "FN"
        },
        {
            "country_code": "RE",
            "city": "St Denis",
            "latitude": 44.2316351,
            "longitude": 4.2530464,
            "type": "FN"
        },
        {
            "country_code": "RO",
            "city": "Bucharest",
            "latitude": 44.5722007751,
            "longitude": 26.1021995544,
            "type": "TP"
        },
        {
            "country_code": "RS",
            "city": "Belgrade",
            "latitude": 44.786568,
            "longitude": 20.4489216,
            "type": "FN"
        },
        {
            "country_code": "RU",
            "city": "",
            "latitude": 47.6820983887,
            "longitude": 42.0727996826,
            "type": "FP"
        },
        {
            "country_code": "RU",
            "city": "Moscow",
            "latitude": 55.8782997131,
            "longitude": 38.0616989136,
            "type": "TP"
        },
        {
            "country_code": "RU",
            "city": "Rostov-on-Don",
            "latitude": 47.2213858,
            "longitude": 39.7114196,
            "type": "FN"
        },
        {
            "country_code": "RU",
            "city": "Saint Petersburg",
            "latitude": 59.9342802,
            "longitude": 30.3350986,
            "type": "FN"
        },
        {
            "country_code": "RU",
            "city": "Tver",
            "latitude": 56.8246994019,
            "longitude": 35.7577018738,
            "type": "FP"
        },
        {
            "country_code": "RU",
            "city": "Velikiye Luki",
            "latitude": 56.3810997009,
            "longitude": 30.6081008911,
            "type": "FP"
        },
        {
            "country_code": "SE",
            "city": "Karlstad",
            "latitude": 59.4446983337,
            "longitude": 13.3374004364,
            "type": "FP"
        },
        {
            "country_code": "SE",
            "city": "Stockholm",
            "latitude": 59.3544006348,
            "longitude": 17.9416999817,
            "type": "TP"
        },
        {
            "country_code": "SE",
            "city": "\u00d6rnsk\u00f6ldsvik",
            "latitude": 63.4082984924,
            "longitude": 18.9899997711,
            "type": "FP"
        },
        {
            "country_code": "TR",
            "city": "Ankara",
            "latitude": 39.7160439,
            "longitude": 32.7059948,
            "type": "FN"
        },
        {
            "country_code": "TR",
            "city": "Van",
            "latitude": 38.4682006836,
            "longitude": 43.3322982788,
            "type": "FP"
        },
        {
            "country_code": "UA",
            "city": "Kharkiv",
            "latitude": 49.9902794,
            "longitude": 36.2303893,
            "type": "FN"
        },
        {
            "country_code": "UA",
            "city": "Kiev",
            "latitude": 50.6035003662,
            "longitude": 30.1919002533,
            "type": "TP"
        },
        {
            "country_code": "UA",
            "city": "Kiev",
            "latitude": 50.4016990662,
            "longitude": 30.4496994019,
            "type": "FP"
        },
        {
            "country_code": "UA",
            "city": "Nikolayev",
            "latitude": 47.0578994751,
            "longitude": 31.9197998047,
            "type": "FP"
        },
        {
            "country_code": "UA",
            "city": "Odessa",
            "latitude": 46.4873195,
            "longitude": 30.7392776,
            "type": "FN"
        }
    ]
}