{
    "target": "199.7.83.42",
    "measurement_filepath": "datasets/measurements/campaigns/199.7.83.42_North-Central-section_20230425/199.7.83.42_North-Central-section_1.5_52655267.json",
    "probes_filepath": "datasets/probes_section/North-Central-section_1.5.json",
    "alpha": 1,
    "threshold": 5.0,
    "noise": 0,
    "num_anycast_instances": 20,
    "anycast_instances": [
        {
            "marker": {
                "id": "HER",
                "latitude": 35.3396987915,
                "longitude": 25.1802997589,
                "city": "Heraklion",
                "country_code": "GR"
            },
            "circle": {
                "id": "6297",
                "latitude": 35.3105,
                "longitude": 25.0715,
                "radius": 23.8293632750796
            }
        },
        {
            "marker": {
                "id": "EBL",
                "latitude": 36.2375984192,
                "longitude": 43.9631996155,
                "city": "Arbil",
                "country_code": "IQ"
            },
            "circle": {
                "id": "7020",
                "latitude": 36.2375,
                "longitude": 44.0085,
                "radius": 25.464386372142897
            }
        },
        {
            "marker": {
                "id": "NLV",
                "latitude": 47.0578994751,
                "longitude": 31.9197998047,
                "city": "Nikolayev",
                "country_code": "UA"
            },
            "circle": {
                "id": "6414",
                "latitude": 46.9795,
                "longitude": 31.9875,
                "radius": 27.0595220826693
            }
        },
        {
            "marker": {
                "id": "AOI",
                "latitude": 43.6162986755,
                "longitude": 13.3622999191,
                "city": "Ancona",
                "country_code": "IT"
            },
            "circle": {
                "id": "54353",
                "latitude": 43.5685,
                "longitude": 13.5095,
                "radius": 33.5636393759625
            }
        },
        {
            "marker": {
                "id": "MHP",
                "latitude": 53.8644981384,
                "longitude": 27.5396995544,
                "city": "Minsk",
                "country_code": "BY"
            },
            "circle": {
                "id": "17271",
                "latitude": 53.9575,
                "longitude": 27.7805,
                "radius": 34.4651752556601
            }
        },
        {
            "marker": {
                "id": "JAM",
                "latitude": 42.4548988342,
                "longitude": 26.3521995544,
                "city": "Yambol",
                "country_code": "BG"
            },
            "circle": {
                "id": "11518",
                "latitude": 42.1715,
                "longitude": 26.5675,
                "radius": 47.262775661255695
            }
        },
        {
            "marker": {
                "id": "SOF",
                "latitude": 42.6966934204,
                "longitude": 23.4114360809,
                "city": "Sofia",
                "country_code": "BG"
            },
            "circle": {
                "id": "16209",
                "latitude": 42.6615,
                "longitude": 23.3075,
                "radius": 65.7394495261056
            }
        },
        {
            "marker": {
                "id": "WIE",
                "latitude": 48.1102981567,
                "longitude": 16.5697002411,
                "city": "Vienna",
                "country_code": "AT"
            },
            "circle": {
                "id": "175",
                "latitude": 48.1495,
                "longitude": 17.1105,
                "radius": 75.4268230969344
            }
        },
        {
            "marker": {
                "id": "PED",
                "latitude": 50.0134010315,
                "longitude": 15.7385997772,
                "city": "Pardubice",
                "country_code": "CZ"
            },
            "circle": {
                "id": "33280",
                "latitude": 50.0275,
                "longitude": 15.7815,
                "radius": 83.40061295708101
            }
        },
        {
            "marker": {
                "id": "ARN",
                "latitude": 59.6519012451,
                "longitude": 17.9186000824,
                "city": "Stockholm",
                "country_code": "SE"
            },
            "circle": {
                "id": "1333",
                "latitude": 59.3485,
                "longitude": 18.0185,
                "radius": 89.44852107741269
            }
        },
        {
            "marker": {
                "id": "BEG",
                "latitude": 44.8184013367,
                "longitude": 20.3090991974,
                "city": "Belgrade",
                "country_code": "RS"
            },
            "circle": {
                "id": "60080",
                "latitude": 44.8075,
                "longitude": 20.4615,
                "radius": 91.8494989150431
            }
        },
        {
            "marker": {
                "id": "LED",
                "latitude": 59.8003005981,
                "longitude": 30.2625007629,
                "city": "St Petersburg",
                "country_code": "RU"
            },
            "circle": {
                "id": "11054",
                "latitude": 60.0995,
                "longitude": 30.2895,
                "radius": 105.49970907119072
            }
        },
        {
            "marker": {
                "id": "ECV",
                "latitude": 40.3707008362,
                "longitude": -3.7851400375,
                "city": "Madrid",
                "country_code": "ES"
            },
            "circle": {
                "id": "32648",
                "latitude": 40.5615,
                "longitude": -3.6305,
                "radius": 115.2392015608428
            }
        },
        {
            "marker": {
                "id": "MIK",
                "latitude": 61.6865997314,
                "longitude": 27.2017993927,
                "city": "Mikkeli",
                "country_code": "FI"
            },
            "circle": {
                "id": "22068",
                "latitude": 62.2415,
                "longitude": 25.7605,
                "radius": 116.30424424713361
            }
        },
        {
            "marker": {
                "id": "MVQ",
                "latitude": 53.9548988342,
                "longitude": 30.0951004028,
                "city": "Mogilev",
                "country_code": "BY"
            },
            "circle": {
                "id": "11012",
                "latitude": 55.1685,
                "longitude": 30.2075,
                "radius": 167.46681013979068
            }
        },
        {
            "marker": {
                "id": "LIN",
                "latitude": 45.445098877,
                "longitude": 9.2767400742,
                "city": "Milan",
                "country_code": "IT"
            },
            "circle": {
                "id": "32208",
                "latitude": 46.3015,
                "longitude": 7.5375,
                "radius": 174.60404413551117
            }
        },
        {
            "marker": {
                "id": "FICIX",
                "latitude": 60.1733244,
                "longitude": 24.9410248,
                "city": "Helsinki",
                "country_code": "FI"
            },
            "circle": {
                "id": "60691",
                "latitude": 61.4975,
                "longitude": 23.7815,
                "radius": 177.00812482508192
            }
        },
        {
            "marker": {
                "id": "GML",
                "latitude": 50.6035003662,
                "longitude": 30.1919002533,
                "city": "Kiev",
                "country_code": "UA"
            },
            "circle": {
                "id": "657",
                "latitude": 51.5405,
                "longitude": 31.2695,
                "radius": 206.8366949356911
            }
        },
        {
            "marker": {
                "id": "BCN",
                "latitude": 41.2971000671,
                "longitude": 2.0784599781,
                "city": "Barcelona",
                "country_code": "ES"
            },
            "circle": {
                "id": "53792",
                "latitude": 40.8285,
                "longitude": 0.5115,
                "radius": 208.9665554639292
            }
        },
        {
            "marker": {
                "id": "BBU",
                "latitude": 44.503200531,
                "longitude": 26.1021003723,
                "city": "Bucharest",
                "country_code": "RO"
            },
            "circle": {
                "id": "34411",
                "latitude": 44.1875,
                "longitude": 28.6275,
                "radius": 222.79736059677603
            }
        }
    ]
}