{
    "target": "199.7.83.42",
    "probes_filepath": "datasets/probes_section/North-Central-section_2.json",
    "alpha": 0.1,
    "threshold": -1,
    "noise": 0,
    "results_filepath": "datasets/results/campaigns/199.7.83.42_North-Central-section_20230425_alpha_light-factor_0.18/199.7.83.42_North-Central-section_2_52655401_0.1_-1_0.json",
    "gt_filepath": "datasets/ground-truth/root_servers/root_servers_L.json",
    "statistics": {
        "TP": 12,
        "FP": 27,
        "TN": 0,
        "FN": 29,
        "accuracy": 0.17647058823529413,
        "precision": 0.3076923076923077,
        "recall": 0.2926829268292683,
        "f1": 0.3,
        "OT": 0,
        "OF": 0
    },
    "instances": [
        {
            "country_code": "AM",
            "city": "Yerevan",
            "latitude": 40.183333,
            "longitude": 44.516667,
            "type": "FN"
        },
        {
            "country_code": "BA",
            "city": "Sarajevo",
            "latitude": 43.8246002197,
            "longitude": 18.3314990997,
            "type": "FP"
        },
        {
            "country_code": "BE",
            "city": "Brussels",
            "latitude": 50.8503396,
            "longitude": 4.3517103,
            "type": "FN"
        },
        {
            "country_code": "BG",
            "city": "Sofia",
            "latitude": 42.6977082,
            "longitude": 23.3218675,
            "type": "FN"
        },
        {
            "country_code": "BY",
            "city": "Minsk",
            "latitude": 53.8644981384,
            "longitude": 27.5396995544,
            "type": "TP"
        },
        {
            "country_code": "BY",
            "city": "Vitebsk",
            "latitude": 55.126499176,
            "longitude": 30.3495998383,
            "type": "FP"
        },
        {
            "country_code": "CH",
            "city": "Bern",
            "latitude": 46.914100647,
            "longitude": 7.4971499443,
            "type": "FP"
        },
        {
            "country_code": "CH",
            "city": "Geneva",
            "latitude": 46.2043907,
            "longitude": 6.1431577,
            "type": "FN"
        },
        {
            "country_code": "CZ",
            "city": "Ostrava",
            "latitude": 49.6963005066,
            "longitude": 18.1110992432,
            "type": "FP"
        },
        {
            "country_code": "DE",
            "city": "Dortmund",
            "latitude": 51.5142273,
            "longitude": 7.4652789,
            "type": "FN"
        },
        {
            "country_code": "DE",
            "city": "Dusseldorf",
            "latitude": 51.2254018,
            "longitude": 6.7763137,
            "type": "FN"
        },
        {
            "country_code": "DE",
            "city": "Hamburg",
            "latitude": 53.5352783203,
            "longitude": 9.8355560303,
            "type": "TP"
        },
        {
            "country_code": "DE",
            "city": "Mannheim",
            "latitude": 49.4730567932,
            "longitude": 8.514166832,
            "type": "FP"
        },
        {
            "country_code": "ES",
            "city": "Albacete",
            "latitude": 38.9485015869,
            "longitude": -1.8635200262,
            "type": "FP"
        },
        {
            "country_code": "ES",
            "city": "Madrid",
            "latitude": 40.4967002869,
            "longitude": -3.4458699226,
            "type": "TP"
        },
        {
            "country_code": "ES",
            "city": "Reus",
            "latitude": 41.1473999023,
            "longitude": 1.1671700478,
            "type": "TP"
        },
        {
            "country_code": "FI",
            "city": "Helsinki-Vantaa",
            "latitude": 60.32135905,
            "longitude": 24.947206800038444,
            "type": "FN"
        },
        {
            "country_code": "FI",
            "city": "Kajaani",
            "latitude": 64.2854995728,
            "longitude": 27.6923999786,
            "type": "FP"
        },
        {
            "country_code": "FI",
            "city": "Kauhava",
            "latitude": 63.1271018982,
            "longitude": 23.051399231,
            "type": "FP"
        },
        {
            "country_code": "FI",
            "city": "Tampere",
            "latitude": 61.4977524,
            "longitude": 23.7609535,
            "type": "FN"
        },
        {
            "country_code": "FR",
            "city": "Auxerre/Branches",
            "latitude": 47.8502006531,
            "longitude": 3.49710989,
            "type": "FP"
        },
        {
            "country_code": "FR",
            "city": "Lyon",
            "latitude": 45.764043,
            "longitude": 4.835659,
            "type": "FN"
        },
        {
            "country_code": "FR",
            "city": "Marseille",
            "latitude": 43.2961743,
            "longitude": 5.3699525,
            "type": "FN"
        },
        {
            "country_code": "FR",
            "city": "Montauban",
            "latitude": 44.0256996155,
            "longitude": 1.3780399561,
            "type": "FP"
        },
        {
            "country_code": "FR",
            "city": "Paris",
            "latitude": 48.856614,
            "longitude": 2.3522219,
            "type": "FN"
        },
        {
            "country_code": "FR",
            "city": "Paris-Orly",
            "latitude": 48.73005725,
            "longitude": 2.3678372321914303,
            "type": "FN"
        },
        {
            "country_code": "FR",
            "city": "Strasbourg",
            "latitude": 48.5382995605,
            "longitude": 7.6282300949,
            "type": "FP"
        },
        {
            "country_code": "GB",
            "city": "Campbeltown",
            "latitude": 55.4371986389,
            "longitude": -5.6863899231,
            "type": "FP"
        },
        {
            "country_code": "GB",
            "city": "Dundee",
            "latitude": 56.4605938,
            "longitude": -2.97019,
            "type": "FN"
        },
        {
            "country_code": "GB",
            "city": "Leeds-Bradford",
            "latitude": 53.8665524,
            "longitude": -1.6567664615412192,
            "type": "FN"
        },
        {
            "country_code": "GB",
            "city": "London",
            "latitude": 51.8746986389,
            "longitude": -0.3683330119,
            "type": "FP"
        },
        {
            "country_code": "GR",
            "city": "Heraklion",
            "latitude": 35.3400127,
            "longitude": 25.1343475,
            "type": "FN"
        },
        {
            "country_code": "GR",
            "city": "Patras",
            "latitude": 38.1511001587,
            "longitude": 21.4256000519,
            "type": "FP"
        },
        {
            "country_code": "IQ",
            "city": "Arbil",
            "latitude": 36.2375984192,
            "longitude": 43.9631996155,
            "type": "TP"
        },
        {
            "country_code": "IT",
            "city": "Ancona",
            "latitude": 43.480120400000004,
            "longitude": 13.218790609151764,
            "type": "FN"
        },
        {
            "country_code": "IT",
            "city": "Firenze",
            "latitude": 43.8100013733,
            "longitude": 11.2051000595,
            "type": "TP"
        },
        {
            "country_code": "IT",
            "city": "Latina",
            "latitude": 41.45952605,
            "longitude": 13.012591212188894,
            "type": "FN"
        },
        {
            "country_code": "IT",
            "city": "Pisa",
            "latitude": 43.6838989258,
            "longitude": 10.3927001953,
            "type": "FP"
        },
        {
            "country_code": "JO",
            "city": "Amman",
            "latitude": 31.9515694,
            "longitude": 35.9239625,
            "type": "FN"
        },
        {
            "country_code": "LB",
            "city": "Beirut",
            "latitude": 33.8886289,
            "longitude": 35.4954794,
            "type": "FN"
        },
        {
            "country_code": "MA",
            "city": "Rabat",
            "latitude": 34.0514984131,
            "longitude": -6.7515201569,
            "type": "TP"
        },
        {
            "country_code": "MK",
            "city": "Skopje",
            "latitude": 41.9616012573,
            "longitude": 21.6214008331,
            "type": "FP"
        },
        {
            "country_code": "N/A",
            "city": "N/A",
            "latitude": 50.0715,
            "longitude": 14.5285,
            "type": "TP"
        },
        {
            "country_code": "N/A",
            "city": "N/A",
            "latitude": 59.3675,
            "longitude": 28.6075,
            "type": "FP"
        },
        {
            "country_code": "PS",
            "city": "Ramallah",
            "latitude": 31.9030543,
            "longitude": 35.1952255,
            "type": "FN"
        },
        {
            "country_code": "PT",
            "city": "Porto",
            "latitude": 41.1494512,
            "longitude": -8.6107884,
            "type": "FN"
        },
        {
            "country_code": "RE",
            "city": "St Denis",
            "latitude": 44.2316351,
            "longitude": 4.2530464,
            "type": "FN"
        },
        {
            "country_code": "RO",
            "city": "Bucharest",
            "latitude": 44.5722007751,
            "longitude": 26.1021995544,
            "type": "TP"
        },
        {
            "country_code": "RO",
            "city": "Tulcea",
            "latitude": 45.0625,
            "longitude": 28.7143001556,
            "type": "FP"
        },
        {
            "country_code": "RS",
            "city": "Belgrade",
            "latitude": 44.8184013367,
            "longitude": 20.3090991974,
            "type": "TP"
        },
        {
            "country_code": "RS",
            "city": "Nis",
            "latitude": 43.337299,
            "longitude": 21.853701,
            "type": "FP"
        },
        {
            "country_code": "RU",
            "city": "Belgorod",
            "latitude": 50.6437988281,
            "longitude": 36.5900993347,
            "type": "TP"
        },
        {
            "country_code": "RU",
            "city": "Moscow",
            "latitude": 55.4087982178,
            "longitude": 37.9062995911,
            "type": "TP"
        },
        {
            "country_code": "RU",
            "city": "Rostov-on-Don",
            "latitude": 47.2213858,
            "longitude": 39.7114196,
            "type": "FN"
        },
        {
            "country_code": "RU",
            "city": "Saint Petersburg",
            "latitude": 59.9342802,
            "longitude": 30.3350986,
            "type": "FN"
        },
        {
            "country_code": "SE",
            "city": "Karlstad",
            "latitude": 59.4446983337,
            "longitude": 13.3374004364,
            "type": "FP"
        },
        {
            "country_code": "SE",
            "city": "Link\u00f6ping",
            "latitude": 58.4062004089,
            "longitude": 15.6805000305,
            "type": "FP"
        },
        {
            "country_code": "SE",
            "city": "Norrk\u00f6ping",
            "latitude": 58.5862998962,
            "longitude": 16.2506008148,
            "type": "FP"
        },
        {
            "country_code": "SE",
            "city": "Stockholm",
            "latitude": 59.3293235,
            "longitude": 18.0685808,
            "type": "FN"
        },
        {
            "country_code": "SE",
            "city": "Ume\u00e5",
            "latitude": 63.7918014526,
            "longitude": 20.2828006744,
            "type": "FP"
        },
        {
            "country_code": "SK",
            "city": "Bratislava",
            "latitude": 48.1458923,
            "longitude": 17.1071373,
            "type": "FN"
        },
        {
            "country_code": "TR",
            "city": "Ankara",
            "latitude": 39.7160439,
            "longitude": 32.7059948,
            "type": "FN"
        },
        {
            "country_code": "TR",
            "city": "Eski\u015fehir",
            "latitude": 39.8098983765,
            "longitude": 30.5193996429,
            "type": "FP"
        },
        {
            "country_code": "UA",
            "city": "Cherkasy",
            "latitude": 49.415599823,
            "longitude": 31.995300293,
            "type": "FP"
        },
        {
            "country_code": "UA",
            "city": "Chernivtsi",
            "latitude": 48.2593002319,
            "longitude": 25.9808006287,
            "type": "FP"
        },
        {
            "country_code": "UA",
            "city": "Kiev",
            "latitude": 50.4501,
            "longitude": 30.5234,
            "type": "FN"
        },
        {
            "country_code": "UA",
            "city": "Odessa",
            "latitude": 46.4873195,
            "longitude": 30.7392776,
            "type": "FN"
        },
        {
            "country_code": "UA",
            "city": "Rivne",
            "latitude": 50.6071014404,
            "longitude": 26.1415996552,
            "type": "FP"
        }
    ]
}