{
    "target": "199.9.14.201",
    "measurement_filepath": "datasets/measurements/campaigns/199.9.14.201_North-Central_20230410/199.9.14.201_North-Central_300_52069565.json",
    "probes_filepath": "datasets/probes_sets/North-Central_300.json",
    "alpha": 1,
    "threshold": 10.0,
    "noise": 0,
    "num_anycast_instances": 5,
    "anycast_instances": [
        {
            "marker": {
                "id": "AMX",
                "latitude": 52.3086013794,
                "longitude": 4.7638897896,
                "city": "Amsterdam",
                "country_code": "NL"
            },
            "circle": {
                "id": "1005453",
                "latitude": 52.3885,
                "longitude": 4.6595,
                "radius": 24.32376900511488
            }
        },
        {
            "marker": {
                "id": "BNX",
                "latitude": 50.4592018127,
                "longitude": 4.4538202286,
                "city": "Brussels",
                "country_code": "BE"
            },
            "circle": {
                "id": "17079",
                "latitude": 50.8215,
                "longitude": 4.4105,
                "radius": 116.59794492238703
            }
        },
        {
            "marker": {
                "id": "BQH",
                "latitude": 51.3307991028,
                "longitude": 0.0324999988,
                "city": "London",
                "country_code": "GB"
            },
            "circle": {
                "id": "1003587",
                "latitude": 51.5105,
                "longitude": -0.0185,
                "radius": 140.13987618251
            }
        },
        {
            "marker": {
                "id": "CGN",
                "latitude": 50.8658981323,
                "longitude": 7.1427397728,
                "city": "Cologne",
                "country_code": "DE"
            },
            "circle": {
                "id": "1004538",
                "latitude": 50.1015,
                "longitude": 8.6285,
                "radius": 166.5871830929237
            }
        },
        {
            "marker": {
                "id": "DTM",
                "latitude": 51.5182991028,
                "longitude": 7.6122398377,
                "city": "Dortmund",
                "country_code": "DE"
            },
            "circle": {
                "id": "31271",
                "latitude": 52.2075,
                "longitude": 6.9105,
                "radius": 124.05517738777675
            }
        }
    ]
}