{
    "target": "193.0.14.129",
    "probes_filepath": "datasets/probes_section/North-Central-section_1.json",
    "alpha": 0.2,
    "threshold": -1,
    "noise": 0,
    "results_filepath": "datasets/results/campaigns/193.0.14.129_North-Central-section_20230425_alpha_light-factor_0.35/193.0.14.129_North-Central-section_1_52654511_0.2_-1_0.json",
    "gt_filepath": "datasets/ground-truth/root_servers/root_servers_K.json",
    "statistics": {
        "TP": 16,
        "FP": 11,
        "TN": 0,
        "FN": 25,
        "accuracy": 0.3076923076923077,
        "precision": 0.5925925925925926,
        "recall": 0.3902439024390244,
        "f1": 0.47058823529411764,
        "OT": 0,
        "OF": 0
    },
    "instances": [
        {
            "country_code": "AM",
            "city": "Gyumri",
            "latitude": 40.7504005432,
            "longitude": 43.8592987061,
            "type": "TP"
        },
        {
            "country_code": "AT",
            "city": "Feldkirch",
            "latitude": 47.2375671,
            "longitude": 9.5981724,
            "type": "FN"
        },
        {
            "country_code": "AT",
            "city": "Salzburg",
            "latitude": 47.811195,
            "longitude": 13.033229,
            "type": "FN"
        },
        {
            "country_code": "AT",
            "city": "Vienna",
            "latitude": 48.2083537,
            "longitude": 16.3725042,
            "type": "FN"
        },
        {
            "country_code": "BA",
            "city": "Sarajevo",
            "latitude": 43.8519774,
            "longitude": 18.3866868,
            "type": "FN"
        },
        {
            "country_code": "BG",
            "city": "Sofia",
            "latitude": 42.6978634,
            "longitude": 23.3221789,
            "type": "FN"
        },
        {
            "country_code": "BG",
            "city": "Yambol",
            "latitude": 42.4548988342,
            "longitude": 26.3521995544,
            "type": "FP"
        },
        {
            "country_code": "CH",
            "city": "Geneva",
            "latitude": 46.2017559,
            "longitude": 6.1466014,
            "type": "FN"
        },
        {
            "country_code": "CH",
            "city": "Zurich",
            "latitude": 47.4646987915,
            "longitude": 8.5491695404,
            "type": "TP"
        },
        {
            "country_code": "CZ",
            "city": "Prague",
            "latitude": 50.0596288,
            "longitude": 14.446459273258009,
            "type": "FN"
        },
        {
            "country_code": "DE",
            "city": "Berlin",
            "latitude": 52.5170365,
            "longitude": 13.3888599,
            "type": "FN"
        },
        {
            "country_code": "DE",
            "city": "Hamburg",
            "latitude": 53.550341,
            "longitude": 10.000654,
            "type": "FN"
        },
        {
            "country_code": "DE",
            "city": "Mannheim",
            "latitude": 49.4730567932,
            "longitude": 8.514166832,
            "type": "TP"
        },
        {
            "country_code": "DE",
            "city": "Munich",
            "latitude": 48.3538017273,
            "longitude": 11.7861003876,
            "type": "FP"
        },
        {
            "country_code": "EE",
            "city": "Tallinn",
            "latitude": 59.4132995605,
            "longitude": 24.8327999115,
            "type": "TP"
        },
        {
            "country_code": "ES",
            "city": "Albacete",
            "latitude": 38.9485015869,
            "longitude": -1.8635200262,
            "type": "FP"
        },
        {
            "country_code": "ES",
            "city": "Barcelona",
            "latitude": 41.2971000671,
            "longitude": 2.0784599781,
            "type": "TP"
        },
        {
            "country_code": "ES",
            "city": "Madrid",
            "latitude": 40.4967002869,
            "longitude": -3.4458699226,
            "type": "TP"
        },
        {
            "country_code": "FI",
            "city": "Helsinki",
            "latitude": 60.1733244,
            "longitude": 24.9410248,
            "type": "TP"
        },
        {
            "country_code": "FI",
            "city": "Mikkeli",
            "latitude": 61.6865997314,
            "longitude": 27.2017993927,
            "type": "FP"
        },
        {
            "country_code": "FO",
            "city": "Torshavn",
            "latitude": 62.012,
            "longitude": -6.768,
            "type": "FN"
        },
        {
            "country_code": "FR",
            "city": "Amiens/Glisy",
            "latitude": 49.8730010986,
            "longitude": 2.3870699406,
            "type": "FP"
        },
        {
            "country_code": "FR",
            "city": "Lyon",
            "latitude": 45.7578137,
            "longitude": 4.8320114,
            "type": "FN"
        },
        {
            "country_code": "FR",
            "city": "Paris",
            "latitude": 48.8566969,
            "longitude": 2.3514616,
            "type": "FN"
        },
        {
            "country_code": "GB",
            "city": "London",
            "latitude": 51.1481018066,
            "longitude": -0.1902779937,
            "type": "TP"
        },
        {
            "country_code": "GE",
            "city": "Tbilisi",
            "latitude": 41.6692008972,
            "longitude": 44.95470047,
            "type": "TP"
        },
        {
            "country_code": "GR",
            "city": "Athens",
            "latitude": 37.9364013672,
            "longitude": 23.9444999695,
            "type": "TP"
        },
        {
            "country_code": "HR",
            "city": "Osijek",
            "latitude": 45.4626998901,
            "longitude": 18.8101997375,
            "type": "FP"
        },
        {
            "country_code": "HU",
            "city": "Budapest",
            "latitude": 47.48138955,
            "longitude": 19.14609412691246,
            "type": "FN"
        },
        {
            "country_code": "HU",
            "city": "Debrecen",
            "latitude": 47.488899231,
            "longitude": 21.6152992249,
            "type": "FP"
        },
        {
            "country_code": "HU",
            "city": "Gy\u0151r",
            "latitude": 47.6244010925,
            "longitude": 17.8136005402,
            "type": "FP"
        },
        {
            "country_code": "IE",
            "city": "Cork",
            "latitude": 51.897077,
            "longitude": -8.4654674,
            "type": "FN"
        },
        {
            "country_code": "IS",
            "city": "Reykjav\u00edk",
            "latitude": 63.9850006104,
            "longitude": -22.6056003571,
            "type": "TP"
        },
        {
            "country_code": "IT",
            "city": "Milan",
            "latitude": 45.4668,
            "longitude": 9.1905,
            "type": "FN"
        },
        {
            "country_code": "IT",
            "city": "Palermo",
            "latitude": 38.1112268,
            "longitude": 13.3524434,
            "type": "FN"
        },
        {
            "country_code": "IT",
            "city": "Prato",
            "latitude": 43.880598,
            "longitude": 11.0969262,
            "type": "FN"
        },
        {
            "country_code": "IT",
            "city": "Rome",
            "latitude": 41.799444,
            "longitude": 12.597222,
            "type": "FP"
        },
        {
            "country_code": "LB",
            "city": "Beirut",
            "latitude": 33.8959203,
            "longitude": 35.47843,
            "type": "FN"
        },
        {
            "country_code": "LT",
            "city": "Vilnius",
            "latitude": 54.6870458,
            "longitude": 25.2829111,
            "type": "FN"
        },
        {
            "country_code": "LU",
            "city": "Kirchberg",
            "latitude": 49.6278334,
            "longitude": 6.1596669,
            "type": "FN"
        },
        {
            "country_code": "LV",
            "city": "Riga",
            "latitude": 56.9235992432,
            "longitude": 23.9710998535,
            "type": "TP"
        },
        {
            "country_code": "MK",
            "city": "Skopje",
            "latitude": 41.9616012573,
            "longitude": 21.6214008331,
            "type": "FP"
        },
        {
            "country_code": "NL",
            "city": "Amsterdam",
            "latitude": 52.3086013794,
            "longitude": 4.7638897896,
            "type": "TP"
        },
        {
            "country_code": "PL",
            "city": "Gdynia",
            "latitude": 54.50383255,
            "longitude": 18.462806155884614,
            "type": "FN"
        },
        {
            "country_code": "PL",
            "city": "Poznan",
            "latitude": 52.4006632,
            "longitude": 16.91973259178088,
            "type": "FN"
        },
        {
            "country_code": "PL",
            "city": "Warsaw",
            "latitude": 52.4510993958,
            "longitude": 20.6518001556,
            "type": "TP"
        },
        {
            "country_code": "RO",
            "city": "Bucharest",
            "latitude": 44.4361414,
            "longitude": 26.1027202,
            "type": "FN"
        },
        {
            "country_code": "RS",
            "city": "Belgrade",
            "latitude": 44.8178131,
            "longitude": 20.4568974,
            "type": "FN"
        },
        {
            "country_code": "RU",
            "city": "Moscow",
            "latitude": 55.9725990295,
            "longitude": 37.4146003723,
            "type": "TP"
        },
        {
            "country_code": "RU",
            "city": "St Petersburg",
            "latitude": 59.8003005981,
            "longitude": 30.2625007629,
            "type": "TP"
        },
        {
            "country_code": "UA",
            "city": "Kiev",
            "latitude": 50.3450012207,
            "longitude": 30.8946990967,
            "type": "FP"
        },
        {
            "country_code": "UA",
            "city": "Lugansk",
            "latitude": 48.5717084,
            "longitude": 39.2973153,
            "type": "FN"
        }
    ]
}