{
    "target": "198.97.190.53",
    "measurement_filepath": "datasets/measurements/campaigns/198.97.190.53_North-Central_20230410/198.97.190.53_North-Central_1000_52071953.json",
    "probes_filepath": "datasets/probes_sets/North-Central_1000.json",
    "alpha": 1,
    "threshold": -1.0,
    "noise": 0,
    "num_anycast_instances": 6,
    "anycast_instances": [
        {
            "marker": {
                "id": "DEX",
                "latitude": 50.121212,
                "longitude": 8.6365638,
                "city": "Frankfurt-am-Main",
                "country_code": "DE"
            },
            "circle": {
                "id": "1002660",
                "latitude": 50.1075,
                "longitude": 8.6805,
                "radius": 33.9656460725176
            }
        },
        {
            "marker": {
                "id": "BQH",
                "latitude": 51.3307991028,
                "longitude": 0.0324999988,
                "city": "London",
                "country_code": "GB"
            },
            "circle": {
                "id": "1002085",
                "latitude": 51.5095,
                "longitude": -0.1285,
                "radius": 35.574632194603595
            }
        },
        {
            "marker": {
                "id": "PAR",
                "latitude": 49.0127983093,
                "longitude": 2.5499999523,
                "city": "Paris",
                "country_code": "FR"
            },
            "circle": {
                "id": "1002484",
                "latitude": 48.8595,
                "longitude": 2.3415,
                "radius": 201.46640770817677
            }
        },
        {
            "marker": {
                "id": "GLA",
                "latitude": 55.8718986511,
                "longitude": -4.4330601692,
                "city": "Glasgow",
                "country_code": "GB"
            },
            "circle": {
                "id": "1002711",
                "latitude": 55.3775,
                "longitude": -3.4425,
                "radius": 229.6921074628432
            }
        },
        {
            "marker": {
                "id": "CIA",
                "latitude": 41.7994003296,
                "longitude": 12.5949001312,
                "city": "Rome",
                "country_code": "IT"
            },
            "circle": {
                "id": "6621",
                "latitude": 40.9475,
                "longitude": 17.2785,
                "radius": 540.0441552109771
            }
        },
        {
            "marker": {
                "id": "CKL",
                "latitude": 55.8782997131,
                "longitude": 38.0616989136,
                "city": "Moscow",
                "country_code": "RU"
            },
            "circle": {
                "id": "1004826",
                "latitude": 60.4005,
                "longitude": 25.0285,
                "radius": 1394.0954877765162
            }
        }
    ]
}