{
    "target": "192.5.5.241",
    "probes_filepath": "datasets/probes_section/North-Central-section_1.json",
    "alpha": 0.0,
    "threshold": -1,
    "noise": 0,
    "results_filepath": "datasets/results/campaigns/192.5.5.241_North-Central-section_20230425_alpha_light-factor_0.18/192.5.5.241_North-Central-section_1_52649423_0.0_-1_0.json",
    "gt_filepath": "datasets/ground-truth/root_servers/root_servers_F.json",
    "statistics": {
        "TP": 39,
        "FP": 61,
        "TN": 0,
        "FN": 29,
        "accuracy": 0.3023255813953488,
        "precision": 0.39,
        "recall": 0.5735294117647058,
        "f1": 0.46428571428571425,
        "OT": 0,
        "OF": 1
    },
    "instances": [
        {
            "country_code": "AL",
            "city": "Tirana",
            "latitude": 41.4147,
            "longitude": 19.7206,
            "type": "FN"
        },
        {
            "country_code": "AT",
            "city": "Vienna",
            "latitude": 48.110298,
            "longitude": 16.5697,
            "type": "FN"
        },
        {
            "country_code": "BG",
            "city": "Plovdiv",
            "latitude": 42.0677986145,
            "longitude": 24.8507995605,
            "type": "FP"
        },
        {
            "country_code": "BG",
            "city": "Sofia",
            "latitude": 42.6966934204,
            "longitude": 23.4114360809,
            "type": "TP"
        },
        {
            "country_code": "BY",
            "city": "Minsk",
            "latitude": 53.9006,
            "longitude": 27.599,
            "type": "FN"
        },
        {
            "country_code": "CH",
            "city": "Geneva",
            "latitude": 46.238098,
            "longitude": 6.10895,
            "type": "FN"
        },
        {
            "country_code": "CH",
            "city": "Zurich",
            "latitude": 47.464699,
            "longitude": 8.54917,
            "type": "FN"
        },
        {
            "country_code": "CY",
            "city": "Nicosia",
            "latitude": 34.875099,
            "longitude": 33.624901,
            "type": "FN"
        },
        {
            "country_code": "CZ",
            "city": "Pardubice",
            "latitude": 50.0134010315,
            "longitude": 15.7385997772,
            "type": "FP"
        },
        {
            "country_code": "CZ",
            "city": "Prague",
            "latitude": 50.1007995605,
            "longitude": 14.2600002289,
            "type": "TP"
        },
        {
            "country_code": "DE",
            "city": "Berlin",
            "latitude": 52.5597000122,
            "longitude": 13.2876996994,
            "type": "TP"
        },
        {
            "country_code": "DE",
            "city": "Eisenach",
            "latitude": 50.9927787781,
            "longitude": 10.4727783203,
            "type": "FP"
        },
        {
            "country_code": "DE",
            "city": "Frankfurt",
            "latitude": 50.050735,
            "longitude": 8.570773,
            "type": "FN"
        },
        {
            "country_code": "DE",
            "city": "Hamburg",
            "latitude": 53.5352783203,
            "longitude": 9.8355560303,
            "type": "TP"
        },
        {
            "country_code": "DE",
            "city": "Hannover",
            "latitude": 52.461101532,
            "longitude": 9.6850795746,
            "type": "FP"
        },
        {
            "country_code": "DE",
            "city": "Hof",
            "latitude": 50.2886123657,
            "longitude": 11.8563890457,
            "type": "FP"
        },
        {
            "country_code": "DE",
            "city": "Munich",
            "latitude": 48.353802,
            "longitude": 11.7861,
            "type": "FN"
        },
        {
            "country_code": "DE",
            "city": "Stuttgart",
            "latitude": 48.783333,
            "longitude": 9.183333,
            "type": "FN"
        },
        {
            "country_code": "DE",
            "city": "Trier",
            "latitude": 49.9726982117,
            "longitude": 6.6925001144,
            "type": "TP"
        },
        {
            "country_code": "DK",
            "city": "Copenhagen",
            "latitude": 55.6179008484,
            "longitude": 12.6560001373,
            "type": "TP"
        },
        {
            "country_code": "DK",
            "city": "Esbjerg",
            "latitude": 55.5259017944,
            "longitude": 8.5534000397,
            "type": "FP"
        },
        {
            "country_code": "DK",
            "city": "S\u00f8nderborg",
            "latitude": 54.9644012451,
            "longitude": 9.7917299271,
            "type": "FP"
        },
        {
            "country_code": "DZ",
            "city": "Algiers",
            "latitude": 36.691002,
            "longitude": 3.21541,
            "type": "FN"
        },
        {
            "country_code": "EE",
            "city": "Tallinn",
            "latitude": 59.4132995605,
            "longitude": 24.8327999115,
            "type": "TP"
        },
        {
            "country_code": "EE",
            "city": "Tartu",
            "latitude": 58.3074989319,
            "longitude": 26.6903991699,
            "type": "FP"
        },
        {
            "country_code": "ES",
            "city": "Barcelona",
            "latitude": 41.2971000671,
            "longitude": 2.0784599781,
            "type": "TP"
        },
        {
            "country_code": "ES",
            "city": "Granada",
            "latitude": 37.1887016296,
            "longitude": -3.7773599625,
            "type": "FP"
        },
        {
            "country_code": "ES",
            "city": "Madrid",
            "latitude": 40.4967002869,
            "longitude": -3.4458699226,
            "type": "TP"
        },
        {
            "country_code": "ES",
            "city": "Santiago de Compostela",
            "latitude": 42.8963012695,
            "longitude": -8.415140152,
            "type": "FP"
        },
        {
            "country_code": "ES",
            "city": "Tenerife",
            "latitude": 28.4827003479,
            "longitude": -16.3414993286,
            "type": "OF"
        },
        {
            "country_code": "FI",
            "city": "Helsinki",
            "latitude": 60.317199707,
            "longitude": 24.963300705,
            "type": "TP"
        },
        {
            "country_code": "FI",
            "city": "Kuusamo",
            "latitude": 65.9876022339,
            "longitude": 29.2394008636,
            "type": "FP"
        },
        {
            "country_code": "FI",
            "city": "Mikkeli",
            "latitude": 61.6865997314,
            "longitude": 27.2017993927,
            "type": "FP"
        },
        {
            "country_code": "FI",
            "city": "Tampere/Pirkkala",
            "latitude": 61.414100647,
            "longitude": 23.6044006348,
            "type": "FP"
        },
        {
            "country_code": "FR",
            "city": "Bastia/Poretta",
            "latitude": 42.5527000427,
            "longitude": 9.4837303162,
            "type": "FP"
        },
        {
            "country_code": "FR",
            "city": "Biarritz/Anglet/Bayonne",
            "latitude": 43.4683990479,
            "longitude": -1.5233199596,
            "type": "FP"
        },
        {
            "country_code": "FR",
            "city": "Caen/Carpiquet",
            "latitude": 49.1733016968,
            "longitude": -0.4499999881,
            "type": "FP"
        },
        {
            "country_code": "FR",
            "city": "Ch\u00e2teauroux/D\u00e9ols",
            "latitude": 46.8622016907,
            "longitude": 1.7306699753,
            "type": "FP"
        },
        {
            "country_code": "FR",
            "city": "Marseille",
            "latitude": 43.439272,
            "longitude": 5.221424,
            "type": "FN"
        },
        {
            "country_code": "FR",
            "city": "Montb\u00e9liard/Courcelles",
            "latitude": 47.4869995117,
            "longitude": 6.7905402184,
            "type": "FP"
        },
        {
            "country_code": "FR",
            "city": "Paris",
            "latitude": 49.0127983093,
            "longitude": 2.5499999523,
            "type": "TP"
        },
        {
            "country_code": "FR",
            "city": "Reims/Champagne",
            "latitude": 49.3100013733,
            "longitude": 4.0500001907,
            "type": "FP"
        },
        {
            "country_code": "FR",
            "city": "Roanne/Renaison",
            "latitude": 46.0583000183,
            "longitude": 4.0013899803,
            "type": "FP"
        },
        {
            "country_code": "FR",
            "city": "Strasbourg",
            "latitude": 48.5382995605,
            "longitude": 7.6282300949,
            "type": "FP"
        },
        {
            "country_code": "FR",
            "city": "Valenciennes/Denain",
            "latitude": 50.3258018494,
            "longitude": 3.4612600803,
            "type": "TP"
        },
        {
            "country_code": "GB",
            "city": "Benson",
            "latitude": 51.6164016724,
            "longitude": -1.0958299637,
            "type": "TP"
        },
        {
            "country_code": "GB",
            "city": "Durham",
            "latitude": 54.5092010498,
            "longitude": -1.4294099808,
            "type": "FP"
        },
        {
            "country_code": "GB",
            "city": "Edinburgh",
            "latitude": 55.950001,
            "longitude": -3.3725,
            "type": "FN"
        },
        {
            "country_code": "GB",
            "city": "London",
            "latitude": 51.8746986389,
            "longitude": -0.3683330119,
            "type": "FP"
        },
        {
            "country_code": "GB",
            "city": "Manchester",
            "latitude": 53.353699,
            "longitude": -2.27495,
            "type": "FN"
        },
        {
            "country_code": "GE",
            "city": "Tbilisi",
            "latitude": 41.669201,
            "longitude": 44.9547,
            "type": "FN"
        },
        {
            "country_code": "GR",
            "city": "Athens",
            "latitude": 37.9364013672,
            "longitude": 23.9444999695,
            "type": "TP"
        },
        {
            "country_code": "GR",
            "city": "Thessaloniki",
            "latitude": 40.519699,
            "longitude": 22.9709,
            "type": "FN"
        },
        {
            "country_code": "HU",
            "city": "Budapest",
            "latitude": 47.4369010925,
            "longitude": 19.2555999756,
            "type": "TP"
        },
        {
            "country_code": "IE",
            "city": "Cork",
            "latitude": 51.841301,
            "longitude": -8.49111,
            "type": "FN"
        },
        {
            "country_code": "IE",
            "city": "Dublin",
            "latitude": 53.421299,
            "longitude": -6.27007,
            "type": "FN"
        },
        {
            "country_code": "IE",
            "city": "Galway",
            "latitude": 53.300201416,
            "longitude": -8.9415903091,
            "type": "FP"
        },
        {
            "country_code": "IL",
            "city": "Haifa",
            "latitude": 32.78492,
            "longitude": 34.96069,
            "type": "FN"
        },
        {
            "country_code": "IL",
            "city": "Tel Aviv",
            "latitude": 32.0113983154,
            "longitude": 34.8866996765,
            "type": "TP"
        },
        {
            "country_code": "IQ",
            "city": "Arbil",
            "latitude": 36.2375984192,
            "longitude": 43.9631996155,
            "type": "TP"
        },
        {
            "country_code": "IQ",
            "city": "Baghdad",
            "latitude": 33.262501,
            "longitude": 44.2346,
            "type": "FN"
        },
        {
            "country_code": "IQ",
            "city": "Mosul",
            "latitude": 36.3058013916,
            "longitude": 43.1473999023,
            "type": "FP"
        },
        {
            "country_code": "IQ",
            "city": "Najaf",
            "latitude": 31.989722,
            "longitude": 44.404167,
            "type": "FN"
        },
        {
            "country_code": "IS",
            "city": "Reykjav\u00edk",
            "latitude": 63.9850006104,
            "longitude": -22.6056003571,
            "type": "TP"
        },
        {
            "country_code": "IT",
            "city": "Bolzano",
            "latitude": 46.4602012634,
            "longitude": 11.3263998032,
            "type": "FP"
        },
        {
            "country_code": "IT",
            "city": "Foggia",
            "latitude": 41.4328994751,
            "longitude": 15.5349998474,
            "type": "FP"
        },
        {
            "country_code": "IT",
            "city": "Latina",
            "latitude": 41.5424003601,
            "longitude": 12.9090003967,
            "type": "TP"
        },
        {
            "country_code": "IT",
            "city": "Milan",
            "latitude": 45.445098877,
            "longitude": 9.2767400742,
            "type": "TP"
        },
        {
            "country_code": "IT",
            "city": "Olbia",
            "latitude": 40.8987007141,
            "longitude": 9.5176296234,
            "type": "FP"
        },
        {
            "country_code": "IT",
            "city": "Palermo",
            "latitude": 38.16114,
            "longitude": 13.31546,
            "type": "FN"
        },
        {
            "country_code": "IT",
            "city": "Torino",
            "latitude": 45.2008018494,
            "longitude": 7.6496300697,
            "type": "TP"
        },
        {
            "country_code": "JO",
            "city": "Amman",
            "latitude": 31.722601,
            "longitude": 35.993198,
            "type": "FN"
        },
        {
            "country_code": "LB",
            "city": "Beirut",
            "latitude": 33.8208999634,
            "longitude": 35.4883995056,
            "type": "TP"
        },
        {
            "country_code": "LT",
            "city": "Kaunas",
            "latitude": 54.9639015198,
            "longitude": 24.0848007202,
            "type": "TP"
        },
        {
            "country_code": "LT",
            "city": "Palanga",
            "latitude": 55.9732017517,
            "longitude": 21.0939006805,
            "type": "FP"
        },
        {
            "country_code": "LT",
            "city": "Panev\u0117\u017eys",
            "latitude": 55.7294006348,
            "longitude": 24.4608001709,
            "type": "FP"
        },
        {
            "country_code": "LT",
            "city": "Vilnius",
            "latitude": 54.6341018677,
            "longitude": 25.2858009338,
            "type": "TP"
        },
        {
            "country_code": "LV",
            "city": "Riga",
            "latitude": 56.9235992432,
            "longitude": 23.9710998535,
            "type": "TP"
        },
        {
            "country_code": "MA",
            "city": "Casablanca",
            "latitude": 33.3675,
            "longitude": -7.58997,
            "type": "FN"
        },
        {
            "country_code": "MD",
            "city": "Chi\u015fin\u0103u",
            "latitude": 46.9277000427,
            "longitude": 28.9309997559,
            "type": "TP"
        },
        {
            "country_code": "ME",
            "city": "Tivat",
            "latitude": 42.4047012329,
            "longitude": 18.7233009338,
            "type": "TP"
        },
        {
            "country_code": "N/A",
            "city": "N/A",
            "latitude": 42.1715,
            "longitude": 26.5675,
            "type": "FP"
        },
        {
            "country_code": "N/A",
            "city": "N/A",
            "latitude": 46.3085,
            "longitude": 16.3415,
            "type": "FP"
        },
        {
            "country_code": "N/A",
            "city": "N/A",
            "latitude": 51.3885,
            "longitude": 21.1585,
            "type": "FP"
        },
        {
            "country_code": "N/A",
            "city": "N/A",
            "latitude": 60.1475,
            "longitude": 19.9475,
            "type": "FP"
        },
        {
            "country_code": "N/A",
            "city": "N/A",
            "latitude": 53.4095,
            "longitude": 21.9285,
            "type": "FP"
        },
        {
            "country_code": "N/A",
            "city": "N/A",
            "latitude": 58.1585,
            "longitude": 8.0195,
            "type": "FP"
        },
        {
            "country_code": "N/A",
            "city": "N/A",
            "latitude": 58.5385,
            "longitude": 31.2675,
            "type": "FP"
        },
        {
            "country_code": "N/A",
            "city": "N/A",
            "latitude": 54.6085,
            "longitude": 39.7215,
            "type": "FP"
        },
        {
            "country_code": "N/A",
            "city": "N/A",
            "latitude": 49.1995,
            "longitude": 28.2105,
            "type": "FP"
        },
        {
            "country_code": "N/A",
            "city": "N/A",
            "latitude": 43.8875,
            "longitude": 20.3495,
            "type": "FP"
        },
        {
            "country_code": "NL",
            "city": "Breda",
            "latitude": 51.567401886,
            "longitude": 4.9318299294,
            "type": "TP"
        },
        {
            "country_code": "NL",
            "city": "Eindhoven",
            "latitude": 51.4500999451,
            "longitude": 5.3745298386,
            "type": "TP"
        },
        {
            "country_code": "NL",
            "city": "Lelystad",
            "latitude": 52.4603004456,
            "longitude": 5.5272197723,
            "type": "FP"
        },
        {
            "country_code": "NO",
            "city": "Oslo",
            "latitude": 60.193901062,
            "longitude": 11.100399971,
            "type": "TP"
        },
        {
            "country_code": "NO",
            "city": "Troms\u00f8",
            "latitude": 69.6832962036,
            "longitude": 18.9188995361,
            "type": "FP"
        },
        {
            "country_code": "NO",
            "city": "Trondheim",
            "latitude": 63.4578018188,
            "longitude": 10.9239997864,
            "type": "FP"
        },
        {
            "country_code": "NO",
            "city": "\u00c5r\u00f8",
            "latitude": 62.7447013855,
            "longitude": 7.2624998093,
            "type": "FP"
        },
        {
            "country_code": "PL",
            "city": "Warsaw",
            "latitude": 52.1656990051,
            "longitude": 20.9671001434,
            "type": "TP"
        },
        {
            "country_code": "PS",
            "city": "Ramallah",
            "latitude": 32.2719,
            "longitude": 35.0194,
            "type": "FN"
        },
        {
            "country_code": "PT",
            "city": "Lisbon",
            "latitude": 38.7812995911,
            "longitude": -9.1359195709,
            "type": "TP"
        },
        {
            "country_code": "RO",
            "city": "Bucharest",
            "latitude": 44.5722007751,
            "longitude": 26.1021995544,
            "type": "TP"
        },
        {
            "country_code": "RO",
            "city": "Caransebe\u015f",
            "latitude": 45.4199981689,
            "longitude": 22.2532997131,
            "type": "FP"
        },
        {
            "country_code": "RO",
            "city": "Tulcea",
            "latitude": 45.0625,
            "longitude": 28.7143001556,
            "type": "FP"
        },
        {
            "country_code": "RS",
            "city": "Belgrade",
            "latitude": 44.8184013367,
            "longitude": 20.3090991974,
            "type": "FP"
        },
        {
            "country_code": "RU",
            "city": "Belgorod",
            "latitude": 50.6437988281,
            "longitude": 36.5900993347,
            "type": "FP"
        },
        {
            "country_code": "RU",
            "city": "Ivanovo",
            "latitude": 56.9393997192,
            "longitude": 40.9407997131,
            "type": "FP"
        },
        {
            "country_code": "RU",
            "city": "Moscow",
            "latitude": 55.5914993286,
            "longitude": 37.2615013123,
            "type": "TP"
        },
        {
            "country_code": "RU",
            "city": "St Petersburg",
            "latitude": 59.8003005981,
            "longitude": 30.2625007629,
            "type": "TP"
        },
        {
            "country_code": "RU",
            "city": "Tver",
            "latitude": 56.8587,
            "longitude": 35.9176,
            "type": "FN"
        },
        {
            "country_code": "RU",
            "city": "Velikiye Luki",
            "latitude": 56.3810997009,
            "longitude": 30.6081008911,
            "type": "FP"
        },
        {
            "country_code": "SE",
            "city": "Gothenburg",
            "latitude": 57.6628,
            "longitude": 12.2798,
            "type": "FN"
        },
        {
            "country_code": "SE",
            "city": "Halmstad",
            "latitude": 56.6911010742,
            "longitude": 12.8201999664,
            "type": "FP"
        },
        {
            "country_code": "SE",
            "city": "J\u00f6nk\u00f6ping",
            "latitude": 57.757598877,
            "longitude": 14.0686998367,
            "type": "FP"
        },
        {
            "country_code": "SE",
            "city": "Lule\u00e5",
            "latitude": 65.543800354,
            "longitude": 22.1219997406,
            "type": "FP"
        },
        {
            "country_code": "SE",
            "city": "Norrk\u00f6ping",
            "latitude": 58.5862998962,
            "longitude": 16.2506008148,
            "type": "FP"
        },
        {
            "country_code": "SE",
            "city": "Sk\u00f6vde",
            "latitude": 58.456401825,
            "longitude": 13.972700119,
            "type": "FP"
        },
        {
            "country_code": "SE",
            "city": "Stockholm",
            "latitude": 59.3544006348,
            "longitude": 17.9416999817,
            "type": "TP"
        },
        {
            "country_code": "SE",
            "city": "S\u00f6derhamn",
            "latitude": 61.2615013123,
            "longitude": 17.0991001129,
            "type": "FP"
        },
        {
            "country_code": "SI",
            "city": "Portoroz",
            "latitude": 45.473400116,
            "longitude": 13.6149997711,
            "type": "FP"
        },
        {
            "country_code": "SK",
            "city": "Bratislava",
            "latitude": 48.1486,
            "longitude": 17.1077,
            "type": "FN"
        },
        {
            "country_code": "SK",
            "city": "Poprad",
            "latitude": 49.073600769,
            "longitude": 20.2411003113,
            "type": "FP"
        },
        {
            "country_code": "TN",
            "city": "Tunis",
            "latitude": 36.851002,
            "longitude": 10.2272,
            "type": "FN"
        },
        {
            "country_code": "TR",
            "city": "Bursa",
            "latitude": 40.2551994324,
            "longitude": 29.5625991821,
            "type": "FP"
        },
        {
            "country_code": "TR",
            "city": "Istanbul",
            "latitude": 40.9768981934,
            "longitude": 28.8145999908,
            "type": "TP"
        },
        {
            "country_code": "TR",
            "city": "Izmir",
            "latitude": 38.32377,
            "longitude": 27.14317,
            "type": "FN"
        },
        {
            "country_code": "TR",
            "city": "I\u011fd\u0131r",
            "latitude": 39.9766273499,
            "longitude": 43.8766479492,
            "type": "TP"
        },
        {
            "country_code": "UA",
            "city": "Cherkasy",
            "latitude": 49.415599823,
            "longitude": 31.995300293,
            "type": "FP"
        },
        {
            "country_code": "UA",
            "city": "Kiev",
            "latitude": 50.4016990662,
            "longitude": 30.4496994019,
            "type": "TP"
        },
        {
            "country_code": "UA",
            "city": "Rivne",
            "latitude": 50.6071014404,
            "longitude": 26.1415996552,
            "type": "FP"
        }
    ]
}