{
    "target": "199.9.14.201",
    "measurement_filepath": "datasets/measurements/campaigns/199.9.14.201_North-Central_20230410/199.9.14.201_North-Central_500_52069589.json",
    "probes_filepath": "datasets/probes_sets/North-Central_500.json",
    "alpha": 0.0,
    "threshold": -1,
    "noise": 0,
    "num_anycast_instances": 7,
    "anycast_instances": [
        {
            "marker": {
                "id": "AMX",
                "latitude": 52.3086013794,
                "longitude": 4.7638897896,
                "city": "Amsterdam",
                "country_code": "NL"
            },
            "circle": {
                "id": "1002178",
                "latitude": 52.3715,
                "longitude": 4.9005,
                "radius": 19.7893601110716
            }
        },
        {
            "marker": {
                "id": "CWL",
                "latitude": 51.3967018127,
                "longitude": -3.3433299065,
                "city": "Cardiff",
                "country_code": "GB"
            },
            "circle": {
                "id": "1003587",
                "latitude": 51.5105,
                "longitude": -0.0185,
                "radius": 234.39582114961738
            }
        },
        {
            "marker": {
                "id": "FDH",
                "latitude": 47.6712989807,
                "longitude": 9.5114898682,
                "city": "Friedrichshafen",
                "country_code": "DE"
            },
            "circle": {
                "id": "1003331",
                "latitude": 50.1075,
                "longitude": 8.6785,
                "radius": 279.6291067975734
            }
        },
        {
            "marker": {
                "id": "MHP",
                "latitude": 53.8644981384,
                "longitude": 27.5396995544,
                "city": "Minsk",
                "country_code": "BY"
            },
            "circle": {
                "id": "22557",
                "latitude": 60.1305,
                "longitude": 18.6395,
                "radius": 880.2501804805358
            }
        },
        {
            "marker": {
                "id": "DHR",
                "latitude": 52.9234008789,
                "longitude": 4.7806200981,
                "city": "Den Helder",
                "country_code": "NL"
            },
            "circle": {
                "id": "52328",
                "latitude": 53.6615,
                "longitude": 10.5785,
                "radius": 394.80229405916464
            }
        },
        {
            "marker": {
                "id": "CEG",
                "latitude": 53.1781005859,
                "longitude": -2.9777801037,
                "city": "Hawarden",
                "country_code": "GB"
            },
            "circle": {
                "id": "1000959",
                "latitude": 64.0715,
                "longitude": -22.0205,
                "radius": 1628.1176775857282
            }
        },
        {
            "marker": {
                "id": "DTM",
                "latitude": 51.5182991028,
                "longitude": 7.6122398377,
                "city": "Dortmund",
                "country_code": "DE"
            },
            "circle": {
                "id": "14087",
                "latitude": 55.7105,
                "longitude": 12.5715,
                "radius": 577.4566201004811
            }
        }
    ]
}