{
    "target": "192.33.4.12",
    "probes_filepath": "datasets/probes_section/North-Central-section_1.json",
    "alpha": 1,
    "threshold": 10.0,
    "noise": 0,
    "results_filepath": "datasets/results/campaigns/192.33.4.12_North-Central-section_20230425_threshold_light-factor_0.18/192.33.4.12_North-Central-section_1_52641149_1_10.0_0.json",
    "gt_filepath": "datasets/ground-truth/root_servers/root_servers_C.json",
    "statistics": {
        "TP": 4,
        "FP": 16,
        "TN": 0,
        "FN": 0,
        "accuracy": 0.2,
        "precision": 0.2,
        "recall": 1.0,
        "f1": 0.33333333333333337,
        "OT": 0,
        "OF": 0
    },
    "instances": [
        {
            "country_code": "AT",
            "city": "Vienna",
            "latitude": 48.1102981567,
            "longitude": 16.5697002411,
            "type": "TP"
        },
        {
            "country_code": "BE",
            "city": "Brussels",
            "latitude": 50.4592018127,
            "longitude": 4.4538202286,
            "type": "FP"
        },
        {
            "country_code": "BE",
            "city": "Brussels",
            "latitude": 50.9014015198,
            "longitude": 4.4844398499,
            "type": "FP"
        },
        {
            "country_code": "DE",
            "city": "Berlin",
            "latitude": 52.3800010681,
            "longitude": 13.5225000381,
            "type": "FP"
        },
        {
            "country_code": "DE",
            "city": "Frankfurt-am-Main",
            "latitude": 50.121212,
            "longitude": 8.6365638,
            "type": "TP"
        },
        {
            "country_code": "DE",
            "city": "Munich",
            "latitude": 48.3538017273,
            "longitude": 11.7861003876,
            "type": "FP"
        },
        {
            "country_code": "DE",
            "city": "Stuttgart",
            "latitude": 48.6898994446,
            "longitude": 9.2219600677,
            "type": "FP"
        },
        {
            "country_code": "ES",
            "city": "Bilbao",
            "latitude": 43.3011016846,
            "longitude": -2.9106099606,
            "type": "FP"
        },
        {
            "country_code": "ES",
            "city": "Madrid",
            "latitude": 40.3707008362,
            "longitude": -3.7851400375,
            "type": "TP"
        },
        {
            "country_code": "ES",
            "city": "Sevilla",
            "latitude": 37.4179992676,
            "longitude": -5.8931097984,
            "type": "FP"
        },
        {
            "country_code": "ES",
            "city": "Valencia",
            "latitude": 39.4892997742,
            "longitude": -0.4816249907,
            "type": "FP"
        },
        {
            "country_code": "FR",
            "city": "Lyon",
            "latitude": 45.726398468,
            "longitude": 5.0908298492,
            "type": "FP"
        },
        {
            "country_code": "FR",
            "city": "Nantes",
            "latitude": 47.1531982422,
            "longitude": -1.610730052,
            "type": "FP"
        },
        {
            "country_code": "FR",
            "city": "Paris",
            "latitude": 49.0127983093,
            "longitude": 2.5499999523,
            "type": "TP"
        },
        {
            "country_code": "FR",
            "city": "Strasbourg",
            "latitude": 48.5382995605,
            "longitude": 7.6282300949,
            "type": "FP"
        },
        {
            "country_code": "FR",
            "city": "Tours/Val de Loire (Loire Valley)",
            "latitude": 47.4322013855,
            "longitude": 0.7276059985,
            "type": "FP"
        },
        {
            "country_code": "GB",
            "city": "Southend",
            "latitude": 51.5713996887,
            "longitude": 0.695555985,
            "type": "FP"
        },
        {
            "country_code": "HR",
            "city": "Zagreb",
            "latitude": 45.7429008484,
            "longitude": 16.0687999725,
            "type": "FP"
        },
        {
            "country_code": "HU",
            "city": "Budapest",
            "latitude": 47.4812134,
            "longitude": 19.1303031,
            "type": "FP"
        },
        {
            "country_code": "RS",
            "city": "Belgrade",
            "latitude": 44.8184013367,
            "longitude": 20.3090991974,
            "type": "FP"
        }
    ]
}