{
    "target": "104.16.123.96",
    "measurement_filepath": "datasets/measurements/campaigns/104.16.123.96_North-Central_20230418/104.16.123.96_North-Central_300_52452380.json",
    "probes_filepath": "datasets/probes_sets/North-Central_300.json",
    "alpha": 1,
    "threshold": 1.0,
    "noise": 0,
    "num_anycast_instances": 5,
    "anycast_instances": [
        {
            "marker": {
                "id": "ECN",
                "latitude": 35.1547012329,
                "longitude": 33.4961013794,
                "city": "Nicosia",
                "country_code": "CY"
            },
            "circle": {
                "id": "18864",
                "latitude": 35.1495,
                "longitude": 33.3505,
                "radius": 23.875171562662
            }
        },
        {
            "marker": {
                "id": "AMX",
                "latitude": 52.3086013794,
                "longitude": 4.7638897896,
                "city": "Amsterdam",
                "country_code": "NL"
            },
            "circle": {
                "id": "1004258",
                "latitude": 52.3815,
                "longitude": 4.8995,
                "radius": 27.686395607158747
            }
        },
        {
            "marker": {
                "id": "DEX",
                "latitude": 50.121212,
                "longitude": 8.6365638,
                "city": "Frankfurt-am-Main",
                "country_code": "DE"
            },
            "circle": {
                "id": "1002660",
                "latitude": 50.1075,
                "longitude": 8.6805,
                "radius": 27.71202786231775
            }
        },
        {
            "marker": {
                "id": "PRG",
                "latitude": 50.1007995605,
                "longitude": 14.2600002289,
                "city": "Prague",
                "country_code": "CZ"
            },
            "circle": {
                "id": "30144",
                "latitude": 50.0795,
                "longitude": 14.5295,
                "radius": 34.24229455276
            }
        },
        {
            "marker": {
                "id": "HAM",
                "latitude": 53.6304016113,
                "longitude": 9.9882297516,
                "city": "Hamburg",
                "country_code": "DE"
            },
            "circle": {
                "id": "50025",
                "latitude": 53.5495,
                "longitude": 10.0485,
                "radius": 36.584048390312496
            }
        }
    ]
}