{
    "target": "198.97.190.53",
    "measurement_filepath": "datasets/measurements/campaigns/198.97.190.53_North-Central-section_20230425/198.97.190.53_North-Central-section_1.5_52652246.json",
    "probes_filepath": "datasets/probes_section/North-Central-section_1.5.json",
    "alpha": 0.6,
    "threshold": -1,
    "noise": 0,
    "num_anycast_instances": 9,
    "anycast_instances": [
        {
            "marker": {
                "id": "STR",
                "latitude": 48.6898994446,
                "longitude": 9.2219600677,
                "city": "Stuttgart",
                "country_code": "DE"
            },
            "circle": {
                "id": "21448",
                "latitude": 48.7815,
                "longitude": 9.1795,
                "radius": 122.2971104721765
            }
        },
        {
            "marker": {
                "id": "GLA",
                "latitude": 55.8718986511,
                "longitude": -4.4330601692,
                "city": "Glasgow",
                "country_code": "GB"
            },
            "circle": {
                "id": "1002711",
                "latitude": 55.3775,
                "longitude": -3.4425,
                "radius": 170.6915277142677
            }
        },
        {
            "marker": {
                "id": "LINX",
                "latitude": 51.5286416,
                "longitude": -0.1015987,
                "city": "London",
                "country_code": "GB"
            },
            "circle": {
                "id": "1004432",
                "latitude": 51.0185,
                "longitude": 2.1585,
                "radius": 174.93604929312332
            }
        },
        {
            "marker": {
                "id": "SXF",
                "latitude": 52.3800010681,
                "longitude": 13.5225000381,
                "city": "Berlin",
                "country_code": "DE"
            },
            "circle": {
                "id": "14091",
                "latitude": 53.5475,
                "longitude": 10.0415,
                "radius": 290.1379266929451
            }
        },
        {
            "marker": {
                "id": "SAW",
                "latitude": 40.898601532,
                "longitude": 29.3092002869,
                "city": "Istanbul",
                "country_code": "TR"
            },
            "circle": {
                "id": "10972",
                "latitude": 48.3785,
                "longitude": 31.1705,
                "radius": 1055.28201346399
            }
        },
        {
            "marker": {
                "id": "SVO",
                "latitude": 55.9725990295,
                "longitude": 37.4146003723,
                "city": "Moscow",
                "country_code": "RU"
            },
            "circle": {
                "id": "54511",
                "latitude": 63.8175,
                "longitude": 20.2775,
                "radius": 1302.8811891214832
            }
        },
        {
            "marker": {
                "id": "TOJ",
                "latitude": 40.4967002869,
                "longitude": -3.4458699226,
                "city": "Madrid",
                "country_code": "ES"
            },
            "circle": {
                "id": "21570",
                "latitude": 37.3475,
                "longitude": -5.2295,
                "radius": 1449.3009048615322
            }
        },
        {
            "marker": {
                "id": "BRU",
                "latitude": 50.9014015198,
                "longitude": 4.4844398499,
                "city": "Brussels",
                "country_code": "BE"
            },
            "circle": {
                "id": "6768",
                "latitude": 49.5015,
                "longitude": 6.1105,
                "radius": 210.7463783182065
            }
        },
        {
            "marker": {
                "id": "LED",
                "latitude": 59.8003005981,
                "longitude": 30.2625007629,
                "city": "St Petersburg",
                "country_code": "RU"
            },
            "circle": {
                "id": "4842",
                "latitude": 78.2085,
                "longitude": 15.6195,
                "radius": 2371.4556853911126
            }
        }
    ]
}