{
    "target": "192.33.4.12",
    "measurement_filepath": "datasets/measurements/campaigns/192.33.4.12_North-Central-section_20230425/192.33.4.12_North-Central-section_1.5_52641500.json",
    "probes_filepath": "datasets/probes_section/North-Central-section_1.5.json",
    "alpha": 0.0,
    "threshold": -1,
    "noise": 0,
    "num_anycast_instances": 10,
    "anycast_instances": [
        {
            "marker": {
                "id": "TOJ",
                "latitude": 40.4967002869,
                "longitude": -3.4458699226,
                "city": "Madrid",
                "country_code": "ES"
            },
            "circle": {
                "id": "7017",
                "latitude": 40.4405,
                "longitude": -3.6225,
                "radius": 36.943979215387294
            }
        },
        {
            "marker": {
                "id": "UHE",
                "latitude": 49.0293998718,
                "longitude": 17.439699173,
                "city": "Uhersk\u00e9 Hradi\u0161t\u011b",
                "country_code": "CZ"
            },
            "circle": {
                "id": "16135",
                "latitude": 48.2295,
                "longitude": 16.4085,
                "radius": 121.52267160504799
            }
        },
        {
            "marker": {
                "id": "MUC",
                "latitude": 48.3538017273,
                "longitude": 11.7861003876,
                "city": "Munich",
                "country_code": "DE"
            },
            "circle": {
                "id": "19810",
                "latitude": 48.7375,
                "longitude": 9.0975,
                "radius": 207.49013007195933
            }
        },
        {
            "marker": {
                "id": "EGC",
                "latitude": 44.8252983093,
                "longitude": 0.5186110139,
                "city": "Bergerac/Roumani\u00e8re",
                "country_code": "FR"
            },
            "circle": {
                "id": "19856",
                "latitude": 47.0605,
                "longitude": 2.4095,
                "radius": 290.2886248667702
            }
        },
        {
            "marker": {
                "id": "MSE",
                "latitude": 51.3422012329,
                "longitude": 1.3461099863,
                "city": "Manston",
                "country_code": "GB"
            },
            "circle": {
                "id": "24889",
                "latitude": 55.5415,
                "longitude": -4.6585,
                "radius": 666.7309542649842
            }
        },
        {
            "marker": {
                "id": "SXB",
                "latitude": 48.5382995605,
                "longitude": 7.6282300949,
                "city": "Strasbourg",
                "country_code": "FR"
            },
            "circle": {
                "id": "13430",
                "latitude": 51.1275,
                "longitude": 6.9585,
                "radius": 304.2524629028545
            }
        },
        {
            "marker": {
                "id": "XME",
                "latitude": 50.3105010986,
                "longitude": 4.0331201553,
                "city": "Maubeuge/\u00c9lesmes",
                "country_code": "FR"
            },
            "circle": {
                "id": "4615",
                "latitude": 53.6095,
                "longitude": 10.0175,
                "radius": 550.148525101261
            }
        },
        {
            "marker": {
                "id": "BNX",
                "latitude": 50.4592018127,
                "longitude": 4.4538202286,
                "city": "Brussels",
                "country_code": "BE"
            },
            "circle": {
                "id": "22339",
                "latitude": 53.6915,
                "longitude": 10.7085,
                "radius": 564.5170155023422
            }
        },
        {
            "marker": {
                "id": "UDJ",
                "latitude": 48.6343002319,
                "longitude": 22.2633991241,
                "city": "Uzhhorod",
                "country_code": "UA"
            },
            "circle": {
                "id": "11518",
                "latitude": 42.1715,
                "longitude": 26.5675,
                "radius": 817.8825416984248
            }
        },
        {
            "marker": {
                "id": "KLD",
                "latitude": 56.8246994019,
                "longitude": 35.7577018738,
                "city": "Tver",
                "country_code": "RU"
            },
            "circle": {
                "id": "22557",
                "latitude": 60.1305,
                "longitude": 18.6395,
                "radius": 1061.2795489565665
            }
        }
    ]
}