{
    "target": "192.58.128.30",
    "probes_filepath": "datasets/probes_section/North-Central-section_1.5.json",
    "alpha": 0.4,
    "threshold": -1,
    "noise": 0,
    "results_filepath": "datasets/results/campaigns/192.58.128.30_North-Central-section_20230425_alpha_light-factor_0.25/192.58.128.30_North-Central-section_1.5_52654068_0.4_-1_0.json",
    "gt_filepath": "datasets/ground-truth/root_servers/root_servers_J.json",
    "statistics": {
        "TP": 23,
        "FP": 16,
        "TN": 0,
        "FN": 16,
        "accuracy": 0.41818181818181815,
        "precision": 0.5897435897435898,
        "recall": 0.5897435897435898,
        "f1": 0.5897435897435898,
        "OT": 0,
        "OF": 0
    },
    "instances": [
        {
            "country_code": "AT",
            "city": "Klagenfurt am W\u00f6rthersee",
            "latitude": 46.6425018311,
            "longitude": 14.3376998901,
            "type": "TP"
        },
        {
            "country_code": "AT",
            "city": "Vienna",
            "latitude": 48.1102981567,
            "longitude": 16.5697002411,
            "type": "TP"
        },
        {
            "country_code": "BG",
            "city": "Sofia",
            "latitude": 42.6966934204,
            "longitude": 23.4114360809,
            "type": "TP"
        },
        {
            "country_code": "CH",
            "city": "Geneva",
            "latitude": 46.2043907,
            "longitude": 6.1431577,
            "type": "FN"
        },
        {
            "country_code": "CH",
            "city": "Zurich",
            "latitude": 47.3768866,
            "longitude": 8.541694,
            "type": "FN"
        },
        {
            "country_code": "CZ",
            "city": "Prague",
            "latitude": 50.1007995605,
            "longitude": 14.2600002289,
            "type": "TP"
        },
        {
            "country_code": "DE",
            "city": "Berlin",
            "latitude": 52.5597000122,
            "longitude": 13.2876996994,
            "type": "TP"
        },
        {
            "country_code": "DE",
            "city": "Frankfurt",
            "latitude": 50.1109221,
            "longitude": 8.6821267,
            "type": "FN"
        },
        {
            "country_code": "EE",
            "city": "Tallinn",
            "latitude": 59.4369608,
            "longitude": 24.7535746,
            "type": "FN"
        },
        {
            "country_code": "ES",
            "city": "Barcelona",
            "latitude": 41.2971000671,
            "longitude": 2.0784599781,
            "type": "TP"
        },
        {
            "country_code": "FI",
            "city": "Helsinki",
            "latitude": 60.2546005249,
            "longitude": 25.0428009033,
            "type": "TP"
        },
        {
            "country_code": "FI",
            "city": "Oulu",
            "latitude": 65.0120888,
            "longitude": 25.4650773,
            "type": "FN"
        },
        {
            "country_code": "FR",
            "city": "Marseille",
            "latitude": 43.2961743,
            "longitude": 5.3699525,
            "type": "FN"
        },
        {
            "country_code": "FR",
            "city": "Metz/Frescaty",
            "latitude": 49.0717010498,
            "longitude": 6.1316699982,
            "type": "TP"
        },
        {
            "country_code": "FR",
            "city": "Paris",
            "latitude": 49.0127983093,
            "longitude": 2.5499999523,
            "type": "TP"
        },
        {
            "country_code": "GB",
            "city": "Edinburgh",
            "latitude": 55.953252,
            "longitude": -3.188267,
            "type": "FN"
        },
        {
            "country_code": "GB",
            "city": "Glasgow",
            "latitude": 55.5093994141,
            "longitude": -4.5866699219,
            "type": "FP"
        },
        {
            "country_code": "GB",
            "city": "Leeds",
            "latitude": 53.8007554,
            "longitude": -1.5490774,
            "type": "FN"
        },
        {
            "country_code": "GB",
            "city": "London",
            "latitude": 51.1481018066,
            "longitude": -0.1902779937,
            "type": "TP"
        },
        {
            "country_code": "GR",
            "city": "Athens",
            "latitude": 37.9908372,
            "longitude": 23.7383394,
            "type": "TP"
        },
        {
            "country_code": "GR",
            "city": "Souda",
            "latitude": 35.5317001343,
            "longitude": 24.1497001648,
            "type": "FP"
        },
        {
            "country_code": "HR",
            "city": "Zagreb",
            "latitude": 45.8150108,
            "longitude": 15.981919,
            "type": "FN"
        },
        {
            "country_code": "IE",
            "city": "Dublin",
            "latitude": 53.4212989807,
            "longitude": -6.270070076,
            "type": "TP"
        },
        {
            "country_code": "IL",
            "city": "Tel Aviv",
            "latitude": 32.0113983154,
            "longitude": 34.8866996765,
            "type": "TP"
        },
        {
            "country_code": "IS",
            "city": "Reykjavik",
            "latitude": 64.133333,
            "longitude": -21.933333,
            "type": "FN"
        },
        {
            "country_code": "IT",
            "city": "Milan",
            "latitude": 45.6305999756,
            "longitude": 8.7281103134,
            "type": "TP"
        },
        {
            "country_code": "IT",
            "city": "Rome",
            "latitude": 41.8045005798,
            "longitude": 12.2508001328,
            "type": "TP"
        },
        {
            "country_code": "IT",
            "city": "Trieste",
            "latitude": 45.8274993896,
            "longitude": 13.4722003937,
            "type": "FP"
        },
        {
            "country_code": "IT",
            "city": "Turin",
            "latitude": 45.070312,
            "longitude": 7.6868565,
            "type": "FN"
        },
        {
            "country_code": "LB",
            "city": "Beirut",
            "latitude": 33.8886289,
            "longitude": 35.4954794,
            "type": "FN"
        },
        {
            "country_code": "LT",
            "city": "Vilnius",
            "latitude": 54.6341018677,
            "longitude": 25.2858009338,
            "type": "TP"
        },
        {
            "country_code": "LV",
            "city": "Riga",
            "latitude": 56.9235992432,
            "longitude": 23.9710998535,
            "type": "TP"
        },
        {
            "country_code": "MA",
            "city": "Casablanca",
            "latitude": 33.3675003052,
            "longitude": -7.5899701118,
            "type": "FP"
        },
        {
            "country_code": "N/A",
            "city": "N/A",
            "latitude": 59.9075,
            "longitude": 10.7485,
            "type": "TP"
        },
        {
            "country_code": "N/A",
            "city": "N/A",
            "latitude": 59.1315,
            "longitude": 31.6695,
            "type": "FP"
        },
        {
            "country_code": "NL",
            "city": "Amsterdam",
            "latitude": 52.3702157,
            "longitude": 4.8951679,
            "type": "FN"
        },
        {
            "country_code": "NO",
            "city": "Stavanger",
            "latitude": 58.876701355,
            "longitude": 5.6377801895,
            "type": "FP"
        },
        {
            "country_code": "NO",
            "city": "Trondheim",
            "latitude": 63.4578018188,
            "longitude": 10.9239997864,
            "type": "FP"
        },
        {
            "country_code": "PL",
            "city": "Warsaw",
            "latitude": 52.2296756,
            "longitude": 21.0122287,
            "type": "FN"
        },
        {
            "country_code": "PL",
            "city": "\u0141\u00f3d\u017a",
            "latitude": 51.7219009399,
            "longitude": 19.3980998993,
            "type": "FP"
        },
        {
            "country_code": "PT",
            "city": "Lisbon",
            "latitude": 38.7222524,
            "longitude": -9.1393366,
            "type": "FN"
        },
        {
            "country_code": "RS",
            "city": "Belgrade",
            "latitude": 44.8184013367,
            "longitude": 20.3090991974,
            "type": "TP"
        },
        {
            "country_code": "RU",
            "city": "Moscow",
            "latitude": 55.8782997131,
            "longitude": 38.0616989136,
            "type": "TP"
        },
        {
            "country_code": "RU",
            "city": "Moscow",
            "latitude": 55.4087982178,
            "longitude": 37.9062995911,
            "type": "FP"
        },
        {
            "country_code": "RU",
            "city": "Nizhny Novgorod",
            "latitude": 56.2300987244,
            "longitude": 43.7840003967,
            "type": "FP"
        },
        {
            "country_code": "RU",
            "city": "Saint Petersburg",
            "latitude": 59.9342802,
            "longitude": 30.3350986,
            "type": "FN"
        },
        {
            "country_code": "SE",
            "city": "Stockholm",
            "latitude": 59.6519012451,
            "longitude": 17.9186000824,
            "type": "TP"
        },
        {
            "country_code": "SE",
            "city": "Ume\u00e5",
            "latitude": 63.7918014526,
            "longitude": 20.2828006744,
            "type": "FP"
        },
        {
            "country_code": "SK",
            "city": "Bratislava",
            "latitude": 48.1702003479,
            "longitude": 17.2126998901,
            "type": "TP"
        },
        {
            "country_code": "TR",
            "city": "Istanbul",
            "latitude": 40.898601532,
            "longitude": 29.3092002869,
            "type": "FP"
        },
        {
            "country_code": "UA",
            "city": "Donetsk",
            "latitude": 48.073600769,
            "longitude": 37.7397003174,
            "type": "FP"
        },
        {
            "country_code": "UA",
            "city": "Kiev",
            "latitude": 50.6035003662,
            "longitude": 30.1919002533,
            "type": "TP"
        },
        {
            "country_code": "UA",
            "city": "Kiev",
            "latitude": 50.4016990662,
            "longitude": 30.4496994019,
            "type": "FP"
        },
        {
            "country_code": "UA",
            "city": "Odessa",
            "latitude": 46.4267997742,
            "longitude": 30.6765003204,
            "type": "FP"
        },
        {
            "country_code": "UA",
            "city": "Rivne",
            "latitude": 50.6071014404,
            "longitude": 26.1415996552,
            "type": "FP"
        }
    ]
}