{
    "target": "193.0.14.129",
    "probes_filepath": "datasets/probes_section/North-Central-section_1.5.json",
    "alpha": 0.0,
    "threshold": -1,
    "noise": 0,
    "results_filepath": "datasets/results/campaigns/193.0.14.129_North-Central-section_20230425_alpha_light-factor_0.25/193.0.14.129_North-Central-section_1.5_52654714_0.0_-1_0.json",
    "gt_filepath": "datasets/ground-truth/root_servers/root_servers_K.json",
    "statistics": {
        "TP": 13,
        "FP": 20,
        "TN": 0,
        "FN": 29,
        "accuracy": 0.20967741935483872,
        "precision": 0.3939393939393939,
        "recall": 0.30952380952380953,
        "f1": 0.3466666666666667,
        "OT": 0,
        "OF": 1
    },
    "instances": [
        {
            "country_code": "AM",
            "city": "Abovyan",
            "latitude": 40.2714761,
            "longitude": 44.6333951,
            "type": "FN"
        },
        {
            "country_code": "AM",
            "city": "Yerevan",
            "latitude": 40.1473007202,
            "longitude": 44.3959007263,
            "type": "TP"
        },
        {
            "country_code": "AT",
            "city": "Feldkirch",
            "latitude": 47.2375671,
            "longitude": 9.5981724,
            "type": "FN"
        },
        {
            "country_code": "AT",
            "city": "Salzburg",
            "latitude": 47.811195,
            "longitude": 13.033229,
            "type": "FN"
        },
        {
            "country_code": "AT",
            "city": "Vienna",
            "latitude": 48.2083537,
            "longitude": 16.3725042,
            "type": "FN"
        },
        {
            "country_code": "BA",
            "city": "Sarajevo",
            "latitude": 43.8246002197,
            "longitude": 18.3314990997,
            "type": "TP"
        },
        {
            "country_code": "BG",
            "city": "Dolna Mitropoliya",
            "latitude": 43.4514007568,
            "longitude": 24.5027999878,
            "type": "FP"
        },
        {
            "country_code": "BG",
            "city": "Sofia",
            "latitude": 42.6978634,
            "longitude": 23.3221789,
            "type": "FN"
        },
        {
            "country_code": "CH",
            "city": "Bern",
            "latitude": 46.914100647,
            "longitude": 7.4971499443,
            "type": "FP"
        },
        {
            "country_code": "CH",
            "city": "Geneva",
            "latitude": 46.2017559,
            "longitude": 6.1466014,
            "type": "FN"
        },
        {
            "country_code": "CH",
            "city": "Zurich",
            "latitude": 47.4646987915,
            "longitude": 8.5491695404,
            "type": "TP"
        },
        {
            "country_code": "CZ",
            "city": "Prague",
            "latitude": 50.0596288,
            "longitude": 14.446459273258009,
            "type": "FN"
        },
        {
            "country_code": "DE",
            "city": "Altenburg",
            "latitude": 50.9819450378,
            "longitude": 12.5063886642,
            "type": "FP"
        },
        {
            "country_code": "DE",
            "city": "Berlin",
            "latitude": 52.5170365,
            "longitude": 13.3888599,
            "type": "FN"
        },
        {
            "country_code": "DE",
            "city": "Eisenach",
            "latitude": 50.9927787781,
            "longitude": 10.4727783203,
            "type": "FP"
        },
        {
            "country_code": "DE",
            "city": "Hamburg",
            "latitude": 53.550341,
            "longitude": 10.000654,
            "type": "FN"
        },
        {
            "country_code": "DE",
            "city": "Manching",
            "latitude": 48.7156982422,
            "longitude": 11.5340003967,
            "type": "FP"
        },
        {
            "country_code": "DE",
            "city": "Mannheim",
            "latitude": 49.4730567932,
            "longitude": 8.514166832,
            "type": "TP"
        },
        {
            "country_code": "EE",
            "city": "P\u00e4rnu",
            "latitude": 58.4189987183,
            "longitude": 24.4727993011,
            "type": "FP"
        },
        {
            "country_code": "EE",
            "city": "Tallinn",
            "latitude": 59.4132995605,
            "longitude": 24.8327999115,
            "type": "TP"
        },
        {
            "country_code": "ES",
            "city": "Barcelona",
            "latitude": 41.2971000671,
            "longitude": 2.0784599781,
            "type": "TP"
        },
        {
            "country_code": "ES",
            "city": "Madrid",
            "latitude": 40.4167047,
            "longitude": -3.7035825,
            "type": "FN"
        },
        {
            "country_code": "ES",
            "city": "Zaragoza",
            "latitude": 41.6661987305,
            "longitude": -1.0415500402,
            "type": "FP"
        },
        {
            "country_code": "FI",
            "city": "Helsinki",
            "latitude": 60.317199707,
            "longitude": 24.963300705,
            "type": "TP"
        },
        {
            "country_code": "FI",
            "city": "Vaasa",
            "latitude": 63.0507011414,
            "longitude": 21.7621994019,
            "type": "FP"
        },
        {
            "country_code": "FO",
            "city": "Torshavn",
            "latitude": 62.012,
            "longitude": -6.768,
            "type": "FN"
        },
        {
            "country_code": "FR",
            "city": "Le Touquet-Paris-Plage",
            "latitude": 50.5173988342,
            "longitude": 1.6205899715,
            "type": "FP"
        },
        {
            "country_code": "FR",
            "city": "Lyon",
            "latitude": 45.7578137,
            "longitude": 4.8320114,
            "type": "FN"
        },
        {
            "country_code": "FR",
            "city": "Morlaix/Ploujean",
            "latitude": 48.6031990051,
            "longitude": -3.8157799244,
            "type": "FP"
        },
        {
            "country_code": "FR",
            "city": "Paris",
            "latitude": 48.8566969,
            "longitude": 2.3514616,
            "type": "FN"
        },
        {
            "country_code": "GB",
            "city": "London",
            "latitude": 51.8746986389,
            "longitude": -0.3683330119,
            "type": "TP"
        },
        {
            "country_code": "GE",
            "city": "Batumi",
            "latitude": 41.6102981567,
            "longitude": 41.5997009277,
            "type": "FP"
        },
        {
            "country_code": "GE",
            "city": "Tbilisi",
            "latitude": 41.6934591,
            "longitude": 44.8014495,
            "type": "FN"
        },
        {
            "country_code": "GR",
            "city": "Andravida",
            "latitude": 37.9207000732,
            "longitude": 21.2926006317,
            "type": "FP"
        },
        {
            "country_code": "GR",
            "city": "Athens",
            "latitude": 37.9839412,
            "longitude": 23.7283052,
            "type": "FN"
        },
        {
            "country_code": "HU",
            "city": "Budapest",
            "latitude": 47.4369010925,
            "longitude": 19.2555999756,
            "type": "TP"
        },
        {
            "country_code": "IE",
            "city": "Cork",
            "latitude": 51.897077,
            "longitude": -8.4654674,
            "type": "FN"
        },
        {
            "country_code": "IS",
            "city": "Reykjav\u00edk",
            "latitude": 63.9850006104,
            "longitude": -22.6056003571,
            "type": "TP"
        },
        {
            "country_code": "IT",
            "city": "Milan",
            "latitude": 45.445098877,
            "longitude": 9.2767400742,
            "type": "TP"
        },
        {
            "country_code": "IT",
            "city": "Palermo",
            "latitude": 38.1112268,
            "longitude": 13.3524434,
            "type": "FN"
        },
        {
            "country_code": "IT",
            "city": "Prato",
            "latitude": 43.880598,
            "longitude": 11.0969262,
            "type": "FN"
        },
        {
            "country_code": "IT",
            "city": "Ravenna",
            "latitude": 44.3642997742,
            "longitude": 12.2249002457,
            "type": "FP"
        },
        {
            "country_code": "LB",
            "city": "Beirut",
            "latitude": 33.8959203,
            "longitude": 35.47843,
            "type": "FN"
        },
        {
            "country_code": "LT",
            "city": "Vilnius",
            "latitude": 54.6870458,
            "longitude": 25.2829111,
            "type": "FN"
        },
        {
            "country_code": "LU",
            "city": "Kirchberg",
            "latitude": 49.6278334,
            "longitude": 6.1596669,
            "type": "FN"
        },
        {
            "country_code": "LV",
            "city": "Riga",
            "latitude": 56.9235992432,
            "longitude": 23.9710998535,
            "type": "TP"
        },
        {
            "country_code": "MK",
            "city": "Skopje",
            "latitude": 41.9616012573,
            "longitude": 21.6214008331,
            "type": "FP"
        },
        {
            "country_code": "N/A",
            "city": "N/A",
            "latitude": 59.1315,
            "longitude": 31.6695,
            "type": "FP"
        },
        {
            "country_code": "NL",
            "city": "Amsterdam",
            "latitude": 52.3727598,
            "longitude": 4.8936041,
            "type": "FN"
        },
        {
            "country_code": "NO",
            "city": "\u00d8rsta",
            "latitude": 62.1800003052,
            "longitude": 6.0741000175,
            "type": "FP"
        },
        {
            "country_code": "PL",
            "city": "Gdynia",
            "latitude": 54.50383255,
            "longitude": 18.462806155884614,
            "type": "FN"
        },
        {
            "country_code": "PL",
            "city": "Goleniow",
            "latitude": 53.5847015381,
            "longitude": 14.9021997452,
            "type": "FP"
        },
        {
            "country_code": "PL",
            "city": "Poznan",
            "latitude": 52.4006632,
            "longitude": 16.91973259178088,
            "type": "FN"
        },
        {
            "country_code": "PL",
            "city": "Warsaw",
            "latitude": 52.2337172,
            "longitude": 21.071432235636493,
            "type": "FN"
        },
        {
            "country_code": "PL",
            "city": "\u0141\u00f3d\u017a",
            "latitude": 51.7219009399,
            "longitude": 19.3980998993,
            "type": "FP"
        },
        {
            "country_code": "RO",
            "city": "Bucharest",
            "latitude": 44.5722007751,
            "longitude": 26.1021995544,
            "type": "TP"
        },
        {
            "country_code": "RS",
            "city": "Belgrade",
            "latitude": 44.8178131,
            "longitude": 20.4568974,
            "type": "FN"
        },
        {
            "country_code": "RU",
            "city": "Cheboksary",
            "latitude": 56.0903015137,
            "longitude": 47.3473014832,
            "type": "OF"
        },
        {
            "country_code": "RU",
            "city": "Moscow",
            "latitude": 55.7504461,
            "longitude": 37.6174943,
            "type": "FN"
        },
        {
            "country_code": "RU",
            "city": "Saint Petersburg",
            "latitude": 59.917857350000006,
            "longitude": 30.380619357025516,
            "type": "FN"
        },
        {
            "country_code": "SE",
            "city": "Sundsvall/ H\u00e4rn\u00f6sand",
            "latitude": 62.5280990601,
            "longitude": 17.4438991547,
            "type": "FP"
        },
        {
            "country_code": "UA",
            "city": "Kiev",
            "latitude": 50.6035003662,
            "longitude": 30.1919002533,
            "type": "FP"
        },
        {
            "country_code": "UA",
            "city": "Lugansk",
            "latitude": 48.5717084,
            "longitude": 39.2973153,
            "type": "FN"
        }
    ]
}