{
    "target": "198.97.190.53",
    "measurement_filepath": "datasets/measurements/campaigns/198.97.190.53_North-Central-section_20230425/198.97.190.53_North-Central-section_1_52651836.json",
    "probes_filepath": "datasets/probes_section/North-Central-section_1.json",
    "alpha": 0.0,
    "threshold": -1,
    "noise": 0,
    "num_anycast_instances": 20,
    "anycast_instances": [
        {
            "marker": {
                "id": "QEF",
                "latitude": 49.9599990845,
                "longitude": 8.6458330154,
                "city": "Egelsbach",
                "country_code": "DE"
            },
            "circle": {
                "id": "6940",
                "latitude": 50.0975,
                "longitude": 8.6395,
                "radius": 26.7868308628725
            }
        },
        {
            "marker": {
                "id": "MSE",
                "latitude": 51.3422012329,
                "longitude": 1.3461099863,
                "city": "Manston",
                "country_code": "GB"
            },
            "circle": {
                "id": "1002787",
                "latitude": 51.7705,
                "longitude": 0.1315,
                "radius": 98.03018511502299
            }
        },
        {
            "marker": {
                "id": "HHN",
                "latitude": 49.9486999512,
                "longitude": 7.2638897896,
                "city": "Hahn",
                "country_code": "DE"
            },
            "circle": {
                "id": "18348",
                "latitude": 51.2115,
                "longitude": 6.7595,
                "radius": 150.00561577311277
            }
        },
        {
            "marker": {
                "id": "AVB",
                "latitude": 46.0318984985,
                "longitude": 12.5965003967,
                "city": "Aviano",
                "country_code": "IT"
            },
            "circle": {
                "id": "6396",
                "latitude": 48.1405,
                "longitude": 11.5315,
                "radius": 250.23279244253152
            }
        },
        {
            "marker": {
                "id": "SJJ",
                "latitude": 43.8246002197,
                "longitude": 18.3314990997,
                "city": "Sarajevo",
                "country_code": "BA"
            },
            "circle": {
                "id": "6621",
                "latitude": 40.9475,
                "longitude": 17.2785,
                "radius": 336.0441864506195
            }
        },
        {
            "marker": {
                "id": "EMA",
                "latitude": 52.8311004639,
                "longitude": -1.3280600309,
                "city": "Nottingham",
                "country_code": "GB"
            },
            "circle": {
                "id": "1000281",
                "latitude": 56.3475,
                "longitude": -4.3885,
                "radius": 446.185012543354
            }
        },
        {
            "marker": {
                "id": "ZMG",
                "latitude": 52.0736122131,
                "longitude": 11.6263885498,
                "city": "Magdeburg",
                "country_code": "DE"
            },
            "circle": {
                "id": "1003415",
                "latitude": 56.0195,
                "longitude": 12.1975,
                "radius": 446.34270337626197
            }
        },
        {
            "marker": {
                "id": "LBA",
                "latitude": 53.8658981323,
                "longitude": -1.6605700254,
                "city": "Leeds",
                "country_code": "GB"
            },
            "circle": {
                "id": "10612",
                "latitude": 53.8585,
                "longitude": -9.2825,
                "radius": 505.226588910561
            }
        },
        {
            "marker": {
                "id": "XVN",
                "latitude": 49.1223983765,
                "longitude": 5.4690499306,
                "city": "Verdun/Le Rozelier",
                "country_code": "FR"
            },
            "circle": {
                "id": "54423",
                "latitude": 44.8285,
                "longitude": -0.6015,
                "radius": 666.1294731616874
            }
        },
        {
            "marker": {
                "id": "CFR",
                "latitude": 49.1733016968,
                "longitude": -0.4499999881,
                "city": "Caen/Carpiquet",
                "country_code": "FR"
            },
            "circle": {
                "id": "6501",
                "latitude": 50.7175,
                "longitude": -1.8925,
                "radius": 200.34391729212174
            }
        },
        {
            "marker": {
                "id": "DIJ",
                "latitude": 47.268901825,
                "longitude": 5.0900001526,
                "city": "Dijon/Longvic",
                "country_code": "FR"
            },
            "circle": {
                "id": "6689",
                "latitude": 47.4115,
                "longitude": 8.5415,
                "radius": 261.9666692486515
            }
        },
        {
            "marker": {
                "id": "ESH",
                "latitude": 50.8356018066,
                "longitude": -0.2972219884,
                "city": "Brighton",
                "country_code": "GB"
            },
            "circle": {
                "id": "53898",
                "latitude": 51.0815,
                "longitude": -4.0485,
                "radius": 264.27488380496527
            }
        },
        {
            "marker": {
                "id": "TBW",
                "latitude": 52.806098938,
                "longitude": 41.48279953,
                "city": "Tambov",
                "country_code": "RU"
            },
            "circle": {
                "id": "10972",
                "latitude": 48.3785,
                "longitude": 31.1705,
                "radius": 878.3146679080078
            }
        },
        {
            "marker": {
                "id": "DGP",
                "latitude": 55.9447212219,
                "longitude": 26.6650009155,
                "city": "Daugavpils",
                "country_code": "LV"
            },
            "circle": {
                "id": "33489",
                "latitude": 49.9615,
                "longitude": 22.0415,
                "radius": 734.1283610111902
            }
        },
        {
            "marker": {
                "id": "NIT",
                "latitude": 46.3112983704,
                "longitude": -0.4015029967,
                "city": "Niort/Souch\u00e9",
                "country_code": "FR"
            },
            "circle": {
                "id": "6667",
                "latitude": 38.7205,
                "longitude": -9.1395,
                "radius": 1105.9242595665423
            }
        },
        {
            "marker": {
                "id": "OZH",
                "latitude": 47.8670005798,
                "longitude": 35.315700531,
                "city": "Zaporizhia",
                "country_code": "UA"
            },
            "circle": {
                "id": "6664",
                "latitude": 32.0795,
                "longitude": 34.8605,
                "radius": 1758.5253732166366
            }
        },
        {
            "marker": {
                "id": "TBJ",
                "latitude": 36.9799995422,
                "longitude": 8.8769397736,
                "city": "Tabarka",
                "country_code": "TN"
            },
            "circle": {
                "id": "32925",
                "latitude": 30.4095,
                "longitude": -9.5615,
                "radius": 1862.1050539957546
            }
        },
        {
            "marker": {
                "id": "RKV",
                "latitude": 64.1299972534,
                "longitude": -21.9405994415,
                "city": "Reykjavik",
                "country_code": "IS"
            },
            "circle": {
                "id": "4842",
                "latitude": 78.2085,
                "longitude": 15.6195,
                "radius": 2002.2302973083897
            }
        },
        {
            "marker": {
                "id": "GLA",
                "latitude": 55.8718986511,
                "longitude": -4.4330601692,
                "city": "Glasgow",
                "country_code": "GB"
            },
            "circle": {
                "id": "11558",
                "latitude": 61.6315,
                "longitude": 7.2595,
                "radius": 928.7145018290213
            }
        },
        {
            "marker": {
                "id": "PLQ",
                "latitude": 55.9732017517,
                "longitude": 21.0939006805,
                "city": "Palanga",
                "country_code": "LT"
            },
            "circle": {
                "id": "34341",
                "latitude": 63.3675,
                "longitude": 10.3395,
                "radius": 1024.3999351819116
            }
        }
    ]
}