{
    "target": "198.97.190.53",
    "measurement_filepath": "datasets/measurements/campaigns/198.97.190.53_North-Central-section_20230425/198.97.190.53_North-Central-section_2_52652506.json",
    "probes_filepath": "datasets/probes_section/North-Central-section_2.json",
    "alpha": 0.0,
    "threshold": -1,
    "noise": 0,
    "num_anycast_instances": 18,
    "anycast_instances": [
        {
            "marker": {
                "id": "MZM",
                "latitude": 49.0717010498,
                "longitude": 6.1316699982,
                "city": "Metz/Frescaty",
                "country_code": "FR"
            },
            "circle": {
                "id": "7034",
                "latitude": 48.7095,
                "longitude": 8.7385,
                "radius": 198.01677833689675
            }
        },
        {
            "marker": {
                "id": "DSA",
                "latitude": 53.4805378105,
                "longitude": -1.0106563568,
                "city": "Doncaster",
                "country_code": "GB"
            },
            "circle": {
                "id": "24858",
                "latitude": 51.5915,
                "longitude": 0.5995,
                "radius": 242.60176279442774
            }
        },
        {
            "marker": {
                "id": "TXL",
                "latitude": 52.5597000122,
                "longitude": 13.2876996994,
                "city": "Berlin",
                "country_code": "DE"
            },
            "circle": {
                "id": "6545",
                "latitude": 55.5095,
                "longitude": 9.5095,
                "radius": 420.76714646588124
            }
        },
        {
            "marker": {
                "id": "XVS",
                "latitude": 50.3258018494,
                "longitude": 3.4612600803,
                "city": "Valenciennes/Denain",
                "country_code": "FR"
            },
            "circle": {
                "id": "2444",
                "latitude": 51.2495,
                "longitude": 6.4195,
                "radius": 231.93866970016924
            }
        },
        {
            "marker": {
                "id": "GRZ",
                "latitude": 46.9911003113,
                "longitude": 15.4395999908,
                "city": "Graz",
                "country_code": "AT"
            },
            "circle": {
                "id": "2970",
                "latitude": 49.4175,
                "longitude": 26.9905,
                "radius": 898.1975782555982
            }
        },
        {
            "marker": {
                "id": "PAD",
                "latitude": 51.6141014099,
                "longitude": 8.6163196564,
                "city": "Paderborn",
                "country_code": "DE"
            },
            "circle": {
                "id": "4217",
                "latitude": 49.9005,
                "longitude": 11.1075,
                "radius": 263.3377700553145
            }
        },
        {
            "marker": {
                "id": "LBC",
                "latitude": 53.8054008484,
                "longitude": 10.7192001343,
                "city": "L\u00fcbeck",
                "country_code": "DE"
            },
            "circle": {
                "id": "14746",
                "latitude": 59.3805,
                "longitude": 17.9795,
                "radius": 762.3151851788655
            }
        },
        {
            "marker": {
                "id": "DJE",
                "latitude": 33.875,
                "longitude": 10.7755002975,
                "city": "Djerba",
                "country_code": "TN"
            },
            "circle": {
                "id": "62255",
                "latitude": 37.9795,
                "longitude": -1.1105,
                "radius": 1176.664861866627
            }
        },
        {
            "marker": {
                "id": "RMS",
                "latitude": 49.4369010925,
                "longitude": 7.600279808,
                "city": "Ramstein",
                "country_code": "DE"
            },
            "circle": {
                "id": "6268",
                "latitude": 47.3915,
                "longitude": 8.5205,
                "radius": 240.05787389206873
            }
        },
        {
            "marker": {
                "id": "DCI",
                "latitude": 39.3541984558,
                "longitude": 8.9724798203,
                "city": "Decimomannu",
                "country_code": "IT"
            },
            "circle": {
                "id": "15082",
                "latitude": 37.3885,
                "longitude": -5.9785,
                "radius": 1320.670956022129
            }
        },
        {
            "marker": {
                "id": "RHE",
                "latitude": 49.3100013733,
                "longitude": 4.0500001907,
                "city": "Reims/Champagne",
                "country_code": "FR"
            },
            "circle": {
                "id": "1000316",
                "latitude": 44.9005,
                "longitude": -0.7225,
                "radius": 612.4966024254876
            }
        },
        {
            "marker": {
                "id": "LEH",
                "latitude": 49.5339012146,
                "longitude": 0.0880559981,
                "city": "Le Havre/Octeville",
                "country_code": "FR"
            },
            "circle": {
                "id": "12153",
                "latitude": 40.4385,
                "longitude": -3.8205,
                "radius": 1057.9302226469217
            }
        },
        {
            "marker": {
                "id": "PIK",
                "latitude": 55.5093994141,
                "longitude": -4.5866699219,
                "city": "Glasgow",
                "country_code": "GB"
            },
            "circle": {
                "id": "1000959",
                "latitude": 64.0715,
                "longitude": -22.0205,
                "radius": 1363.768445251179
            }
        },
        {
            "marker": {
                "id": "PLQ",
                "latitude": 55.9732017517,
                "longitude": 21.0939006805,
                "city": "Palanga",
                "country_code": "LT"
            },
            "circle": {
                "id": "34341",
                "latitude": 63.3675,
                "longitude": 10.3395,
                "radius": 1024.9335657571517
            }
        },
        {
            "marker": {
                "id": "TBJ",
                "latitude": 36.9799995422,
                "longitude": 8.8769397736,
                "city": "Tabarka",
                "country_code": "TN"
            },
            "circle": {
                "id": "32925",
                "latitude": 30.4095,
                "longitude": -9.5615,
                "radius": 1865.8575561925406
            }
        },
        {
            "marker": {
                "id": "SLY",
                "latitude": 66.5907974243,
                "longitude": 66.611000061,
                "city": "Salekhard",
                "country_code": "RU"
            },
            "circle": {
                "id": "4842",
                "latitude": 78.2085,
                "longitude": 15.6195,
                "radius": 2042.839021973295
            }
        },
        {
            "marker": {
                "id": "MXN",
                "latitude": 48.6031990051,
                "longitude": -3.8157799244,
                "city": "Morlaix/Ploujean",
                "country_code": "FR"
            },
            "circle": {
                "id": "1001271",
                "latitude": 32.6575,
                "longitude": -16.9195,
                "radius": 2092.823193651291
            }
        },
        {
            "marker": {
                "id": "BIX",
                "latitude": 47.4812134,
                "longitude": 19.1303031,
                "city": "Budapest",
                "country_code": "HU"
            },
            "circle": {
                "id": "61918",
                "latitude": 35.5615,
                "longitude": 45.4375,
                "radius": 2542.428350977681
            }
        }
    ]
}