{
    "target": "199.9.14.201",
    "probes_filepath": "datasets/probes_section/North-Central-section_1.5.json",
    "alpha": 1,
    "threshold": 20.0,
    "noise": 0,
    "results_filepath": "datasets/results/campaigns/199.9.14.201_North-Central-section_20230425_threshold_light-factor_0.25/199.9.14.201_North-Central-section_1.5_52640182_1_20.0_0.json",
    "gt_filepath": "datasets/ground-truth/root_servers/root_servers_B.json",
    "statistics": {
        "TP": 1,
        "FP": 6,
        "TN": 0,
        "FN": 0,
        "accuracy": 0.14285714285714285,
        "precision": 0.14285714285714285,
        "recall": 1.0,
        "f1": 0.25,
        "OT": 0,
        "OF": 0
    },
    "instances": [
        {
            "country_code": "BE",
            "city": "Brussels",
            "latitude": 50.4592018127,
            "longitude": 4.4538202286,
            "type": "FP"
        },
        {
            "country_code": "DE",
            "city": "Berlin",
            "latitude": 52.3800010681,
            "longitude": 13.5225000381,
            "type": "FP"
        },
        {
            "country_code": "FR",
            "city": "Paris",
            "latitude": 49.0127983093,
            "longitude": 2.5499999523,
            "type": "FP"
        },
        {
            "country_code": "GB",
            "city": "London",
            "latitude": 51.3307991028,
            "longitude": 0.0324999988,
            "type": "FP"
        },
        {
            "country_code": "IE",
            "city": "Dublin",
            "latitude": 53.4212989807,
            "longitude": -6.270070076,
            "type": "FP"
        },
        {
            "country_code": "NL",
            "city": "Amsterdam",
            "latitude": 52.3086013794,
            "longitude": 4.7638897896,
            "type": "TP"
        },
        {
            "country_code": "RU",
            "city": "St Petersburg",
            "latitude": 59.8003005981,
            "longitude": 30.2625007629,
            "type": "FP"
        }
    ]
}