{
    "target": "192.5.5.241",
    "measurement_filepath": "datasets/measurements/campaigns/192.5.5.241_North-Central_20230410/192.5.5.241_North-Central_500_52071302.json",
    "probes_filepath": "datasets/probes_sets/North-Central_500.json",
    "alpha": 0.9,
    "threshold": -1,
    "noise": 0,
    "num_anycast_instances": 39,
    "anycast_instances": [
        {
            "marker": {
                "id": "BBU",
                "latitude": 44.503200531,
                "longitude": 26.1021003723,
                "city": "Bucharest",
                "country_code": "RO"
            },
            "circle": {
                "id": "1004058",
                "latitude": 44.4115,
                "longitude": 26.0395,
                "radius": 16.468439136822404
            }
        },
        {
            "marker": {
                "id": "TLV",
                "latitude": 32.0113983154,
                "longitude": 34.8866996765,
                "city": "Tel Aviv",
                "country_code": "IL"
            },
            "circle": {
                "id": "1004045",
                "latitude": 32.0695,
                "longitude": 34.7695,
                "radius": 26.0092741541808
            }
        },
        {
            "marker": {
                "id": "BCN",
                "latitude": 41.2971000671,
                "longitude": 2.0784599781,
                "city": "Barcelona",
                "country_code": "ES"
            },
            "circle": {
                "id": "11749",
                "latitude": 41.3915,
                "longitude": 2.1095,
                "radius": 26.877233278582402
            }
        },
        {
            "marker": {
                "id": "LUX",
                "latitude": 49.6265983582,
                "longitude": 6.211520195,
                "city": "Luxembourg",
                "country_code": "LU"
            },
            "circle": {
                "id": "19307",
                "latitude": 49.5805,
                "longitude": 6.1075,
                "radius": 30.161399697480803
            }
        },
        {
            "marker": {
                "id": "KBP",
                "latitude": 50.3450012207,
                "longitude": 30.8946990967,
                "city": "Kiev",
                "country_code": "UA"
            },
            "circle": {
                "id": "29596",
                "latitude": 50.4005,
                "longitude": 30.5715,
                "radius": 30.6685885779252
            }
        },
        {
            "marker": {
                "id": "HEL",
                "latitude": 60.317199707,
                "longitude": 24.963300705,
                "city": "Helsinki",
                "country_code": "FI"
            },
            "circle": {
                "id": "6330",
                "latitude": 60.2075,
                "longitude": 24.8985,
                "radius": 37.4981605636232
            }
        },
        {
            "marker": {
                "id": "CKL",
                "latitude": 55.8782997131,
                "longitude": 38.0616989136,
                "city": "Moscow",
                "country_code": "RU"
            },
            "circle": {
                "id": "6733",
                "latitude": 55.7985,
                "longitude": 37.4785,
                "radius": 39.3152626100528
            }
        },
        {
            "marker": {
                "id": "VNO",
                "latitude": 54.6341018677,
                "longitude": 25.2858009338,
                "city": "Vilnius",
                "country_code": "LT"
            },
            "circle": {
                "id": "1002102",
                "latitude": 54.6385,
                "longitude": 25.3075,
                "radius": 43.234149621028806
            }
        },
        {
            "marker": {
                "id": "BUD",
                "latitude": 47.4369010925,
                "longitude": 19.2555999756,
                "city": "Budapest",
                "country_code": "HU"
            },
            "circle": {
                "id": "14899",
                "latitude": 47.5215,
                "longitude": 19.0615,
                "radius": 43.358263698640805
            }
        },
        {
            "marker": {
                "id": "SOF",
                "latitude": 42.6966934204,
                "longitude": 23.4114360809,
                "city": "Sofia",
                "country_code": "BG"
            },
            "circle": {
                "id": "1000559",
                "latitude": 42.6915,
                "longitude": 23.3395,
                "radius": 43.9004683381796
            }
        },
        {
            "marker": {
                "id": "XFW",
                "latitude": 53.5352783203,
                "longitude": 9.8355560303,
                "city": "Hamburg",
                "country_code": "DE"
            },
            "circle": {
                "id": "18673",
                "latitude": 53.6385,
                "longitude": 10.0305,
                "radius": 48.5387373313724
            }
        },
        {
            "marker": {
                "id": "PRG",
                "latitude": 50.1007995605,
                "longitude": 14.2600002289,
                "city": "Prague",
                "country_code": "CZ"
            },
            "circle": {
                "id": "19665",
                "latitude": 50.0395,
                "longitude": 14.5605,
                "radius": 51.82812013904
            }
        },
        {
            "marker": {
                "id": "LTN",
                "latitude": 51.8746986389,
                "longitude": -0.3683330119,
                "city": "London",
                "country_code": "GB"
            },
            "circle": {
                "id": "15634",
                "latitude": 51.5095,
                "longitude": -0.0015,
                "radius": 56.1318807075964
            }
        },
        {
            "marker": {
                "id": "BNX",
                "latitude": 50.4592018127,
                "longitude": 4.4538202286,
                "city": "Brussels",
                "country_code": "BE"
            },
            "circle": {
                "id": "14913",
                "latitude": 50.8785,
                "longitude": 4.4575,
                "radius": 56.371175047571995
            }
        },
        {
            "marker": {
                "id": "PAR",
                "latitude": 49.0127983093,
                "longitude": 2.5499999523,
                "city": "Paris",
                "country_code": "FR"
            },
            "circle": {
                "id": "6817",
                "latitude": 48.7905,
                "longitude": 2.4075,
                "radius": 56.371654715504796
            }
        },
        {
            "marker": {
                "id": "AMS-IX",
                "latitude": 52.3747158,
                "longitude": 4.8986167,
                "city": "Amsterdam",
                "country_code": "NL"
            },
            "circle": {
                "id": "13521",
                "latitude": 52.2775,
                "longitude": 4.7385,
                "radius": 57.838179461549196
            }
        },
        {
            "marker": {
                "id": "LED",
                "latitude": 59.8003005981,
                "longitude": 30.2625007629,
                "city": "St Petersburg",
                "country_code": "RU"
            },
            "circle": {
                "id": "17285",
                "latitude": 59.9295,
                "longitude": 30.4515,
                "radius": 61.96362347608721
            }
        },
        {
            "marker": {
                "id": "ARN",
                "latitude": 59.6519012451,
                "longitude": 17.9186000824,
                "city": "Stockholm",
                "country_code": "SE"
            },
            "circle": {
                "id": "1004763",
                "latitude": 59.2985,
                "longitude": 18.0805,
                "radius": 68.116443967096
            }
        },
        {
            "marker": {
                "id": "MUC",
                "latitude": 48.3538017273,
                "longitude": 11.7861003876,
                "city": "Munich",
                "country_code": "DE"
            },
            "circle": {
                "id": "50014",
                "latitude": 48.1395,
                "longitude": 11.5775,
                "radius": 71.77031444520001
            }
        },
        {
            "marker": {
                "id": "SXF",
                "latitude": 52.3800010681,
                "longitude": 13.5225000381,
                "city": "Berlin",
                "country_code": "DE"
            },
            "circle": {
                "id": "1000983",
                "latitude": 52.5285,
                "longitude": 13.3215,
                "radius": 76.66580536735681
            }
        },
        {
            "marker": {
                "id": "FRA",
                "latitude": 50.0264015198,
                "longitude": 8.543129921,
                "city": "Frankfurt-am-Main",
                "country_code": "DE"
            },
            "circle": {
                "id": "11616",
                "latitude": 50.1405,
                "longitude": 8.7375,
                "radius": 78.85974653349241
            }
        },
        {
            "marker": {
                "id": "GRNET",
                "latitude": 37.9908372,
                "longitude": 23.7383394,
                "city": "Athens",
                "country_code": "GR"
            },
            "circle": {
                "id": "22125",
                "latitude": 37.8695,
                "longitude": 23.8685,
                "radius": 84.75234717095721
            }
        },
        {
            "marker": {
                "id": "WIE",
                "latitude": 48.1102981567,
                "longitude": 16.5697002411,
                "city": "Vienna",
                "country_code": "AT"
            },
            "circle": {
                "id": "11226",
                "latitude": 48.2105,
                "longitude": 16.3685,
                "radius": 86.7883576702184
            }
        },
        {
            "marker": {
                "id": "EVN",
                "latitude": 40.1473007202,
                "longitude": 44.3959007263,
                "city": "Yerevan",
                "country_code": "AM"
            },
            "circle": {
                "id": "11623",
                "latitude": 40.1785,
                "longitude": 44.5185,
                "radius": 89.2924041549092
            }
        },
        {
            "marker": {
                "id": "BEG",
                "latitude": 44.8184013367,
                "longitude": 20.3090991974,
                "city": "Belgrade",
                "country_code": "RS"
            },
            "circle": {
                "id": "53530",
                "latitude": 44.8175,
                "longitude": 20.4485,
                "radius": 93.2329961398444
            }
        },
        {
            "marker": {
                "id": "GEN",
                "latitude": 46.2380981445,
                "longitude": 6.1089501381,
                "city": "Geneva",
                "country_code": "CH"
            },
            "circle": {
                "id": "50036",
                "latitude": 46.2005,
                "longitude": 6.1285,
                "radius": 94.7994117328944
            }
        },
        {
            "marker": {
                "id": "NIX",
                "latitude": 60.193901062,
                "longitude": 11.100399971,
                "city": "Oslo",
                "country_code": "NO"
            },
            "circle": {
                "id": "1001345",
                "latitude": 59.9395,
                "longitude": 10.7095,
                "radius": 101.68528474220481
            }
        },
        {
            "marker": {
                "id": "ZAG",
                "latitude": 45.7429008484,
                "longitude": 16.0687999725,
                "city": "Zagreb",
                "country_code": "HR"
            },
            "circle": {
                "id": "13593",
                "latitude": 46.3085,
                "longitude": 16.3415,
                "radius": 109.1246945459664
            }
        },
        {
            "marker": {
                "id": "RKE",
                "latitude": 55.5856018066,
                "longitude": 12.1314001083,
                "city": "Copenhagen",
                "country_code": "DK"
            },
            "circle": {
                "id": "62426",
                "latitude": 55.6705,
                "longitude": 12.5685,
                "radius": 110.45589297646961
            }
        },
        {
            "marker": {
                "id": "STR",
                "latitude": 48.6898994446,
                "longitude": 9.2219600677,
                "city": "Stuttgart",
                "country_code": "DE"
            },
            "circle": {
                "id": "19834",
                "latitude": 48.7795,
                "longitude": 9.1785,
                "radius": 115.3297388831588
            }
        },
        {
            "marker": {
                "id": "CGN",
                "latitude": 50.8658981323,
                "longitude": 7.1427397728,
                "city": "Cologne",
                "country_code": "DE"
            },
            "circle": {
                "id": "28907",
                "latitude": 50.7805,
                "longitude": 7.0875,
                "radius": 117.52733751728199
            }
        },
        {
            "marker": {
                "id": "TOJ",
                "latitude": 40.4967002869,
                "longitude": -3.4458699226,
                "city": "Madrid",
                "country_code": "ES"
            },
            "circle": {
                "id": "12153",
                "latitude": 40.4385,
                "longitude": -3.8205,
                "radius": 122.48560498014402
            }
        },
        {
            "marker": {
                "id": "MRS",
                "latitude": 43.439271922,
                "longitude": 5.2214241028,
                "city": "Marseille",
                "country_code": "FR"
            },
            "circle": {
                "id": "54733",
                "latitude": 43.2985,
                "longitude": 5.3685,
                "radius": 129.59530303859722
            }
        },
        {
            "marker": {
                "id": "MXP",
                "latitude": 45.6305999756,
                "longitude": 8.7281103134,
                "city": "Milan",
                "country_code": "IT"
            },
            "circle": {
                "id": "1003980",
                "latitude": 45.4575,
                "longitude": 9.1815,
                "radius": 131.2020107380024
            }
        },
        {
            "marker": {
                "id": "KEF",
                "latitude": 63.9850006104,
                "longitude": -22.6056003571,
                "city": "Reykjav\u00edk",
                "country_code": "IS"
            },
            "circle": {
                "id": "33893",
                "latitude": 64.1485,
                "longitude": -21.9385,
                "radius": 133.64232134612243
            }
        },
        {
            "marker": {
                "id": "LIS",
                "latitude": 38.7812995911,
                "longitude": -9.1359195709,
                "city": "Lisbon",
                "country_code": "PT"
            },
            "circle": {
                "id": "61083",
                "latitude": 38.7985,
                "longitude": -9.1885,
                "radius": 157.9982400944332
            }
        },
        {
            "marker": {
                "id": "OSB",
                "latitude": 36.3058013916,
                "longitude": 43.1473999023,
                "city": "Mosul",
                "country_code": "IQ"
            },
            "circle": {
                "id": "60131",
                "latitude": 36.8575,
                "longitude": 42.9885,
                "radius": 175.3355377330312
            }
        },
        {
            "marker": {
                "id": "FCO",
                "latitude": 41.8045005798,
                "longitude": 12.2508001328,
                "city": "Rome",
                "country_code": "IT"
            },
            "circle": {
                "id": "11803",
                "latitude": 40.5885,
                "longitude": 14.9775,
                "radius": 301.8075429856928
            }
        },
        {
            "marker": {
                "id": "DUB",
                "latitude": 53.4212989807,
                "longitude": -6.270070076,
                "city": "Dublin",
                "country_code": "IE"
            },
            "circle": {
                "id": "52401",
                "latitude": 53.3475,
                "longitude": -6.2625,
                "radius": 342.8576445917
            }
        }
    ]
}