{
    "target": "192.36.148.17",
    "measurement_filepath": "datasets/measurements/campaigns/192.36.148.17_North-Central_20230410/192.36.148.17_North-Central_100_52072179.json",
    "probes_filepath": "datasets/probes_sets/North-Central_100.json",
    "alpha": 0.1,
    "threshold": -1,
    "noise": 0,
    "num_anycast_instances": 19,
    "anycast_instances": [
        {
            "marker": {
                "id": "LINX",
                "latitude": 51.5286416,
                "longitude": -0.1015987,
                "city": "London",
                "country_code": "GB"
            },
            "circle": {
                "id": "15634",
                "latitude": 51.5095,
                "longitude": -0.0015,
                "radius": 13.09481764638138
            }
        },
        {
            "marker": {
                "id": "QEF",
                "latitude": 49.9599990845,
                "longitude": 8.6458330154,
                "city": "Egelsbach",
                "country_code": "DE"
            },
            "circle": {
                "id": "1004810",
                "latitude": 50.0975,
                "longitude": 8.6275,
                "radius": 22.3417481296149
            }
        },
        {
            "marker": {
                "id": "HEL",
                "latitude": 60.317199707,
                "longitude": 24.963300705,
                "city": "Helsinki",
                "country_code": "FI"
            },
            "circle": {
                "id": "28294",
                "latitude": 60.1595,
                "longitude": 24.9315,
                "radius": 29.60989549589484
            }
        },
        {
            "marker": {
                "id": "ARN",
                "latitude": 59.6519012451,
                "longitude": 17.9186000824,
                "city": "Stockholm",
                "country_code": "SE"
            },
            "circle": {
                "id": "60336",
                "latitude": 59.3405,
                "longitude": 18.0885,
                "radius": 49.18894520183028
            }
        },
        {
            "marker": {
                "id": "LIN",
                "latitude": 45.445098877,
                "longitude": 9.2767400742,
                "city": "Milan",
                "country_code": "IT"
            },
            "circle": {
                "id": "51769",
                "latitude": 45.6015,
                "longitude": 9.8905,
                "radius": 65.88050787344376
            }
        },
        {
            "marker": {
                "id": "AGH",
                "latitude": 56.2961006165,
                "longitude": 12.8471002579,
                "city": "\u00c4ngelholm",
                "country_code": "SE"
            },
            "circle": {
                "id": "62426",
                "latitude": 55.6705,
                "longitude": 12.5685,
                "radius": 77.70075488671355
            }
        },
        {
            "marker": {
                "id": "RIX",
                "latitude": 56.9235992432,
                "longitude": 23.9710998535,
                "city": "Riga",
                "country_code": "LV"
            },
            "circle": {
                "id": "53256",
                "latitude": 56.6505,
                "longitude": 23.7195,
                "radius": 81.40377933623124
            }
        },
        {
            "marker": {
                "id": "DHR",
                "latitude": 52.9234008789,
                "longitude": 4.7806200981,
                "city": "Den Helder",
                "country_code": "NL"
            },
            "circle": {
                "id": "61935",
                "latitude": 52.0495,
                "longitude": 5.2385,
                "radius": 104.58472749975179
            }
        },
        {
            "marker": {
                "id": "BEG",
                "latitude": 44.8184013367,
                "longitude": 20.3090991974,
                "city": "Belgrade",
                "country_code": "RS"
            },
            "circle": {
                "id": "60065",
                "latitude": 44.7595,
                "longitude": 20.4905,
                "radius": 105.15451904127576
            }
        },
        {
            "marker": {
                "id": "GLZ",
                "latitude": 51.567401886,
                "longitude": 4.9318299294,
                "city": "Breda",
                "country_code": "NL"
            },
            "circle": {
                "id": "52709",
                "latitude": 51.0315,
                "longitude": 3.6775,
                "radius": 106.69650154899875
            }
        },
        {
            "marker": {
                "id": "GRZ",
                "latitude": 46.9911003113,
                "longitude": 15.4395999908,
                "city": "Graz",
                "country_code": "AT"
            },
            "circle": {
                "id": "26894",
                "latitude": 48.3095,
                "longitude": 16.3215,
                "radius": 170.40949196355504
            }
        },
        {
            "marker": {
                "id": "QLP",
                "latitude": 44.0880012512,
                "longitude": 9.987950325,
                "city": "Sarzana",
                "country_code": "IT"
            },
            "circle": {
                "id": "23054",
                "latitude": 43.4595,
                "longitude": 11.8395,
                "radius": 184.73236444526472
            }
        },
        {
            "marker": {
                "id": "TXL",
                "latitude": 52.5597000122,
                "longitude": 13.2876996994,
                "city": "Berlin",
                "country_code": "DE"
            },
            "circle": {
                "id": "52328",
                "latitude": 53.6615,
                "longitude": 10.5785,
                "radius": 228.81960048685374
            }
        },
        {
            "marker": {
                "id": "KTW",
                "latitude": 50.4743003845,
                "longitude": 19.0799999237,
                "city": "Katowice",
                "country_code": "PL"
            },
            "circle": {
                "id": "19753",
                "latitude": 49.2185,
                "longitude": 16.5895,
                "radius": 233.41657007103245
            }
        },
        {
            "marker": {
                "id": "URO",
                "latitude": 49.3842010498,
                "longitude": 1.1748000383,
                "city": "Rouen/Vall\u00e9e de Seine",
                "country_code": "FR"
            },
            "circle": {
                "id": "55718",
                "latitude": 48.0715,
                "longitude": -0.7625,
                "radius": 234.3901101032925
            }
        },
        {
            "marker": {
                "id": "MJF",
                "latitude": 65.783996582,
                "longitude": 13.2149000168,
                "city": "Mosjoen",
                "country_code": "NO"
            },
            "circle": {
                "id": "60917",
                "latitude": 63.4205,
                "longitude": 10.8075,
                "radius": 301.0130360114258
            }
        },
        {
            "marker": {
                "id": "BHX",
                "latitude": 52.4538993835,
                "longitude": -1.7480299473,
                "city": "Birmingham",
                "country_code": "GB"
            },
            "circle": {
                "id": "62525",
                "latitude": 53.6095,
                "longitude": -6.2115,
                "radius": 376.64667093551145
            }
        },
        {
            "marker": {
                "id": "LPK",
                "latitude": 52.7028007507,
                "longitude": 39.5377998352,
                "city": "Lipetsk",
                "country_code": "RU"
            },
            "circle": {
                "id": "53978",
                "latitude": 55.9615,
                "longitude": 38.0405,
                "radius": 384.9874607268925
            }
        },
        {
            "marker": {
                "id": "CMN",
                "latitude": 33.3675003052,
                "longitude": -7.5899701118,
                "city": "Casablanca",
                "country_code": "MA"
            },
            "circle": {
                "id": "1003888",
                "latitude": 40.4215,
                "longitude": -3.6985,
                "radius": 881.5887418138076
            }
        }
    ]
}