{
    "target": "192.33.4.12",
    "probes_filepath": "datasets/probes_section/North-Central-section_1.5.json",
    "alpha": 0.6,
    "threshold": -1,
    "noise": 0,
    "results_filepath": "datasets/results/campaigns/192.33.4.12_North-Central-section_20230425_alpha_light-factor_0.30/192.33.4.12_North-Central-section_1.5_52641500_0.6_-1_0.json",
    "gt_filepath": "datasets/ground-truth/root_servers/root_servers_C.json",
    "statistics": {
        "TP": 4,
        "FP": 10,
        "TN": 0,
        "FN": 0,
        "accuracy": 0.2857142857142857,
        "precision": 0.2857142857142857,
        "recall": 1.0,
        "f1": 0.4444444444444445,
        "OT": 0,
        "OF": 0
    },
    "instances": [
        {
            "country_code": "AT",
            "city": "Vienna",
            "latitude": 48.1102981567,
            "longitude": 16.5697002411,
            "type": "TP"
        },
        {
            "country_code": "DE",
            "city": "Berlin",
            "latitude": 52.3800010681,
            "longitude": 13.5225000381,
            "type": "FP"
        },
        {
            "country_code": "DE",
            "city": "Frankfurt-am-Main",
            "latitude": 50.121212,
            "longitude": 8.6365638,
            "type": "TP"
        },
        {
            "country_code": "DZ",
            "city": "Algiers",
            "latitude": 36.6910018921,
            "longitude": 3.2154099941,
            "type": "FP"
        },
        {
            "country_code": "ES",
            "city": "Madrid",
            "latitude": 40.4967002869,
            "longitude": -3.4458699226,
            "type": "TP"
        },
        {
            "country_code": "ES",
            "city": "Madrid",
            "latitude": 40.3707008362,
            "longitude": -3.7851400375,
            "type": "FP"
        },
        {
            "country_code": "FR",
            "city": "Paris",
            "latitude": 49.0127983093,
            "longitude": 2.5499999523,
            "type": "TP"
        },
        {
            "country_code": "FR",
            "city": "Paris",
            "latitude": 48.7252998352,
            "longitude": 2.3594400883,
            "type": "FP"
        },
        {
            "country_code": "GB",
            "city": "London",
            "latitude": 51.1481018066,
            "longitude": -0.1902779937,
            "type": "FP"
        },
        {
            "country_code": "IT",
            "city": "Rome",
            "latitude": 41.799444,
            "longitude": 12.597222,
            "type": "FP"
        },
        {
            "country_code": "RU",
            "city": "Moscow",
            "latitude": 55.4087982178,
            "longitude": 37.9062995911,
            "type": "FP"
        },
        {
            "country_code": "RU",
            "city": "St Petersburg",
            "latitude": 59.8003005981,
            "longitude": 30.2625007629,
            "type": "FP"
        },
        {
            "country_code": "TR",
            "city": "Istanbul",
            "latitude": 40.898601532,
            "longitude": 29.3092002869,
            "type": "FP"
        },
        {
            "country_code": "UA",
            "city": "Kiev",
            "latitude": 50.3450012207,
            "longitude": 30.8946990967,
            "type": "FP"
        }
    ]
}