{
    "target": "198.41.0.4",
    "measurement_filepath": "datasets/measurements/campaigns/198.41.0.4_North-Central-section_20230425/198.41.0.4_North-Central-section_1.5_52638904.json",
    "probes_filepath": "datasets/probes_section/North-Central-section_1.5.json",
    "alpha": 0.8,
    "threshold": -1,
    "noise": 0,
    "num_anycast_instances": 15,
    "anycast_instances": [
        {
            "marker": {
                "id": "LPI",
                "latitude": 58.4062004089,
                "longitude": 15.6805000305,
                "city": "Link\u00f6ping",
                "country_code": "SE"
            },
            "circle": {
                "id": "32268",
                "latitude": 59.2715,
                "longitude": 15.2105,
                "radius": 118.18230908989749
            }
        },
        {
            "marker": {
                "id": "BRU",
                "latitude": 50.9014015198,
                "longitude": 4.4844398499,
                "city": "Brussels",
                "country_code": "BE"
            },
            "circle": {
                "id": "6816",
                "latitude": 51.2705,
                "longitude": 6.8175,
                "radius": 170.49545595192427
            }
        },
        {
            "marker": {
                "id": "LGW",
                "latitude": 51.1481018066,
                "longitude": -0.1902779937,
                "city": "London",
                "country_code": "GB"
            },
            "circle": {
                "id": "16012",
                "latitude": 52.1685,
                "longitude": 0.9275,
                "radius": 230.157415336905
            }
        },
        {
            "marker": {
                "id": "HEL",
                "latitude": 60.317199707,
                "longitude": 24.963300705,
                "city": "Helsinki",
                "country_code": "FI"
            },
            "circle": {
                "id": "35667",
                "latitude": 59.4305,
                "longitude": 24.7305,
                "radius": 255.346427346752
            }
        },
        {
            "marker": {
                "id": "BMA",
                "latitude": 59.3544006348,
                "longitude": 17.9416999817,
                "city": "Stockholm",
                "country_code": "SE"
            },
            "circle": {
                "id": "110",
                "latitude": 60.1475,
                "longitude": 19.9475,
                "radius": 213.9511596942265
            }
        },
        {
            "marker": {
                "id": "TIA",
                "latitude": 41.4146995544,
                "longitude": 19.7206001282,
                "city": "Tirana",
                "country_code": "AL"
            },
            "circle": {
                "id": "6621",
                "latitude": 40.9475,
                "longitude": 17.2785,
                "radius": 281.3002848650715
            }
        },
        {
            "marker": {
                "id": "XFW",
                "latitude": 53.5352783203,
                "longitude": 9.8355560303,
                "city": "Hamburg",
                "country_code": "DE"
            },
            "circle": {
                "id": "14087",
                "latitude": 55.7105,
                "longitude": 12.5715,
                "radius": 326.1368326689218
            }
        },
        {
            "marker": {
                "id": "TXL",
                "latitude": 52.5597000122,
                "longitude": 13.2876996994,
                "city": "Berlin",
                "country_code": "DE"
            },
            "circle": {
                "id": "6809",
                "latitude": 49.2015,
                "longitude": 16.6175,
                "radius": 571.157845651295
            }
        },
        {
            "marker": {
                "id": "ECV",
                "latitude": 40.3707008362,
                "longitude": -3.7851400375,
                "city": "Madrid",
                "country_code": "ES"
            },
            "circle": {
                "id": "1005455",
                "latitude": 43.4095,
                "longitude": 0.1195,
                "radius": 709.2307472705193
            }
        },
        {
            "marker": {
                "id": "MUC",
                "latitude": 48.3538017273,
                "longitude": 11.7861003876,
                "city": "Munich",
                "country_code": "DE"
            },
            "circle": {
                "id": "10928",
                "latitude": 47.4215,
                "longitude": 8.5985,
                "radius": 478.3642103482725
            }
        },
        {
            "marker": {
                "id": "ROM",
                "latitude": 41.799444,
                "longitude": 12.597222,
                "city": "Rome",
                "country_code": "IT"
            },
            "circle": {
                "id": "567",
                "latitude": 36.8205,
                "longitude": 10.1805,
                "radius": 639.291977373413
            }
        },
        {
            "marker": {
                "id": "SVO",
                "latitude": 55.9725990295,
                "longitude": 37.4146003723,
                "city": "Moscow",
                "country_code": "RU"
            },
            "circle": {
                "id": "2287",
                "latitude": 54.6105,
                "longitude": 39.8215,
                "radius": 881.3612338143183
            }
        },
        {
            "marker": {
                "id": "WAW",
                "latitude": 52.1656990051,
                "longitude": 20.9671001434,
                "city": "Warsaw",
                "country_code": "PL"
            },
            "circle": {
                "id": "1002188",
                "latitude": 54.6415,
                "longitude": 25.3115,
                "radius": 525.2044210451658
            }
        },
        {
            "marker": {
                "id": "IST",
                "latitude": 40.9768981934,
                "longitude": 28.8145999908,
                "city": "Istanbul",
                "country_code": "TR"
            },
            "circle": {
                "id": "60548",
                "latitude": 33.8915,
                "longitude": 35.4995,
                "radius": 1441.0003786962227
            }
        },
        {
            "marker": {
                "id": "DUB",
                "latitude": 53.4212989807,
                "longitude": -6.270070076,
                "city": "Dublin",
                "country_code": "IE"
            },
            "circle": {
                "id": "6740",
                "latitude": 64.1475,
                "longitude": -21.9105,
                "radius": 1553.8956229449466
            }
        }
    ]
}