{
    "target": "199.9.14.201",
    "probes_filepath": "datasets/probes_sets/North-Central_1000.json",
    "alpha": 0.1,
    "threshold": -1,
    "noise": 0,
    "results_filepath": "datasets/results/campaigns/199.9.14.201_North-Central_20230410_alpha_light-factor_0.18/199.9.14.201_North-Central_1000_52069631_0.1_-1_0.json",
    "gt_filepath": "datasets/ground-truth/root_servers/root_servers_B.json",
    "statistics": {
        "TP": 1,
        "FP": 15,
        "TN": 0,
        "FN": 0,
        "accuracy": 0.0625,
        "precision": 0.0625,
        "recall": 1.0,
        "f1": 0.11764705882352941,
        "OT": 0,
        "OF": 2
    },
    "instances": [
        {
            "country_code": "CH",
            "city": "Bern",
            "latitude": 46.914100647,
            "longitude": 7.4971499443,
            "type": "FP"
        },
        {
            "country_code": "DE",
            "city": "Berlin",
            "latitude": 52.5597000122,
            "longitude": 13.2876996994,
            "type": "FP"
        },
        {
            "country_code": "DE",
            "city": "Mainz",
            "latitude": 49.9674987793,
            "longitude": 8.1472215652,
            "type": "FP"
        },
        {
            "country_code": "DK",
            "city": "Vojens",
            "latitude": 55.2256011963,
            "longitude": 9.2639303207,
            "type": "FP"
        },
        {
            "country_code": "DZ",
            "city": "Algiers",
            "latitude": 36.6910018921,
            "longitude": 3.2154099941,
            "type": "OF"
        },
        {
            "country_code": "ES",
            "city": "Madrid",
            "latitude": 40.4936,
            "longitude": -3.56676,
            "type": "FP"
        },
        {
            "country_code": "FR",
            "city": "Lille/Lesquin",
            "latitude": 50.5619010925,
            "longitude": 3.0894401073,
            "type": "FP"
        },
        {
            "country_code": "FR",
            "city": "Paris",
            "latitude": 48.7252998352,
            "longitude": 2.3594400883,
            "type": "FP"
        },
        {
            "country_code": "GB",
            "city": "Norwich",
            "latitude": 52.6758003235,
            "longitude": 1.2827800512,
            "type": "FP"
        },
        {
            "country_code": "GB",
            "city": "Nottingham",
            "latitude": 52.9199981689,
            "longitude": -1.0791699886,
            "type": "FP"
        },
        {
            "country_code": "IS",
            "city": "Egilssta\u00f0ir",
            "latitude": 65.2833023071,
            "longitude": -14.4013996124,
            "type": "FP"
        },
        {
            "country_code": "NL",
            "city": "Amsterdam",
            "latitude": 52.3747158,
            "longitude": 4.8986167,
            "type": "TP"
        },
        {
            "country_code": "NL",
            "city": "Enschede",
            "latitude": 52.2700004578,
            "longitude": 6.8741698265,
            "type": "FP"
        },
        {
            "country_code": "NL",
            "city": "Uden",
            "latitude": 51.6563987732,
            "longitude": 5.7086100578,
            "type": "FP"
        },
        {
            "country_code": "RS",
            "city": "Belgrade",
            "latitude": 44.8184013367,
            "longitude": 20.3090991974,
            "type": "FP"
        },
        {
            "country_code": "RU",
            "city": "Moscow",
            "latitude": 55.8782997131,
            "longitude": 38.0616989136,
            "type": "FP"
        },
        {
            "country_code": "SE",
            "city": "Stockholm",
            "latitude": 59.3544006348,
            "longitude": 17.9416999817,
            "type": "FP"
        },
        {
            "country_code": "TR",
            "city": "Istanbul",
            "latitude": 40.9768981934,
            "longitude": 28.8145999908,
            "type": "OF"
        }
    ]
}