{
    "target": "199.9.14.201",
    "probes_filepath": "datasets/probes_sets/North-Central_300.json",
    "alpha": 0.2,
    "threshold": -1,
    "noise": 0,
    "results_filepath": "datasets/results/campaigns/199.9.14.201_North-Central_20230410_alpha_light-factor_0.18/199.9.14.201_North-Central_300_52069565_0.2_-1_0.json",
    "gt_filepath": "datasets/ground-truth/root_servers/root_servers_B.json",
    "statistics": {
        "TP": 1,
        "FP": 13,
        "TN": 0,
        "FN": 0,
        "accuracy": 0.07142857142857142,
        "precision": 0.07142857142857142,
        "recall": 1.0,
        "f1": 0.13333333333333333,
        "OT": 0,
        "OF": 2
    },
    "instances": [
        {
            "country_code": "BE",
            "city": "Ostend",
            "latitude": 51.1988983154,
            "longitude": 2.8622200489,
            "type": "FP"
        },
        {
            "country_code": "DE",
            "city": "Berlin",
            "latitude": 52.3800010681,
            "longitude": 13.5225000381,
            "type": "FP"
        },
        {
            "country_code": "DE",
            "city": "D\u00fcsseldorf",
            "latitude": 51.2895011902,
            "longitude": 6.7667798996,
            "type": "FP"
        },
        {
            "country_code": "DE",
            "city": "Hamburg",
            "latitude": 53.5352783203,
            "longitude": 9.8355560303,
            "type": "FP"
        },
        {
            "country_code": "DE",
            "city": "Stuttgart",
            "latitude": 48.6898994446,
            "longitude": 9.2219600677,
            "type": "FP"
        },
        {
            "country_code": "DK",
            "city": "Copenhagen",
            "latitude": 55.6179008484,
            "longitude": 12.6560001373,
            "type": "FP"
        },
        {
            "country_code": "ES",
            "city": "Barcelona",
            "latitude": 41.2971000671,
            "longitude": 2.0784599781,
            "type": "FP"
        },
        {
            "country_code": "FR",
            "city": "Paris",
            "latitude": 49.0127983093,
            "longitude": 2.5499999523,
            "type": "FP"
        },
        {
            "country_code": "GB",
            "city": "Coventry",
            "latitude": 52.3697013855,
            "longitude": -1.4797199965,
            "type": "FP"
        },
        {
            "country_code": "GB",
            "city": "London",
            "latitude": 51.1481018066,
            "longitude": -0.1902779937,
            "type": "FP"
        },
        {
            "country_code": "IS",
            "city": "Egilssta\u00f0ir",
            "latitude": 65.2833023071,
            "longitude": -14.4013996124,
            "type": "FP"
        },
        {
            "country_code": "MA",
            "city": "Casablanca",
            "latitude": 33.3675003052,
            "longitude": -7.5899701118,
            "type": "OF"
        },
        {
            "country_code": "NL",
            "city": "Amsterdam",
            "latitude": 52.3747158,
            "longitude": 4.8986167,
            "type": "TP"
        },
        {
            "country_code": "RU",
            "city": "Moscow",
            "latitude": 55.8782997131,
            "longitude": 38.0616989136,
            "type": "FP"
        },
        {
            "country_code": "RU",
            "city": "St Petersburg",
            "latitude": 59.8003005981,
            "longitude": 30.2625007629,
            "type": "FP"
        },
        {
            "country_code": "TR",
            "city": "Istanbul",
            "latitude": 40.9768981934,
            "longitude": 28.8145999908,
            "type": "OF"
        }
    ]
}