{
    "target": "199.9.14.201",
    "probes_filepath": "datasets/probes_sets/North-Central_300.json",
    "alpha": 0.0,
    "threshold": -1,
    "noise": 0,
    "results_filepath": "datasets/results/campaigns/199.9.14.201_North-Central_20230410_alpha_light-factor_0.18/199.9.14.201_North-Central_300_52069565_0.0_-1_0.json",
    "gt_filepath": "datasets/ground-truth/root_servers/root_servers_B.json",
    "statistics": {
        "TP": 1,
        "FP": 13,
        "TN": 0,
        "FN": 0,
        "accuracy": 0.07142857142857142,
        "precision": 0.07142857142857142,
        "recall": 1.0,
        "f1": 0.13333333333333333,
        "OT": 0,
        "OF": 1
    },
    "instances": [
        {
            "country_code": "BA",
            "city": "Mostar",
            "latitude": 43.2829017639,
            "longitude": 17.8458995819,
            "type": "FP"
        },
        {
            "country_code": "DE",
            "city": "Eisenach",
            "latitude": 50.9927787781,
            "longitude": 10.4727783203,
            "type": "FP"
        },
        {
            "country_code": "DE",
            "city": "M\u00f6nchengladbach",
            "latitude": 51.2302780151,
            "longitude": 6.5044441223,
            "type": "FP"
        },
        {
            "country_code": "ES",
            "city": "Le\u00f3n",
            "latitude": 42.5890007019,
            "longitude": -5.6555600166,
            "type": "FP"
        },
        {
            "country_code": "FR",
            "city": "Charleville-M\u00e9zi\u00e8res",
            "latitude": 49.7839012146,
            "longitude": 4.6470799446,
            "type": "FP"
        },
        {
            "country_code": "FR",
            "city": "Lyon",
            "latitude": 45.726398468,
            "longitude": 5.0908298492,
            "type": "FP"
        },
        {
            "country_code": "GB",
            "city": "Coventry",
            "latitude": 52.3697013855,
            "longitude": -1.4797199965,
            "type": "FP"
        },
        {
            "country_code": "IS",
            "city": "Egilssta\u00f0ir",
            "latitude": 65.2833023071,
            "longitude": -14.4013996124,
            "type": "FP"
        },
        {
            "country_code": "LT",
            "city": "Palanga",
            "latitude": 55.9732017517,
            "longitude": 21.0939006805,
            "type": "FP"
        },
        {
            "country_code": "LV",
            "city": "Ventspils",
            "latitude": 57.35779953,
            "longitude": 21.5442008972,
            "type": "FP"
        },
        {
            "country_code": "NL",
            "city": "Amsterdam",
            "latitude": 52.3747158,
            "longitude": 4.8986167,
            "type": "TP"
        },
        {
            "country_code": "SE",
            "city": "Sk\u00f6vde",
            "latitude": 58.456401825,
            "longitude": 13.972700119,
            "type": "FP"
        },
        {
            "country_code": "SE",
            "city": "Stockholm",
            "latitude": 59.6519012451,
            "longitude": 17.9186000824,
            "type": "FP"
        },
        {
            "country_code": "SK",
            "city": "\u017dilina",
            "latitude": 49.2314987183,
            "longitude": 18.6135005951,
            "type": "FP"
        },
        {
            "country_code": "UA",
            "city": "Kiev",
            "latitude": 50.4016990662,
            "longitude": 30.4496994019,
            "type": "OF"
        }
    ]
}