{
    "target": "192.36.148.17",
    "probes_filepath": "datasets/probes_section/North-Central-section_2.json",
    "alpha": 0.8,
    "threshold": -1,
    "noise": 0,
    "results_filepath": "datasets/results/campaigns/192.36.148.17_North-Central-section_20230425_alpha_light-factor_0.18/192.36.148.17_North-Central-section_2_52653539_0.8_-1_0.json",
    "gt_filepath": "datasets/ground-truth/root_servers/root_servers_I.json",
    "statistics": {
        "TP": 12,
        "FP": 32,
        "TN": 0,
        "FN": 14,
        "accuracy": 0.20689655172413793,
        "precision": 0.2727272727272727,
        "recall": 0.46153846153846156,
        "f1": 0.3428571428571428,
        "OT": 0,
        "OF": 0
    },
    "instances": [
        {
            "country_code": "AM",
            "city": "Yerevan",
            "latitude": 40.177822,
            "longitude": 44.521246,
            "type": "FN"
        },
        {
            "country_code": "BE",
            "city": "Brussels",
            "latitude": 50.847339,
            "longitude": 4.356602,
            "type": "FN"
        },
        {
            "country_code": "BE",
            "city": "Ostend",
            "latitude": 51.1988983154,
            "longitude": 2.8622200489,
            "type": "FP"
        },
        {
            "country_code": "BG",
            "city": "Sofia",
            "latitude": 42.6966934204,
            "longitude": 23.4114360809,
            "type": "TP"
        },
        {
            "country_code": "BG",
            "city": "Varna",
            "latitude": 43.2321014404,
            "longitude": 27.8250999451,
            "type": "FP"
        },
        {
            "country_code": "BY",
            "city": "Minsk",
            "latitude": 53.8824996948,
            "longitude": 28.0307006836,
            "type": "FP"
        },
        {
            "country_code": "CZ",
            "city": "Prague",
            "latitude": 50.1007995605,
            "longitude": 14.2600002289,
            "type": "FP"
        },
        {
            "country_code": "DE",
            "city": "Berlin",
            "latitude": 52.514029,
            "longitude": 13.41072,
            "type": "FN"
        },
        {
            "country_code": "DE",
            "city": "Dortmund",
            "latitude": 51.5182991028,
            "longitude": 7.6122398377,
            "type": "FP"
        },
        {
            "country_code": "DE",
            "city": "Frankfurt",
            "latitude": 50.119606,
            "longitude": 8.685439,
            "type": "FN"
        },
        {
            "country_code": "DK",
            "city": "Copenhagen",
            "latitude": 55.5856018066,
            "longitude": 12.1314001083,
            "type": "TP"
        },
        {
            "country_code": "EE",
            "city": "P\u00e4rnu",
            "latitude": 58.4189987183,
            "longitude": 24.4727993011,
            "type": "FP"
        },
        {
            "country_code": "EE",
            "city": "Tallinn",
            "latitude": 59.4132995605,
            "longitude": 24.8327999115,
            "type": "TP"
        },
        {
            "country_code": "EG",
            "city": "El Cairo",
            "latitude": 30.116399765,
            "longitude": 30.9153995514,
            "type": "FP"
        },
        {
            "country_code": "FI",
            "city": "Helsinki",
            "latitude": 60.317199707,
            "longitude": 24.963300705,
            "type": "TP"
        },
        {
            "country_code": "FI",
            "city": "Kajaani",
            "latitude": 64.2854995728,
            "longitude": 27.6923999786,
            "type": "FP"
        },
        {
            "country_code": "FI",
            "city": "Lappeenranta",
            "latitude": 61.0446014404,
            "longitude": 28.1443996429,
            "type": "FP"
        },
        {
            "country_code": "FI",
            "city": "Mikkeli",
            "latitude": 61.6865997314,
            "longitude": 27.2017993927,
            "type": "FP"
        },
        {
            "country_code": "FI",
            "city": "Pori",
            "latitude": 61.4617004395,
            "longitude": 21.7999992371,
            "type": "FP"
        },
        {
            "country_code": "FI",
            "city": "Turku",
            "latitude": 60.5140991211,
            "longitude": 22.2628002167,
            "type": "FP"
        },
        {
            "country_code": "FR",
            "city": "Charleville-M\u00e9zi\u00e8res",
            "latitude": 49.7839012146,
            "longitude": 4.6470799446,
            "type": "FP"
        },
        {
            "country_code": "FR",
            "city": "Lyon",
            "latitude": 45.726398468,
            "longitude": 5.0908298492,
            "type": "FP"
        },
        {
            "country_code": "FR",
            "city": "Paris",
            "latitude": 48.855725,
            "longitude": 2.349194,
            "type": "FN"
        },
        {
            "country_code": "GB",
            "city": "London",
            "latitude": 51.8849983215,
            "longitude": 0.2349999994,
            "type": "TP"
        },
        {
            "country_code": "GR",
            "city": "Athens",
            "latitude": 37.9364013672,
            "longitude": 23.9444999695,
            "type": "FP"
        },
        {
            "country_code": "GR",
            "city": "Thessaloniki",
            "latitude": 40.5196990967,
            "longitude": 22.9708995819,
            "type": "FP"
        },
        {
            "country_code": "HU",
            "city": "Budapest",
            "latitude": 47.4812134,
            "longitude": 19.1303031,
            "type": "FP"
        },
        {
            "country_code": "IS",
            "city": "Reykjav\u00edk",
            "latitude": 63.9850006104,
            "longitude": -22.6056003571,
            "type": "TP"
        },
        {
            "country_code": "IT",
            "city": "Bologna",
            "latitude": 44.5354003906,
            "longitude": 11.2887001038,
            "type": "FP"
        },
        {
            "country_code": "IT",
            "city": "Milan",
            "latitude": 45.465926,
            "longitude": 9.196202,
            "type": "FN"
        },
        {
            "country_code": "IT",
            "city": "Torino",
            "latitude": 45.2008018494,
            "longitude": 7.6496300697,
            "type": "FP"
        },
        {
            "country_code": "LT",
            "city": "Panev\u0117\u017eys",
            "latitude": 55.7294006348,
            "longitude": 24.4608001709,
            "type": "FP"
        },
        {
            "country_code": "LT",
            "city": "Vilnius",
            "latitude": 54.755187,
            "longitude": 25.296416,
            "type": "FN"
        },
        {
            "country_code": "LU",
            "city": "Luxembourg",
            "latitude": 49.617173,
            "longitude": 6.136898,
            "type": "FN"
        },
        {
            "country_code": "LV",
            "city": "Riga",
            "latitude": 56.9235992432,
            "longitude": 23.9710998535,
            "type": "TP"
        },
        {
            "country_code": "MA",
            "city": "Casablanca",
            "latitude": 33.3675003052,
            "longitude": -7.5899701118,
            "type": "TP"
        },
        {
            "country_code": "N/A",
            "city": "N/A",
            "latitude": 48.2105,
            "longitude": 16.3785,
            "type": "TP"
        },
        {
            "country_code": "N/A",
            "city": "N/A",
            "latitude": 40.9475,
            "longitude": 17.2785,
            "type": "FP"
        },
        {
            "country_code": "N/A",
            "city": "N/A",
            "latitude": 59.9415,
            "longitude": 10.8295,
            "type": "TP"
        },
        {
            "country_code": "N/A",
            "city": "N/A",
            "latitude": 58.1585,
            "longitude": 8.0195,
            "type": "FP"
        },
        {
            "country_code": "N/A",
            "city": "N/A",
            "latitude": 60.1475,
            "longitude": 19.9475,
            "type": "FP"
        },
        {
            "country_code": "NL",
            "city": "Amsterdam",
            "latitude": 52.376051,
            "longitude": 4.902197,
            "type": "FN"
        },
        {
            "country_code": "NO",
            "city": "Troms\u00f8",
            "latitude": 69.6832962036,
            "longitude": 18.9188995361,
            "type": "FP"
        },
        {
            "country_code": "NO",
            "city": "Trondheim",
            "latitude": 63.4578018188,
            "longitude": 10.9239997864,
            "type": "FP"
        },
        {
            "country_code": "NO",
            "city": "\u00c5lesund",
            "latitude": 62.5625,
            "longitude": 6.119699955,
            "type": "FP"
        },
        {
            "country_code": "RO",
            "city": "Bucharest",
            "latitude": 44.5722007751,
            "longitude": 26.1021995544,
            "type": "TP"
        },
        {
            "country_code": "RO",
            "city": "Cluj-Napoca",
            "latitude": 46.7851982117,
            "longitude": 23.6861991882,
            "type": "FP"
        },
        {
            "country_code": "RS",
            "city": "Belgrade",
            "latitude": 44.810497,
            "longitude": 20.455291,
            "type": "FN"
        },
        {
            "country_code": "RU",
            "city": "Moscow",
            "latitude": 55.4087982178,
            "longitude": 37.9062995911,
            "type": "FP"
        },
        {
            "country_code": "SE",
            "city": "Gothenburg",
            "latitude": 57.717614,
            "longitude": 11.98341,
            "type": "FN"
        },
        {
            "country_code": "SE",
            "city": "Link\u00f6ping",
            "latitude": 58.4062004089,
            "longitude": 15.6805000305,
            "type": "FP"
        },
        {
            "country_code": "SE",
            "city": "Lule\u00e5",
            "latitude": 65.543800354,
            "longitude": 22.1219997406,
            "type": "FP"
        },
        {
            "country_code": "SE",
            "city": "Stockholm",
            "latitude": 59.3544006348,
            "longitude": 17.9416999817,
            "type": "TP"
        },
        {
            "country_code": "SE",
            "city": "Sundsvall",
            "latitude": 62.387574,
            "longitude": 17.27741,
            "type": "FN"
        },
        {
            "country_code": "SE",
            "city": "S\u00f6derhamn",
            "latitude": 61.2615013123,
            "longitude": 17.0991001129,
            "type": "FP"
        },
        {
            "country_code": "SE",
            "city": "Visby",
            "latitude": 57.6627998352,
            "longitude": 18.346200943,
            "type": "FP"
        },
        {
            "country_code": "SI",
            "city": "Ljubljana",
            "latitude": 46.065823,
            "longitude": 14.50024,
            "type": "FN"
        },
        {
            "country_code": "TR",
            "city": "Ankara",
            "latitude": 39.939289,
            "longitude": 32.852299,
            "type": "FN"
        }
    ]
}