{
    "target": "198.97.190.53",
    "measurement_filepath": "datasets/measurements/campaigns/198.97.190.53_North-Central_20230410/198.97.190.53_North-Central_300_52071713.json",
    "probes_filepath": "datasets/probes_sets/North-Central_300.json",
    "alpha": 0.7,
    "threshold": -1,
    "noise": 0,
    "num_anycast_instances": 5,
    "anycast_instances": [
        {
            "marker": {
                "id": "QMZ",
                "latitude": 49.9674987793,
                "longitude": 8.1472215652,
                "city": "Mainz",
                "country_code": "DE"
            },
            "circle": {
                "id": "20589",
                "latitude": 50.1015,
                "longitude": 8.6015,
                "radius": 43.114052762354
            }
        },
        {
            "marker": {
                "id": "PAR",
                "latitude": 49.0127983093,
                "longitude": 2.5499999523,
                "city": "Paris",
                "country_code": "FR"
            },
            "circle": {
                "id": "1003879",
                "latitude": 48.8615,
                "longitude": 2.3405,
                "radius": 75.2198463839312
            }
        },
        {
            "marker": {
                "id": "STN",
                "latitude": 51.8849983215,
                "longitude": 0.2349999994,
                "city": "London",
                "country_code": "GB"
            },
            "circle": {
                "id": "6559",
                "latitude": 51.5215,
                "longitude": -0.6405,
                "radius": 134.504284621364
            }
        },
        {
            "marker": {
                "id": "DME",
                "latitude": 55.4087982178,
                "longitude": 37.9062995911,
                "city": "Moscow",
                "country_code": "RU"
            },
            "circle": {
                "id": "1004826",
                "latitude": 60.4005,
                "longitude": 25.0285,
                "radius": 1392.9566361870657
            }
        },
        {
            "marker": {
                "id": "TXL",
                "latitude": 52.5597000122,
                "longitude": 13.2876996994,
                "city": "Berlin",
                "country_code": "DE"
            },
            "circle": {
                "id": "32480",
                "latitude": 52.2275,
                "longitude": 21.1015,
                "radius": 903.8161610916396
            }
        }
    ]
}