{
    "target": "199.9.14.201",
    "measurement_filepath": "datasets/measurements/campaigns/199.9.14.201_North-Central-section_20230425/199.9.14.201_North-Central-section_2_52640650.json",
    "probes_filepath": "datasets/probes_section/North-Central-section_2.json",
    "alpha": 0.2,
    "threshold": -1,
    "noise": 0,
    "num_anycast_instances": 8,
    "anycast_instances": [
        {
            "marker": {
                "id": "XFW",
                "latitude": 53.5352783203,
                "longitude": 9.8355560303,
                "city": "Hamburg",
                "country_code": "DE"
            },
            "circle": {
                "id": "24010",
                "latitude": 52.3775,
                "longitude": 6.2875,
                "radius": 283.8345504295287
            }
        },
        {
            "marker": {
                "id": "DME",
                "latitude": 55.4087982178,
                "longitude": 37.9062995911,
                "city": "Moscow",
                "country_code": "RU"
            },
            "circle": {
                "id": "22068",
                "latitude": 62.2415,
                "longitude": 25.7605,
                "radius": 1259.7110302006147
            }
        },
        {
            "marker": {
                "id": "LED",
                "latitude": 59.8003005981,
                "longitude": 30.2625007629,
                "city": "St Petersburg",
                "country_code": "RU"
            },
            "circle": {
                "id": "22557",
                "latitude": 60.1305,
                "longitude": 18.6395,
                "radius": 877.551148981162
            }
        },
        {
            "marker": {
                "id": "IST",
                "latitude": 40.9768981934,
                "longitude": 28.8145999908,
                "city": "Istanbul",
                "country_code": "TR"
            },
            "circle": {
                "id": "12454",
                "latitude": 47.5495,
                "longitude": 21.5995,
                "radius": 941.6589480753568
            }
        },
        {
            "marker": {
                "id": "LTN",
                "latitude": 51.8746986389,
                "longitude": -0.3683330119,
                "city": "London",
                "country_code": "GB"
            },
            "circle": {
                "id": "1001272",
                "latitude": 32.6685,
                "longitude": -16.9295,
                "radius": 2525.3481928251217
            }
        },
        {
            "marker": {
                "id": "ORY",
                "latitude": 48.7252998352,
                "longitude": 2.3594400883,
                "city": "Paris",
                "country_code": "FR"
            },
            "circle": {
                "id": "788",
                "latitude": 49.5015,
                "longitude": 6.3715,
                "radius": 429.42184744107186
            }
        },
        {
            "marker": {
                "id": "BUD",
                "latitude": 47.4369010925,
                "longitude": 19.2555999756,
                "city": "Budapest",
                "country_code": "HU"
            },
            "circle": {
                "id": "10924",
                "latitude": 42.4495,
                "longitude": 12.0885,
                "radius": 984.9813715856436
            }
        },
        {
            "marker": {
                "id": "DUB",
                "latitude": 53.4212989807,
                "longitude": -6.270070076,
                "city": "Dublin",
                "country_code": "IE"
            },
            "circle": {
                "id": "1000959",
                "latitude": 64.0715,
                "longitude": -22.0205,
                "radius": 1616.082524348941
            }
        }
    ]
}