{
    "target": "199.9.14.201",
    "measurement_filepath": "datasets/measurements/campaigns/199.9.14.201_North-Central-section_20230425/199.9.14.201_North-Central-section_1_52639768.json",
    "probes_filepath": "datasets/probes_section/North-Central-section_1.json",
    "alpha": 0.2,
    "threshold": -1,
    "noise": 0,
    "num_anycast_instances": 9,
    "anycast_instances": [
        {
            "marker": {
                "id": "AMX",
                "latitude": 52.3086013794,
                "longitude": 4.7638897896,
                "city": "Amsterdam",
                "country_code": "NL"
            },
            "circle": {
                "id": "6863",
                "latitude": 52.5385,
                "longitude": 5.7005,
                "radius": 91.18175618371681
            }
        },
        {
            "marker": {
                "id": "STN",
                "latitude": 51.8849983215,
                "longitude": 0.2349999994,
                "city": "London",
                "country_code": "GB"
            },
            "circle": {
                "id": "22278",
                "latitude": 51.5715,
                "longitude": -3.3195,
                "radius": 478.54480532497166
            }
        },
        {
            "marker": {
                "id": "ROM",
                "latitude": 41.799444,
                "longitude": 12.597222,
                "city": "Rome",
                "country_code": "IT"
            },
            "circle": {
                "id": "12018",
                "latitude": 44.9915,
                "longitude": 4.9775,
                "radius": 742.9381446249042
            }
        },
        {
            "marker": {
                "id": "LED",
                "latitude": 59.8003005981,
                "longitude": 30.2625007629,
                "city": "St Petersburg",
                "country_code": "RU"
            },
            "circle": {
                "id": "10179",
                "latitude": 59.4115,
                "longitude": 17.8505,
                "radius": 886.8273721854666
            }
        },
        {
            "marker": {
                "id": "MUC",
                "latitude": 48.3538017273,
                "longitude": 11.7861003876,
                "city": "Munich",
                "country_code": "DE"
            },
            "circle": {
                "id": "2325",
                "latitude": 50.1095,
                "longitude": 8.6785,
                "radius": 309.5124939591279
            }
        },
        {
            "marker": {
                "id": "SAW",
                "latitude": 40.898601532,
                "longitude": 29.3092002869,
                "city": "Istanbul",
                "country_code": "TR"
            },
            "circle": {
                "id": "10972",
                "latitude": 48.3785,
                "longitude": 31.1705,
                "radius": 1236.080564231795
            }
        },
        {
            "marker": {
                "id": "SXF",
                "latitude": 52.3800010681,
                "longitude": 13.5225000381,
                "city": "Berlin",
                "country_code": "DE"
            },
            "circle": {
                "id": "1003415",
                "latitude": 56.0195,
                "longitude": 12.1975,
                "radius": 613.7504544018268
            }
        },
        {
            "marker": {
                "id": "TOJ",
                "latitude": 40.4967002869,
                "longitude": -3.4458699226,
                "city": "Madrid",
                "country_code": "ES"
            },
            "circle": {
                "id": "50252",
                "latitude": 32.6485,
                "longitude": -16.9005,
                "radius": 2364.3825320332894
            }
        },
        {
            "marker": {
                "id": "DUB",
                "latitude": 53.4212989807,
                "longitude": -6.270070076,
                "city": "Dublin",
                "country_code": "IE"
            },
            "circle": {
                "id": "1000959",
                "latitude": 64.0715,
                "longitude": -22.0205,
                "radius": 1615.6554100340281
            }
        }
    ]
}