{
    "target": null,
    "probes_filename": "./probes_sets/default_ripe_probes.json",
    "alpha": 0.3,
    "threshold": -1,
    "noise": 0,
    "num_anycast_instances": 79,
    "anycast_intances": [
        {
            "marker": {
                "id": "YIP",
                "latitude": 42.23789978,
                "longitude": -83.53040314,
                "city": "Detroit",
                "code_country": "US"
            },
            "circle": {
                "id": "7105",
                "latitude": 42.4695,
                "longitude": -83.2425,
                "radius": 36.85149481994934
            }
        },
        {
            "marker": {
                "id": "PIX",
                "latitude": 37.6189994812,
                "longitude": -122.375,
                "city": "San Francisco",
                "code_country": "US"
            },
            "circle": {
                "id": "1001467",
                "latitude": 37.5505,
                "longitude": -121.9895,
                "radius": 42.27911893291119
            }
        },
        {
            "marker": {
                "id": "NIX",
                "latitude": 60.193901062,
                "longitude": 11.100399971,
                "city": "Oslo",
                "code_country": "NO"
            },
            "circle": {
                "id": "28320",
                "latitude": 59.9075,
                "longitude": 10.7485,
                "radius": 47.7928347616079
            }
        },
        {
            "marker": {
                "id": "OUA",
                "latitude": 12.3531999588,
                "longitude": -1.5124200583,
                "city": "Ouagadougou",
                "code_country": "BF"
            },
            "circle": {
                "id": "6299",
                "latitude": 12.3715,
                "longitude": -1.5085,
                "radius": 52.94699687258486
            }
        },
        {
            "marker": {
                "id": "SCL",
                "latitude": -33.3930015564,
                "longitude": -70.7857971191,
                "city": "Santiago",
                "code_country": "CL"
            },
            "circle": {
                "id": "6554",
                "latitude": -33.4405,
                "longitude": -70.6505,
                "radius": 53.41561982009013
            }
        },
        {
            "marker": {
                "id": "BCN",
                "latitude": 41.2971000671,
                "longitude": 2.0784599781,
                "city": "Barcelona",
                "code_country": "ES"
            },
            "circle": {
                "id": "1004035",
                "latitude": 41.3495,
                "longitude": 2.1285,
                "radius": 56.09560660910592
            }
        },
        {
            "marker": {
                "id": "TLL",
                "latitude": 59.4132995605,
                "longitude": 24.8327999115,
                "city": "Tallinn",
                "code_country": "EE"
            },
            "circle": {
                "id": "11447",
                "latitude": 59.4305,
                "longitude": 24.6995,
                "radius": 57.249906188346046
            }
        },
        {
            "marker": {
                "id": "LBA",
                "latitude": 53.8658981323,
                "longitude": -1.6605700254,
                "city": "Leeds",
                "code_country": "GB"
            },
            "circle": {
                "id": "6892",
                "latitude": 53.4685,
                "longitude": -2.3085,
                "radius": 62.82752514624803
            }
        },
        {
            "marker": {
                "id": "SSZ",
                "latitude": -23.9280567169,
                "longitude": -46.2997207642,
                "city": "Guaruj\u00e1",
                "code_country": "BR"
            },
            "circle": {
                "id": "1000709",
                "latitude": -23.5385,
                "longitude": -46.6325,
                "radius": 64.7811069202546
            }
        },
        {
            "marker": {
                "id": "GML",
                "latitude": 50.6035003662,
                "longitude": 30.1919002533,
                "city": "Kiev",
                "code_country": "UA"
            },
            "circle": {
                "id": "1004113",
                "latitude": 50.4485,
                "longitude": 30.5275,
                "radius": 64.92873498263157
            }
        },
        {
            "marker": {
                "id": "ADW",
                "latitude": 38.810798645,
                "longitude": -76.8669967651,
                "city": "Camp Springs",
                "code_country": "US"
            },
            "circle": {
                "id": "1002633",
                "latitude": 39.0385,
                "longitude": -77.4915,
                "radius": 64.95003602569999
            }
        },
        {
            "marker": {
                "id": "SXF",
                "latitude": 52.3800010681,
                "longitude": 13.5225000381,
                "city": "Berlin",
                "code_country": "DE"
            },
            "circle": {
                "id": "1003342",
                "latitude": 52.5185,
                "longitude": 13.3995,
                "radius": 74.82464734295526
            }
        },
        {
            "marker": {
                "id": "BTH",
                "latitude": 1.121028,
                "longitude": 104.118753,
                "city": "Batam",
                "code_country": "ID"
            },
            "circle": {
                "id": "7028",
                "latitude": 1.3515,
                "longitude": 103.8185,
                "radius": 77.77425011229079
            }
        },
        {
            "marker": {
                "id": "MXP",
                "latitude": 45.6305999756,
                "longitude": 8.7281103134,
                "city": "Milan",
                "code_country": "IT"
            },
            "circle": {
                "id": "6763",
                "latitude": 45.4785,
                "longitude": 9.1005,
                "radius": 78.9937348279579
            }
        },
        {
            "marker": {
                "id": "WMI",
                "latitude": 52.4510993958,
                "longitude": 20.6518001556,
                "city": "Warsaw",
                "code_country": "PL"
            },
            "circle": {
                "id": "15798",
                "latitude": 52.1815,
                "longitude": 20.9915,
                "radius": 80.47238223429079
            }
        },
        {
            "marker": {
                "id": "CGK",
                "latitude": -6.1255698204,
                "longitude": 106.65599823,
                "city": "Jakarta",
                "code_country": "ID"
            },
            "circle": {
                "id": "1002160",
                "latitude": -6.2325,
                "longitude": 106.8105,
                "radius": 81.5963081039704
            }
        },
        {
            "marker": {
                "id": "GLZ",
                "latitude": 51.567401886,
                "longitude": 4.9318299294,
                "city": "Breda",
                "code_country": "NL"
            },
            "circle": {
                "id": "13521",
                "latitude": 52.2775,
                "longitude": 4.7385,
                "radius": 81.93968880750856
            }
        },
        {
            "marker": {
                "id": "YHM",
                "latitude": 43.1735992432,
                "longitude": -79.9349975586,
                "city": "Hamilton",
                "code_country": "CA"
            },
            "circle": {
                "id": "1003343",
                "latitude": 43.6485,
                "longitude": -79.3805,
                "radius": 82.9041527019954
            }
        },
        {
            "marker": {
                "id": "VNO",
                "latitude": 54.6341018677,
                "longitude": 25.2858009338,
                "city": "Vilnius",
                "code_country": "LT"
            },
            "circle": {
                "id": "1001780",
                "latitude": 54.6375,
                "longitude": 25.3115,
                "radius": 83.54574800849144
            }
        },
        {
            "marker": {
                "id": "MHG",
                "latitude": 49.4730567932,
                "longitude": 8.514166832,
                "city": "Mannheim",
                "code_country": "DE"
            },
            "circle": {
                "id": "1005426",
                "latitude": 50.1005,
                "longitude": 8.6285,
                "radius": 84.12314433796183
            }
        },
        {
            "marker": {
                "id": "PRG",
                "latitude": 50.1007995605,
                "longitude": 14.2600002289,
                "city": "Prague",
                "code_country": "CZ"
            },
            "circle": {
                "id": "50387",
                "latitude": 50.0705,
                "longitude": 14.4615,
                "radius": 90.26652294439867
            }
        },
        {
            "marker": {
                "id": "LED",
                "latitude": 59.8003005981,
                "longitude": 30.2625007629,
                "city": "St Petersburg",
                "code_country": "RU"
            },
            "circle": {
                "id": "17704",
                "latitude": 59.9795,
                "longitude": 30.3275,
                "radius": 94.68126273626906
            }
        },
        {
            "marker": {
                "id": "SVO",
                "latitude": 55.9725990295,
                "longitude": 37.4146003723,
                "city": "Moscow",
                "code_country": "RU"
            },
            "circle": {
                "id": "11448",
                "latitude": 55.6515,
                "longitude": 37.6295,
                "radius": 95.2041244508467
            }
        },
        {
            "marker": {
                "id": "WJF",
                "latitude": 34.74110031,
                "longitude": -118.2190018,
                "city": "Lancaster",
                "code_country": "US"
            },
            "circle": {
                "id": "1000302",
                "latitude": 34.0485,
                "longitude": -118.2425,
                "radius": 95.39149473709672
            }
        },
        {
            "marker": {
                "id": "KEL",
                "latitude": 54.3794441223,
                "longitude": 10.145277977,
                "city": "Kiel",
                "code_country": "DE"
            },
            "circle": {
                "id": "50025",
                "latitude": 53.5495,
                "longitude": 10.0485,
                "radius": 96.59431335888158
            }
        },
        {
            "marker": {
                "id": "AKL",
                "latitude": -37.0080986023,
                "longitude": 174.792007446,
                "city": "Auckland",
                "code_country": "NZ"
            },
            "circle": {
                "id": "25098",
                "latitude": -36.8485,
                "longitude": 174.7715,
                "radius": 97.71715445321973
            }
        },
        {
            "marker": {
                "id": "EVX",
                "latitude": 49.0287017822,
                "longitude": 1.2198599577,
                "city": "\u00c9vreux/Fauville",
                "code_country": "FR"
            },
            "circle": {
                "id": "1003983",
                "latitude": 48.8585,
                "longitude": 2.3515,
                "radius": 98.05027909898422
            }
        },
        {
            "marker": {
                "id": "BOM",
                "latitude": 19.0886993408,
                "longitude": 72.8678970337,
                "city": "Mumbai",
                "code_country": "IN"
            },
            "circle": {
                "id": "1004294",
                "latitude": 19.0695,
                "longitude": 72.8915,
                "radius": 98.85814088054211
            }
        },
        {
            "marker": {
                "id": "STN",
                "latitude": 51.8849983215,
                "longitude": 0.2349999994,
                "city": "London",
                "code_country": "GB"
            },
            "circle": {
                "id": "1005027",
                "latitude": 51.5405,
                "longitude": -0.6715,
                "radius": 99.0355509568388
            }
        },
        {
            "marker": {
                "id": "TOJ",
                "latitude": 40.4967002869,
                "longitude": -3.4458699226,
                "city": "Madrid",
                "code_country": "ES"
            },
            "circle": {
                "id": "30479",
                "latitude": 40.4315,
                "longitude": -3.6995,
                "radius": 99.74203555194144
            }
        },
        {
            "marker": {
                "id": "MGM",
                "latitude": 32.30059814,
                "longitude": -86.39399719,
                "city": "Montgomery",
                "code_country": "US"
            },
            "circle": {
                "id": "1004785",
                "latitude": 32.3695,
                "longitude": -86.1785,
                "radius": 104.06802099769341
            }
        },
        {
            "marker": {
                "id": "HUZ",
                "latitude": 23.0499992371,
                "longitude": 114.599998474,
                "city": "Huizhou",
                "code_country": "CN"
            },
            "circle": {
                "id": "1004306",
                "latitude": 22.2905,
                "longitude": 114.1475,
                "radius": 105.82782244934145
            }
        },
        {
            "marker": {
                "id": "LAD",
                "latitude": -8.8583698273,
                "longitude": 13.2312002182,
                "city": "Luanda",
                "code_country": "AO"
            },
            "circle": {
                "id": "19757",
                "latitude": -8.9095,
                "longitude": 13.1795,
                "radius": 108.67555495252105
            }
        },
        {
            "marker": {
                "id": "CLM",
                "latitude": 48.1202011108,
                "longitude": -123.5,
                "city": "Port Angeles",
                "code_country": "US"
            },
            "circle": {
                "id": "1005421",
                "latitude": 47.6575,
                "longitude": -122.3115,
                "radius": 112.09249866214013
            }
        },
        {
            "marker": {
                "id": "SFS",
                "latitude": 14.7944002151,
                "longitude": 120.2710037231,
                "city": "Olongapo City",
                "code_country": "PH"
            },
            "circle": {
                "id": "1004733",
                "latitude": 14.6485,
                "longitude": 121.0685,
                "radius": 120.02122024871909
            }
        },
        {
            "marker": {
                "id": "HAD",
                "latitude": 56.6911010742,
                "longitude": 12.8201999664,
                "city": "Halmstad",
                "code_country": "SE"
            },
            "circle": {
                "id": "32130",
                "latitude": 55.7175,
                "longitude": 12.4385,
                "radius": 120.12693653654013
            }
        },
        {
            "marker": {
                "id": "QGY",
                "latitude": 47.6244010925,
                "longitude": 17.8136005402,
                "city": "Gy\u0151r",
                "code_country": "HU"
            },
            "circle": {
                "id": "11226",
                "latitude": 48.2105,
                "longitude": 16.3685,
                "radius": 129.0132189017967
            }
        },
        {
            "marker": {
                "id": "YHU",
                "latitude": 45.5175018311,
                "longitude": -73.4169006348,
                "city": "Montr\u00e9al",
                "code_country": "CA"
            },
            "circle": {
                "id": "13244",
                "latitude": 45.4995,
                "longitude": -73.8105,
                "radius": 133.42529606328355
            }
        },
        {
            "marker": {
                "id": "SQQ",
                "latitude": 55.893901825,
                "longitude": 23.3950004578,
                "city": "\u0160iauliai",
                "code_country": "LT"
            },
            "circle": {
                "id": "52806",
                "latitude": 56.9805,
                "longitude": 24.1675,
                "radius": 135.02987602516447
            }
        },
        {
            "marker": {
                "id": "AFW",
                "latitude": 32.9875984192,
                "longitude": -97.3188018799,
                "city": "Fort Worth",
                "code_country": "US"
            },
            "circle": {
                "id": "1003193",
                "latitude": 32.7785,
                "longitude": -96.7985,
                "radius": 135.9689956230375
            }
        },
        {
            "marker": {
                "id": "NAJ",
                "latitude": 39.1888008118,
                "longitude": 45.4584007263,
                "city": "Nakhchivan",
                "code_country": "AZ"
            },
            "circle": {
                "id": "1004560",
                "latitude": 40.1675,
                "longitude": 44.5205,
                "radius": 138.51703428415723
            }
        },
        {
            "marker": {
                "id": "KCT",
                "latitude": 5.9936800003,
                "longitude": 80.3202972412,
                "city": "Galle",
                "code_country": "LK"
            },
            "circle": {
                "id": "17081",
                "latitude": 6.9275,
                "longitude": 79.8615,
                "radius": 139.26493757411515
            }
        },
        {
            "marker": {
                "id": "NKM",
                "latitude": 35.2550010681,
                "longitude": 136.9239959717,
                "city": "Nagoya",
                "code_country": "JP"
            },
            "circle": {
                "id": "28344",
                "latitude": 34.7995,
                "longitude": 135.4995,
                "radius": 139.32933378302104
            }
        },
        {
            "marker": {
                "id": "SDB",
                "latitude": -32.9688987732,
                "longitude": 18.1602993011,
                "city": "Saldanha",
                "code_country": "ZA"
            },
            "circle": {
                "id": "33175",
                "latitude": -33.9205,
                "longitude": 18.3905,
                "radius": 140.52377004989472
            }
        },
        {
            "marker": {
                "id": "GYD",
                "latitude": 40.4674987793,
                "longitude": 50.0466995239,
                "city": "Baku",
                "code_country": "AZ"
            },
            "circle": {
                "id": "1002934",
                "latitude": 40.4095,
                "longitude": 49.8285,
                "radius": 145.44795978848487
            }
        },
        {
            "marker": {
                "id": "CHA",
                "latitude": 35.0353012085,
                "longitude": -85.2037963867,
                "city": "Chattanooga",
                "code_country": "US"
            },
            "circle": {
                "id": "54182",
                "latitude": 33.9185,
                "longitude": -84.3585,
                "radius": 150.08113388774672
            }
        },
        {
            "marker": {
                "id": "OTP",
                "latitude": 44.5722007751,
                "longitude": 26.1021995544,
                "city": "Bucharest",
                "code_country": "RO"
            },
            "circle": {
                "id": "52529",
                "latitude": 44.4315,
                "longitude": 26.0985,
                "radius": 152.27533855567432
            }
        },
        {
            "marker": {
                "id": "PDV",
                "latitude": 42.0677986145,
                "longitude": 24.8507995605,
                "city": "Plovdiv",
                "code_country": "BG"
            },
            "circle": {
                "id": "27804",
                "latitude": 42.6595,
                "longitude": 23.3875,
                "radius": 154.21826980814672
            }
        },
        {
            "marker": {
                "id": "AVV",
                "latitude": -38.0393981934,
                "longitude": 144.468994141,
                "city": "Melbourne",
                "code_country": "AU"
            },
            "circle": {
                "id": "1004379",
                "latitude": -37.8185,
                "longitude": 144.9705,
                "radius": 154.41421968118814
            }
        },
        {
            "marker": {
                "id": "COS",
                "latitude": 38.8058013916,
                "longitude": -104.7009963989,
                "city": "Colorado Springs",
                "code_country": "US"
            },
            "circle": {
                "id": "6835",
                "latitude": 39.6195,
                "longitude": -104.8915,
                "radius": 154.99289801788026
            }
        },
        {
            "marker": {
                "id": "YEI",
                "latitude": 40.2551994324,
                "longitude": 29.5625991821,
                "city": "Bursa",
                "code_country": "TR"
            },
            "circle": {
                "id": "1002713",
                "latitude": 41.0085,
                "longitude": 28.9775,
                "radius": 159.5189752061592
            }
        },
        {
            "marker": {
                "id": "DELHI",
                "latitude": 28.6070051,
                "longitude": 77.2140499,
                "city": "Delhi",
                "code_country": "IN"
            },
            "circle": {
                "id": "25250",
                "latitude": 28.6775,
                "longitude": 77.3495,
                "radius": 160.51460173772765
            }
        },
        {
            "marker": {
                "id": "BLR",
                "latitude": 13.1978998184,
                "longitude": 77.7062988281,
                "city": "Bangalore",
                "code_country": "IN"
            },
            "circle": {
                "id": "1004047",
                "latitude": 12.9605,
                "longitude": 77.5895,
                "radius": 163.14814041894144
            }
        },
        {
            "marker": {
                "id": "BYJ",
                "latitude": 38.0788993835,
                "longitude": -7.9324002266,
                "city": "Beja",
                "code_country": "PT"
            },
            "circle": {
                "id": "1003848",
                "latitude": 38.7315,
                "longitude": -9.1405,
                "radius": 167.40834903262567
            }
        },
        {
            "marker": {
                "id": "ORB",
                "latitude": 59.2237014771,
                "longitude": 15.0380001068,
                "city": "\u00d6rebro",
                "code_country": "SE"
            },
            "circle": {
                "id": "1003738",
                "latitude": 59.2615,
                "longitude": 18.0985,
                "radius": 175.3230671557059
            }
        },
        {
            "marker": {
                "id": "CTD",
                "latitude": 7.9878401756,
                "longitude": -80.4096984863,
                "city": "Chitr\u00e9",
                "code_country": "PA"
            },
            "circle": {
                "id": "1004303",
                "latitude": 8.9885,
                "longitude": -79.5325,
                "radius": 178.561614629627
            }
        },
        {
            "marker": {
                "id": "RUN",
                "latitude": -20.8871002197,
                "longitude": 55.5102996826,
                "city": "Saint-Denis",
                "code_country": "RE"
            },
            "circle": {
                "id": "53411",
                "latitude": -20.9325,
                "longitude": 55.3375,
                "radius": 178.61397969383682
            }
        },
        {
            "marker": {
                "id": "JFK",
                "latitude": 40.63980103,
                "longitude": -73.77890015,
                "city": "New York",
                "code_country": "US"
            },
            "circle": {
                "id": "13146",
                "latitude": 40.7805,
                "longitude": -74.0705,
                "radius": 187.402533662423
            }
        },
        {
            "marker": {
                "id": "LAF",
                "latitude": 40.4123001099,
                "longitude": -86.9368972778,
                "city": "Lafayette",
                "code_country": "US"
            },
            "circle": {
                "id": "1005454",
                "latitude": 41.9995,
                "longitude": -88.0005,
                "radius": 198.2762230691513
            }
        },
        {
            "marker": {
                "id": "DGE",
                "latitude": -32.5625,
                "longitude": 149.610992432,
                "city": "Mudgee",
                "code_country": "AU"
            },
            "circle": {
                "id": "6688",
                "latitude": -33.8685,
                "longitude": 151.2115,
                "radius": 208.53800056736313
            }
        },
        {
            "marker": {
                "id": "IFJ",
                "latitude": 66.0580978394,
                "longitude": -23.1352996826,
                "city": "\u00cdsafj\u00f6r\u00f0ur",
                "code_country": "IS"
            },
            "circle": {
                "id": "33893",
                "latitude": 64.1485,
                "longitude": -21.9385,
                "radius": 221.24831324310196
            }
        },
        {
            "marker": {
                "id": "FNJ",
                "latitude": 39.2240982056,
                "longitude": 125.6699981689,
                "city": "Pyongyang",
                "code_country": "KP"
            },
            "circle": {
                "id": "1003645",
                "latitude": 37.4595,
                "longitude": 126.6995,
                "radius": 241.95844959825456
            }
        },
        {
            "marker": {
                "id": "SGF",
                "latitude": 37.24570084,
                "longitude": -93.38860321,
                "city": "Springfield",
                "code_country": "US"
            },
            "circle": {
                "id": "15683",
                "latitude": 38.8585,
                "longitude": -94.5085,
                "radius": 251.4158168728131
            }
        },
        {
            "marker": {
                "id": "AKW",
                "latitude": 30.7444000244,
                "longitude": 49.6772003174,
                "city": "Aghajari",
                "code_country": "IR"
            },
            "circle": {
                "id": "60086",
                "latitude": 30.5305,
                "longitude": 47.7715,
                "radius": 253.9807188596954
            }
        },
        {
            "marker": {
                "id": "MRS",
                "latitude": 43.439271922,
                "longitude": 5.2214241028,
                "city": "Marseille",
                "code_country": "FR"
            },
            "circle": {
                "id": "62793",
                "latitude": 43.2985,
                "longitude": 5.3915,
                "radius": 264.16636485212564
            }
        },
        {
            "marker": {
                "id": "DMM",
                "latitude": 26.471200943,
                "longitude": 49.7979011536,
                "city": "Ad Dammam",
                "code_country": "SA"
            },
            "circle": {
                "id": "50834",
                "latitude": 25.3295,
                "longitude": 51.5185,
                "radius": 294.6521021206414
            }
        },
        {
            "marker": {
                "id": "TAI",
                "latitude": 25.0776996613,
                "longitude": 121.233001709,
                "city": "Taipei",
                "code_country": "TW"
            },
            "circle": {
                "id": "51086",
                "latitude": 24.7905,
                "longitude": 121.0015,
                "radius": 338.10475074111844
            }
        },
        {
            "marker": {
                "id": "SIN",
                "latitude": 1.3501900434,
                "longitude": 103.9940032959,
                "city": "Singapore",
                "code_country": "SG"
            },
            "circle": {
                "id": "15957",
                "latitude": 3.1805,
                "longitude": 101.6695,
                "radius": 344.4799754228046
            }
        },
        {
            "marker": {
                "id": "CBO",
                "latitude": 7.1652398109,
                "longitude": 124.2099990845,
                "city": "Cotabato City",
                "code_country": "PH"
            },
            "circle": {
                "id": "52390",
                "latitude": 10.3175,
                "longitude": 123.9115,
                "radius": 360.71245501628283
            }
        },
        {
            "marker": {
                "id": "LHE",
                "latitude": 31.5216007233,
                "longitude": 74.4036026001,
                "city": "Lahore",
                "code_country": "PK"
            },
            "circle": {
                "id": "61223",
                "latitude": 33.6785,
                "longitude": 73.0485,
                "radius": 379.36260299802694
            }
        },
        {
            "marker": {
                "id": "IAB",
                "latitude": 37.62189865,
                "longitude": -97.26820374,
                "city": "Wichita",
                "code_country": "US"
            },
            "circle": {
                "id": "54779",
                "latitude": 40.8115,
                "longitude": -96.6995,
                "radius": 447.59714152574924
            }
        },
        {
            "marker": {
                "id": "MPM",
                "latitude": -25.9207992554,
                "longitude": 32.5726013184,
                "city": "Maputo",
                "code_country": "MZ"
            },
            "circle": {
                "id": "27571",
                "latitude": -25.8125,
                "longitude": 28.1405,
                "radius": 502.67552471239804
            }
        },
        {
            "marker": {
                "id": "FCO",
                "latitude": 41.8045005798,
                "longitude": 12.2508001328,
                "city": "Rome",
                "code_country": "IT"
            },
            "circle": {
                "id": "50245",
                "latitude": 41.8095,
                "longitude": 12.5995,
                "radius": 511.8290562754112
            }
        },
        {
            "marker": {
                "id": "DWC",
                "latitude": 24.8966666667,
                "longitude": 55.1613888889,
                "city": "Dubai",
                "code_country": "AE"
            },
            "circle": {
                "id": "50163",
                "latitude": 23.5885,
                "longitude": 58.3805,
                "radius": 551.4439669697276
            }
        },
        {
            "marker": {
                "id": "UPB",
                "latitude": 23.0328006744,
                "longitude": -82.5793991089,
                "city": "Havana",
                "code_country": "CU"
            },
            "circle": {
                "id": "61017",
                "latitude": 25.7705,
                "longitude": -80.1925,
                "radius": 571.9469112346637
            }
        },
        {
            "marker": {
                "id": "EZE",
                "latitude": -34.8222,
                "longitude": -58.5358,
                "city": "Buenos Aires",
                "code_country": "AR"
            },
            "circle": {
                "id": "1005329",
                "latitude": -34.5085,
                "longitude": -58.4915,
                "radius": 805.9865994562928
            }
        },
        {
            "marker": {
                "id": "LIM",
                "latitude": -12.021900177,
                "longitude": -77.1143035889,
                "city": "Lima",
                "code_country": "PE"
            },
            "circle": {
                "id": "51297",
                "latitude": -11.9995,
                "longitude": -77.0485,
                "radius": 934.0984686652869
            }
        },
        {
            "marker": {
                "id": "HNL",
                "latitude": 21.3187007904,
                "longitude": -157.9219970703,
                "city": "Honolulu",
                "code_country": "US"
            },
            "circle": {
                "id": "63012",
                "latitude": 20.7185,
                "longitude": -156.4425,
                "radius": 1631.70259974313
            }
        },
        {
            "marker": {
                "id": "TAS",
                "latitude": 41.257900238,
                "longitude": 69.2811965942,
                "city": "Tashkent",
                "code_country": "UZ"
            },
            "circle": {
                "id": "1001961",
                "latitude": 52.2875,
                "longitude": 76.9705,
                "radius": 1792.1071460916705
            }
        }
    ]
}