{
    "target": "198.97.190.53",
    "measurement_filepath": "datasets/measurements/campaigns/198.97.190.53_North-Central-section_20230425/198.97.190.53_North-Central-section_1_52651836.json",
    "probes_filepath": "datasets/probes_section/North-Central-section_1.json",
    "alpha": 0.6,
    "threshold": -1,
    "noise": 0,
    "num_anycast_instances": 12,
    "anycast_instances": [
        {
            "marker": {
                "id": "FRA",
                "latitude": 50.0264015198,
                "longitude": 8.543129921,
                "city": "Frankfurt-am-Main",
                "country_code": "DE"
            },
            "circle": {
                "id": "6940",
                "latitude": 50.0975,
                "longitude": 8.6395,
                "radius": 32.144197035447
            }
        },
        {
            "marker": {
                "id": "LGW",
                "latitude": 51.1481018066,
                "longitude": -0.1902779937,
                "city": "London",
                "country_code": "GB"
            },
            "circle": {
                "id": "1002787",
                "latitude": 51.7705,
                "longitude": 0.1315,
                "radius": 117.63622213802759
            }
        },
        {
            "marker": {
                "id": "PRG",
                "latitude": 50.1007995605,
                "longitude": 14.2600002289,
                "city": "Prague",
                "country_code": "CZ"
            },
            "circle": {
                "id": "22294",
                "latitude": 47.8495,
                "longitude": 12.1215,
                "radius": 308.29325302206485
            }
        },
        {
            "marker": {
                "id": "SXF",
                "latitude": 52.3800010681,
                "longitude": 13.5225000381,
                "city": "Berlin",
                "country_code": "DE"
            },
            "circle": {
                "id": "53696",
                "latitude": 54.3105,
                "longitude": 10.1315,
                "radius": 390.2042722034583
            }
        },
        {
            "marker": {
                "id": "CIA",
                "latitude": 41.7994003296,
                "longitude": 12.5949001312,
                "city": "Rome",
                "country_code": "IT"
            },
            "circle": {
                "id": "6621",
                "latitude": 40.9475,
                "longitude": 17.2785,
                "radius": 403.25302374074346
            }
        },
        {
            "marker": {
                "id": "BHX",
                "latitude": 52.4538993835,
                "longitude": -1.7480299473,
                "city": "Birmingham",
                "country_code": "GB"
            },
            "circle": {
                "id": "1000281",
                "latitude": 56.3475,
                "longitude": -4.3885,
                "radius": 535.4220150520248
            }
        },
        {
            "marker": {
                "id": "TOJ",
                "latitude": 40.4967002869,
                "longitude": -3.4458699226,
                "city": "Madrid",
                "country_code": "ES"
            },
            "circle": {
                "id": "6667",
                "latitude": 38.7205,
                "longitude": -9.1395,
                "radius": 1327.109111479851
            }
        },
        {
            "marker": {
                "id": "PAR",
                "latitude": 49.0127983093,
                "longitude": 2.5499999523,
                "city": "Paris",
                "country_code": "FR"
            },
            "circle": {
                "id": "16987",
                "latitude": 44.7305,
                "longitude": 5.0415,
                "radius": 636.8840593403798
            }
        },
        {
            "marker": {
                "id": "DUB",
                "latitude": 53.4212989807,
                "longitude": -6.270070076,
                "city": "Dublin",
                "country_code": "IE"
            },
            "circle": {
                "id": "1000959",
                "latitude": 64.0715,
                "longitude": -22.0205,
                "radius": 1637.1251218618127
            }
        },
        {
            "marker": {
                "id": "VKO",
                "latitude": 55.5914993286,
                "longitude": 37.2615013123,
                "city": "Moscow",
                "country_code": "RU"
            },
            "circle": {
                "id": "53960",
                "latitude": 56.3475,
                "longitude": 43.9305,
                "radius": 1735.2193576354875
            }
        },
        {
            "marker": {
                "id": "SAW",
                "latitude": 40.898601532,
                "longitude": 29.3092002869,
                "city": "Istanbul",
                "country_code": "TR"
            },
            "circle": {
                "id": "1003038",
                "latitude": 43.2215,
                "longitude": 27.9285,
                "radius": 1191.3993164160004
            }
        },
        {
            "marker": {
                "id": "LED",
                "latitude": 59.8003005981,
                "longitude": 30.2625007629,
                "city": "St Petersburg",
                "country_code": "RU"
            },
            "circle": {
                "id": "34341",
                "latitude": 63.3675,
                "longitude": 10.3395,
                "radius": 1229.2799222182941
            }
        }
    ]
}