{
    "target": "104.16.123.96",
    "measurement_filepath": "datasets/measurements/campaigns/104.16.123.96_North-Central_20230418/104.16.123.96_North-Central_100_52452353.json",
    "probes_filepath": "datasets/probes_sets/North-Central_100.json",
    "alpha": 1,
    "threshold": 20.0,
    "noise": 0,
    "num_anycast_instances": 18,
    "anycast_instances": [
        {
            "marker": {
                "id": "AMX",
                "latitude": 52.3086013794,
                "longitude": 4.7638897896,
                "city": "Amsterdam",
                "country_code": "NL"
            },
            "circle": {
                "id": "10986",
                "latitude": 52.3605,
                "longitude": 4.9515,
                "radius": 68.17460370394801
            }
        },
        {
            "marker": {
                "id": "DEX",
                "latitude": 50.121212,
                "longitude": 8.6365638,
                "city": "Frankfurt-am-Main",
                "country_code": "DE"
            },
            "circle": {
                "id": "1003939",
                "latitude": 50.1115,
                "longitude": 8.6785,
                "radius": 71.8843554962232
            }
        },
        {
            "marker": {
                "id": "CPH",
                "latitude": 55.6179008484,
                "longitude": 12.6560001373,
                "city": "Copenhagen",
                "country_code": "DK"
            },
            "circle": {
                "id": "11289",
                "latitude": 55.7115,
                "longitude": 12.5715,
                "radius": 90.1777512418748
            }
        },
        {
            "marker": {
                "id": "SOF",
                "latitude": 42.6966934204,
                "longitude": 23.4114360809,
                "city": "Sofia",
                "country_code": "BG"
            },
            "circle": {
                "id": "16245",
                "latitude": 42.6895,
                "longitude": 23.3195,
                "radius": 92.710517844042
            }
        },
        {
            "marker": {
                "id": "PAR",
                "latitude": 49.0127983093,
                "longitude": 2.5499999523,
                "city": "Paris",
                "country_code": "FR"
            },
            "circle": {
                "id": "52786",
                "latitude": 48.9305,
                "longitude": 2.3615,
                "radius": 99.46616100959719
            }
        },
        {
            "marker": {
                "id": "EVN",
                "latitude": 40.1473007202,
                "longitude": 44.3959007263,
                "city": "Yerevan",
                "country_code": "AM"
            },
            "circle": {
                "id": "1004560",
                "latitude": 40.1675,
                "longitude": 44.5205,
                "radius": 103.1397578314376
            }
        },
        {
            "marker": {
                "id": "RIX",
                "latitude": 56.9235992432,
                "longitude": 23.9710998535,
                "city": "Riga",
                "country_code": "LV"
            },
            "circle": {
                "id": "53256",
                "latitude": 56.6505,
                "longitude": 23.7195,
                "radius": 112.8293498664556
            }
        },
        {
            "marker": {
                "id": "ZAG",
                "latitude": 45.7429008484,
                "longitude": 16.0687999725,
                "city": "Zagreb",
                "country_code": "HR"
            },
            "circle": {
                "id": "13593",
                "latitude": 46.3085,
                "longitude": 16.3415,
                "radius": 120.77139170529999
            }
        },
        {
            "marker": {
                "id": "LED",
                "latitude": 59.8003005981,
                "longitude": 30.2625007629,
                "city": "St Petersburg",
                "country_code": "RU"
            },
            "circle": {
                "id": "55004",
                "latitude": 59.9295,
                "longitude": 30.3575,
                "radius": 121.04869972894998
            }
        },
        {
            "marker": {
                "id": "LIN",
                "latitude": 45.445098877,
                "longitude": 9.2767400742,
                "city": "Milan",
                "country_code": "IT"
            },
            "circle": {
                "id": "1005409",
                "latitude": 45.5715,
                "longitude": 9.0175,
                "radius": 123.08279155647999
            }
        },
        {
            "marker": {
                "id": "FICIX",
                "latitude": 60.1733244,
                "longitude": 24.9410248,
                "city": "Helsinki",
                "country_code": "FI"
            },
            "circle": {
                "id": "31700",
                "latitude": 60.2275,
                "longitude": 24.9575,
                "radius": 150.2141289224632
            }
        },
        {
            "marker": {
                "id": "ARN",
                "latitude": 59.6519012451,
                "longitude": 17.9186000824,
                "city": "Stockholm",
                "country_code": "SE"
            },
            "circle": {
                "id": "35682",
                "latitude": 58.6085,
                "longitude": 16.1515,
                "radius": 252.8913069912068
            }
        },
        {
            "marker": {
                "id": "BIX",
                "latitude": 47.4812134,
                "longitude": 19.1303031,
                "city": "Budapest",
                "country_code": "HU"
            },
            "circle": {
                "id": "62495",
                "latitude": 47.4895,
                "longitude": 19.0715,
                "radius": 253.73516280198518
            }
        },
        {
            "marker": {
                "id": "WAW",
                "latitude": 52.1656990051,
                "longitude": 20.9671001434,
                "city": "Warsaw",
                "country_code": "PL"
            },
            "circle": {
                "id": "34535",
                "latitude": 53.4095,
                "longitude": 21.9285,
                "radius": 257.37134552506717
            }
        },
        {
            "marker": {
                "id": "NIX",
                "latitude": 60.193901062,
                "longitude": 11.100399971,
                "city": "Oslo",
                "country_code": "NO"
            },
            "circle": {
                "id": "55642",
                "latitude": 60.7885,
                "longitude": 11.0595,
                "radius": 258.8408082372
            }
        },
        {
            "marker": {
                "id": "BQH",
                "latitude": 51.3307991028,
                "longitude": 0.0324999988,
                "city": "London",
                "country_code": "GB"
            },
            "circle": {
                "id": "52935",
                "latitude": 52.4495,
                "longitude": -1.7015,
                "radius": 295.45296217044995
            }
        },
        {
            "marker": {
                "id": "GML",
                "latitude": 50.6035003662,
                "longitude": 30.1919002533,
                "city": "Kiev",
                "country_code": "UA"
            },
            "circle": {
                "id": "52295",
                "latitude": 49.5895,
                "longitude": 34.5515,
                "radius": 417.06125450150284
            }
        },
        {
            "marker": {
                "id": "ECV",
                "latitude": 40.3707008362,
                "longitude": -3.7851400375,
                "city": "Madrid",
                "country_code": "ES"
            },
            "circle": {
                "id": "50272",
                "latitude": 37.2885,
                "longitude": -5.9195,
                "radius": 553.0046628382499
            }
        }
    ]
}