{
    "target": "192.33.4.12",
    "measurement_filepath": "datasets/measurements/campaigns/192.33.4.12_North-Central_20230410/192.33.4.12_North-Central_100_52069786.json",
    "probes_filepath": "datasets/probes_sets/North-Central_100.json",
    "alpha": 0.0,
    "threshold": -1,
    "noise": 0,
    "num_anycast_instances": 18,
    "anycast_instances": [
        {
            "marker": {
                "id": "FRA",
                "latitude": 50.0264015198,
                "longitude": 8.543129921,
                "city": "Frankfurt-am-Main",
                "country_code": "DE"
            },
            "circle": {
                "id": "1004809",
                "latitude": 50.1015,
                "longitude": 8.6275,
                "radius": 15.082990263119518
            }
        },
        {
            "marker": {
                "id": "EVX",
                "latitude": 49.0287017822,
                "longitude": 1.2198599577,
                "city": "\u00c9vreux/Fauville",
                "country_code": "FR"
            },
            "circle": {
                "id": "12392",
                "latitude": 48.8485,
                "longitude": 2.6415,
                "radius": 111.87016989293376
            }
        },
        {
            "marker": {
                "id": "SZG",
                "latitude": 47.7933006287,
                "longitude": 13.0043001175,
                "city": "Salzburg",
                "country_code": "AT"
            },
            "circle": {
                "id": "62877",
                "latitude": 48.0505,
                "longitude": 14.5105,
                "radius": 136.18854263380464
            }
        },
        {
            "marker": {
                "id": "PNA",
                "latitude": 42.7700004578,
                "longitude": -1.646329999,
                "city": "Pamplona",
                "country_code": "ES"
            },
            "circle": {
                "id": "23268",
                "latitude": 41.6515,
                "longitude": -0.8895,
                "radius": 152.30543014475333
            }
        },
        {
            "marker": {
                "id": "SPM",
                "latitude": 49.9726982117,
                "longitude": 6.6925001144,
                "city": "Trier",
                "country_code": "DE"
            },
            "circle": {
                "id": "51022",
                "latitude": 51.4885,
                "longitude": 6.8685,
                "radius": 170.06216141548998
            }
        },
        {
            "marker": {
                "id": "SIR",
                "latitude": 46.2196006775,
                "longitude": 7.3267598152,
                "city": "Sion",
                "country_code": "CH"
            },
            "circle": {
                "id": "61988",
                "latitude": 47.4915,
                "longitude": 8.7215,
                "radius": 187.48265146118297
            }
        },
        {
            "marker": {
                "id": "YEO",
                "latitude": 51.0093994141,
                "longitude": -2.6388199329,
                "city": "Yeovil",
                "country_code": "GB"
            },
            "circle": {
                "id": "1003587",
                "latitude": 51.5105,
                "longitude": -0.0185,
                "radius": 198.7614103388886
            }
        },
        {
            "marker": {
                "id": "QAM",
                "latitude": 49.8730010986,
                "longitude": 2.3870699406,
                "city": "Amiens/Glisy",
                "country_code": "FR"
            },
            "circle": {
                "id": "1004432",
                "latitude": 51.0185,
                "longitude": 2.1585,
                "radius": 139.7426571715091
            }
        },
        {
            "marker": {
                "id": "DTM",
                "latitude": 51.5182991028,
                "longitude": 7.6122398377,
                "city": "Dortmund",
                "country_code": "DE"
            },
            "circle": {
                "id": "62645",
                "latitude": 52.3595,
                "longitude": 4.9495,
                "radius": 207.54895684703038
            }
        },
        {
            "marker": {
                "id": "SCV",
                "latitude": 47.6875,
                "longitude": 26.3540992737,
                "city": "Suceava",
                "country_code": "RO"
            },
            "circle": {
                "id": "13370",
                "latitude": 47.5375,
                "longitude": 21.6105,
                "radius": 362.94728282455355
            }
        },
        {
            "marker": {
                "id": "CBU",
                "latitude": 51.8894424438,
                "longitude": 14.5319442749,
                "city": "Cottbus",
                "country_code": "DE"
            },
            "circle": {
                "id": "53200",
                "latitude": 49.9475,
                "longitude": 14.6875,
                "radius": 216.6982149474475
            }
        },
        {
            "marker": {
                "id": "QYD",
                "latitude": 54.57970047,
                "longitude": 18.51720047,
                "city": "Gdynia",
                "country_code": "PL"
            },
            "circle": {
                "id": "13297",
                "latitude": 55.7105,
                "longitude": 12.5215,
                "radius": 402.86803626202897
            }
        },
        {
            "marker": {
                "id": "ROZ",
                "latitude": 36.645198822,
                "longitude": -6.349460125,
                "city": "Rota",
                "country_code": "ES"
            },
            "circle": {
                "id": "60986",
                "latitude": 41.1305,
                "longitude": -8.6485,
                "radius": 583.307105893446
            }
        },
        {
            "marker": {
                "id": "LBC",
                "latitude": 53.8054008484,
                "longitude": 10.7192001343,
                "city": "L\u00fcbeck",
                "country_code": "DE"
            },
            "circle": {
                "id": "1001345",
                "latitude": 59.9395,
                "longitude": 10.7095,
                "radius": 682.3648446478869
            }
        },
        {
            "marker": {
                "id": "VKO",
                "latitude": 55.5914993286,
                "longitude": 37.2615013123,
                "city": "Moscow",
                "country_code": "RU"
            },
            "circle": {
                "id": "53249",
                "latitude": 48.7415,
                "longitude": 37.5795,
                "radius": 774.4133757757962
            }
        },
        {
            "marker": {
                "id": "PNV",
                "latitude": 55.7294006348,
                "longitude": 24.4608001709,
                "city": "Panev\u0117\u017eys",
                "country_code": "LT"
            },
            "circle": {
                "id": "1002211",
                "latitude": 62.3875,
                "longitude": 17.3075,
                "radius": 848.234999129389
            }
        },
        {
            "marker": {
                "id": "KLU",
                "latitude": 46.6425018311,
                "longitude": 14.3376998901,
                "city": "Klagenfurt am W\u00f6rthersee",
                "country_code": "AT"
            },
            "circle": {
                "id": "50991",
                "latitude": 35.9075,
                "longitude": 14.4315,
                "radius": 1198.5485211245687
            }
        },
        {
            "marker": {
                "id": "PVK",
                "latitude": 38.9254989624,
                "longitude": 20.7653007507,
                "city": "Preveza/Lefkada",
                "country_code": "GR"
            },
            "circle": {
                "id": "28911",
                "latitude": 42.4575,
                "longitude": 24.9375,
                "radius": 540.0598793253994
            }
        }
    ]
}