{
    "target": "199.7.83.42",
    "measurement_filepath": "datasets/measurements/campaigns/199.7.83.42_North-Central_20230410/199.7.83.42_North-Central_100_52100083.json",
    "probes_filepath": "datasets/probes_sets/North-Central_100.json",
    "alpha": 0.2,
    "threshold": -1,
    "noise": 0,
    "num_anycast_instances": 9,
    "anycast_instances": [
        {
            "marker": {
                "id": "DME",
                "latitude": 55.4087982178,
                "longitude": 37.9062995911,
                "city": "Moscow",
                "country_code": "RU"
            },
            "circle": {
                "id": "55228",
                "latitude": 55.7915,
                "longitude": 37.4685,
                "radius": 73.5540795703
            }
        },
        {
            "marker": {
                "id": "PRG",
                "latitude": 50.1007995605,
                "longitude": 14.2600002289,
                "city": "Prague",
                "country_code": "CZ"
            },
            "circle": {
                "id": "33280",
                "latitude": 50.0275,
                "longitude": 15.7815,
                "radius": 119.16900101729
            }
        },
        {
            "marker": {
                "id": "PVN",
                "latitude": 43.4514007568,
                "longitude": 24.5027999878,
                "city": "Dolna Mitropoliya",
                "country_code": "BG"
            },
            "circle": {
                "id": "61674",
                "latitude": 44.8495,
                "longitude": 24.8705,
                "radius": 180.49904311264
            }
        },
        {
            "marker": {
                "id": "OMH",
                "latitude": 37.6680984497,
                "longitude": 45.0686988831,
                "city": "Urmia",
                "country_code": "IR"
            },
            "circle": {
                "id": "60131",
                "latitude": 36.8575,
                "longitude": 42.9885,
                "radius": 221.54650654501683
            }
        },
        {
            "marker": {
                "id": "PAR",
                "latitude": 49.0127983093,
                "longitude": 2.5499999523,
                "city": "Paris",
                "country_code": "FR"
            },
            "circle": {
                "id": "54074",
                "latitude": 48.5095,
                "longitude": 2.2705,
                "radius": 235.53194462769997
            }
        },
        {
            "marker": {
                "id": "ARN",
                "latitude": 59.6519012451,
                "longitude": 17.9186000824,
                "city": "Stockholm",
                "country_code": "SE"
            },
            "circle": {
                "id": "50989",
                "latitude": 58.4215,
                "longitude": 15.6215,
                "radius": 240.50352287569723
            }
        },
        {
            "marker": {
                "id": "CGN",
                "latitude": 50.8658981323,
                "longitude": 7.1427397728,
                "city": "Cologne",
                "country_code": "DE"
            },
            "circle": {
                "id": "1001132",
                "latitude": 47.4185,
                "longitude": 8.5785,
                "radius": 403.1608975184
            }
        },
        {
            "marker": {
                "id": "LWO",
                "latitude": 49.8125,
                "longitude": 23.9561004639,
                "city": "Lviv",
                "country_code": "UA"
            },
            "circle": {
                "id": "1003500",
                "latitude": 53.6975,
                "longitude": 23.8475,
                "radius": 448.3913651172508
            }
        },
        {
            "marker": {
                "id": "ROM",
                "latitude": 41.799444,
                "longitude": 12.597222,
                "city": "Rome",
                "country_code": "IT"
            },
            "circle": {
                "id": "22979",
                "latitude": 45.4715,
                "longitude": 9.0405,
                "radius": 499.03512517171606
            }
        }
    ]
}