{
    "target": "199.7.91.13",
    "measurement_filepath": "datasets/measurements/campaigns/199.7.91.13_North-Central-section_20230425/199.7.91.13_North-Central-section_2_52646325.json",
    "probes_filepath": "datasets/probes_section/North-Central-section_2.json",
    "alpha": 1,
    "threshold": 30.0,
    "noise": 0,
    "num_anycast_instances": 29,
    "anycast_instances": [
        {
            "marker": {
                "id": "RIX",
                "latitude": 56.9235992432,
                "longitude": 23.9710998535,
                "city": "Riga",
                "country_code": "LV"
            },
            "circle": {
                "id": "1005505",
                "latitude": 56.9495,
                "longitude": 24.0975,
                "radius": 30.6863962499304
            }
        },
        {
            "marker": {
                "id": "NIX",
                "latitude": 60.193901062,
                "longitude": 11.100399971,
                "city": "Oslo",
                "country_code": "NO"
            },
            "circle": {
                "id": "6269",
                "latitude": 59.9415,
                "longitude": 10.8305,
                "radius": 34.429784755993204
            }
        },
        {
            "marker": {
                "id": "BMA",
                "latitude": 59.3544006348,
                "longitude": 17.9416999817,
                "city": "Stockholm",
                "country_code": "SE"
            },
            "circle": {
                "id": "28970",
                "latitude": 59.3375,
                "longitude": 18.1005,
                "radius": 34.9218640965544
            }
        },
        {
            "marker": {
                "id": "ECV",
                "latitude": 40.3707008362,
                "longitude": -3.7851400375,
                "city": "Madrid",
                "country_code": "ES"
            },
            "circle": {
                "id": "12170",
                "latitude": 40.4875,
                "longitude": -3.6895,
                "radius": 66.2507755424704
            }
        },
        {
            "marker": {
                "id": "WAW",
                "latitude": 52.1656990051,
                "longitude": 20.9671001434,
                "city": "Warsaw",
                "country_code": "PL"
            },
            "circle": {
                "id": "13248",
                "latitude": 52.2415,
                "longitude": 21.0195,
                "radius": 69.0776985044272
            }
        },
        {
            "marker": {
                "id": "MRS",
                "latitude": 43.439271922,
                "longitude": 5.2214241028,
                "city": "Marseille",
                "country_code": "FR"
            },
            "circle": {
                "id": "51973",
                "latitude": 43.3085,
                "longitude": 5.3705,
                "radius": 79.3451105229944
            }
        },
        {
            "marker": {
                "id": "ZRH",
                "latitude": 47.4646987915,
                "longitude": 8.5491695404,
                "city": "Zurich",
                "country_code": "CH"
            },
            "circle": {
                "id": "7131",
                "latitude": 47.4975,
                "longitude": 8.7185,
                "radius": 98.01804352047401
            }
        },
        {
            "marker": {
                "id": "SOF",
                "latitude": 42.6966934204,
                "longitude": 23.4114360809,
                "city": "Sofia",
                "country_code": "BG"
            },
            "circle": {
                "id": "16245",
                "latitude": 42.6895,
                "longitude": 23.3195,
                "radius": 100.28837180490801
            }
        },
        {
            "marker": {
                "id": "FICIX",
                "latitude": 60.1733244,
                "longitude": 24.9410248,
                "city": "Helsinki",
                "country_code": "FI"
            },
            "circle": {
                "id": "705",
                "latitude": 59.4395,
                "longitude": 24.7075,
                "radius": 106.1409801284756
            }
        },
        {
            "marker": {
                "id": "EVN",
                "latitude": 40.1473007202,
                "longitude": 44.3959007263,
                "city": "Yerevan",
                "country_code": "AM"
            },
            "circle": {
                "id": "1004560",
                "latitude": 40.1675,
                "longitude": 44.5205,
                "radius": 117.8577687644896
            }
        },
        {
            "marker": {
                "id": "KEF",
                "latitude": 63.9850006104,
                "longitude": -22.6056003571,
                "city": "Reykjav\u00edk",
                "country_code": "IS"
            },
            "circle": {
                "id": "1000959",
                "latitude": 64.0715,
                "longitude": -22.0205,
                "radius": 122.74630450162078
            }
        },
        {
            "marker": {
                "id": "TUN",
                "latitude": 36.8510017395,
                "longitude": 10.2271995544,
                "city": "Tunis",
                "country_code": "TN"
            },
            "circle": {
                "id": "567",
                "latitude": 36.8205,
                "longitude": 10.1805,
                "radius": 145.83446090354118
            }
        },
        {
            "marker": {
                "id": "IST",
                "latitude": 40.9768981934,
                "longitude": 28.8145999908,
                "city": "Istanbul",
                "country_code": "TR"
            },
            "circle": {
                "id": "55634",
                "latitude": 41.0095,
                "longitude": 29.1585,
                "radius": 152.39200121285
            }
        },
        {
            "marker": {
                "id": "BCN",
                "latitude": 41.2971000671,
                "longitude": 2.0784599781,
                "city": "Barcelona",
                "country_code": "ES"
            },
            "circle": {
                "id": "22806",
                "latitude": 41.2805,
                "longitude": 1.9875,
                "radius": 186.9170600119956
            }
        },
        {
            "marker": {
                "id": "WIE",
                "latitude": 48.1102981567,
                "longitude": 16.5697002411,
                "city": "Vienna",
                "country_code": "AT"
            },
            "circle": {
                "id": "21236",
                "latitude": 48.0605,
                "longitude": 14.4485,
                "radius": 189.2739083998084
            }
        },
        {
            "marker": {
                "id": "PAR",
                "latitude": 49.0127983093,
                "longitude": 2.5499999523,
                "city": "Paris",
                "country_code": "FR"
            },
            "circle": {
                "id": "7071",
                "latitude": 49.2275,
                "longitude": 4.0305,
                "radius": 222.99762195872
            }
        },
        {
            "marker": {
                "id": "ATH",
                "latitude": 37.9364013672,
                "longitude": 23.9444999695,
                "city": "Athens",
                "country_code": "GR"
            },
            "circle": {
                "id": "12891",
                "latitude": 38.0575,
                "longitude": 23.7815,
                "radius": 226.344205167374
            }
        },
        {
            "marker": {
                "id": "LIN",
                "latitude": 45.445098877,
                "longitude": 9.2767400742,
                "city": "Milan",
                "country_code": "IT"
            },
            "circle": {
                "id": "30259",
                "latitude": 45.1015,
                "longitude": 7.4195,
                "radius": 232.2198975102076
            }
        },
        {
            "marker": {
                "id": "PRG",
                "latitude": 50.1007995605,
                "longitude": 14.2600002289,
                "city": "Prague",
                "country_code": "CZ"
            },
            "circle": {
                "id": "1004220",
                "latitude": 50.4175,
                "longitude": 16.1685,
                "radius": 246.46627494833405
            }
        },
        {
            "marker": {
                "id": "GOT",
                "latitude": 57.6627998352,
                "longitude": 12.279800415,
                "city": "Gothenburg",
                "country_code": "SE"
            },
            "circle": {
                "id": "21552",
                "latitude": 58.1585,
                "longitude": 8.0195,
                "radius": 267.12449356118117
            }
        },
        {
            "marker": {
                "id": "BBU",
                "latitude": 44.503200531,
                "longitude": 26.1021003723,
                "city": "Bucharest",
                "country_code": "RO"
            },
            "circle": {
                "id": "189",
                "latitude": 44.4615,
                "longitude": 26.0715,
                "radius": 267.86198300786117
            }
        },
        {
            "marker": {
                "id": "GML",
                "latitude": 50.6035003662,
                "longitude": 30.1919002533,
                "city": "Kiev",
                "country_code": "UA"
            },
            "circle": {
                "id": "4498",
                "latitude": 50.2615,
                "longitude": 28.6815,
                "radius": 282.9197187543188
            }
        },
        {
            "marker": {
                "id": "LIS",
                "latitude": 38.7812995911,
                "longitude": -9.1359195709,
                "city": "Lisbon",
                "country_code": "PT"
            },
            "circle": {
                "id": "3265",
                "latitude": 38.6095,
                "longitude": -9.0795,
                "radius": 290.60975505296835
            }
        },
        {
            "marker": {
                "id": "UME",
                "latitude": 63.7918014526,
                "longitude": 20.2828006744,
                "city": "Ume\u00e5",
                "country_code": "SE"
            },
            "circle": {
                "id": "10638",
                "latitude": 64.2315,
                "longitude": 27.7285,
                "radius": 407.1077251864616
            }
        },
        {
            "marker": {
                "id": "BQH",
                "latitude": 51.3307991028,
                "longitude": 0.0324999988,
                "city": "London",
                "country_code": "GB"
            },
            "circle": {
                "id": "13062",
                "latitude": 51.5185,
                "longitude": -3.4995,
                "radius": 434.98332730867565
            }
        },
        {
            "marker": {
                "id": "CIA",
                "latitude": 41.7994003296,
                "longitude": 12.5949001312,
                "city": "Rome",
                "country_code": "IT"
            },
            "circle": {
                "id": "10068",
                "latitude": 44.1215,
                "longitude": 15.2305,
                "radius": 449.26298170964003
            }
        },
        {
            "marker": {
                "id": "SXF",
                "latitude": 52.3800010681,
                "longitude": 13.5225000381,
                "city": "Berlin",
                "country_code": "DE"
            },
            "circle": {
                "id": "11662",
                "latitude": 53.5985,
                "longitude": 10.0505,
                "radius": 452.88513414568763
            }
        },
        {
            "marker": {
                "id": "HAM",
                "latitude": 53.6304016113,
                "longitude": 9.9882297516,
                "city": "Hamburg",
                "country_code": "DE"
            },
            "circle": {
                "id": "16980",
                "latitude": 53.0875,
                "longitude": 6.6715,
                "radius": 350.24285191905517
            }
        },
        {
            "marker": {
                "id": "CKL",
                "latitude": 55.8782997131,
                "longitude": 38.0616989136,
                "city": "Moscow",
                "country_code": "RU"
            },
            "circle": {
                "id": "15968",
                "latitude": 56.3315,
                "longitude": 36.7105,
                "radius": 629.0956461466376
            }
        }
    ]
}