{
    "target": "192.5.5.241",
    "measurement_filepath": "datasets/measurements/campaigns/192.5.5.241_North-Central-section_20230425/192.5.5.241_North-Central-section_1.5_52649771.json",
    "probes_filepath": "datasets/probes_section/North-Central-section_1.5.json",
    "alpha": 1,
    "threshold": 1.0,
    "noise": 0,
    "num_anycast_instances": 8,
    "anycast_instances": [
        {
            "marker": {
                "id": "KIV",
                "latitude": 46.9277000427,
                "longitude": 28.9309997559,
                "city": "Chi\u015fin\u0103u",
                "country_code": "MD"
            },
            "circle": {
                "id": "11874",
                "latitude": 47.0295,
                "longitude": 28.8405,
                "radius": 19.979488487935203
            }
        },
        {
            "marker": {
                "id": "CPH",
                "latitude": 55.6179008484,
                "longitude": 12.6560001373,
                "city": "Copenhagen",
                "country_code": "DK"
            },
            "circle": {
                "id": "6714",
                "latitude": 55.6595,
                "longitude": 12.2975,
                "radius": 28.626222478554403
            }
        },
        {
            "marker": {
                "id": "NLV",
                "latitude": 47.0578994751,
                "longitude": 31.9197998047,
                "city": "Nikolayev",
                "country_code": "UA"
            },
            "circle": {
                "id": "6414",
                "latitude": 46.9795,
                "longitude": 31.9875,
                "radius": 31.188368741605604
            }
        },
        {
            "marker": {
                "id": "BCN",
                "latitude": 41.2971000671,
                "longitude": 2.0784599781,
                "city": "Barcelona",
                "country_code": "ES"
            },
            "circle": {
                "id": "32626",
                "latitude": 41.3905,
                "longitude": 2.1085,
                "radius": 35.713975729082
            }
        },
        {
            "marker": {
                "id": "VNO",
                "latitude": 54.6341018677,
                "longitude": 25.2858009338,
                "city": "Vilnius",
                "country_code": "LT"
            },
            "circle": {
                "id": "1002105",
                "latitude": 54.6395,
                "longitude": 25.3075,
                "radius": 40.067022177733605
            }
        },
        {
            "marker": {
                "id": "EBL",
                "latitude": 36.2375984192,
                "longitude": 43.9631996155,
                "city": "Arbil",
                "country_code": "IQ"
            },
            "circle": {
                "id": "7020",
                "latitude": 36.2375,
                "longitude": 44.0085,
                "radius": 46.5570492255008
            }
        },
        {
            "marker": {
                "id": "BIX",
                "latitude": 47.4812134,
                "longitude": 19.1303031,
                "city": "Budapest",
                "country_code": "HU"
            },
            "circle": {
                "id": "50644",
                "latitude": 47.5195,
                "longitude": 19.0595,
                "radius": 48.483935270050004
            }
        },
        {
            "marker": {
                "id": "LIN",
                "latitude": 45.445098877,
                "longitude": 9.2767400742,
                "city": "Milan",
                "country_code": "IT"
            },
            "circle": {
                "id": "13816",
                "latitude": 45.4805,
                "longitude": 9.0975,
                "radius": 50.6173783181612
            }
        }
    ]
}