{
    "target": "104.16.123.96",
    "probes_filepath": "datasets/probes_section/North-Central-section_1.5.json",
    "alpha": 1.0,
    "threshold": -1,
    "noise": 0,
    "results_filepath": "datasets/results/campaigns/104.16.123.96_North-Central-section_20230426_alpha_light-factor_0.18/104.16.123.96_North-Central-section_1.5_52673295_1.0_-1_0.json",
    "gt_filepath": "datasets/ground-truth/cloudfare/cloudfare_servers_europe.json",
    "statistics": {
        "TP": 35,
        "FP": 49,
        "TN": 0,
        "FN": 20,
        "accuracy": 0.33653846153846156,
        "precision": 0.4166666666666667,
        "recall": 0.6363636363636364,
        "f1": 0.5035971223021583,
        "OT": 0,
        "OF": 2
    },
    "instances": [
        {
            "country_code": "AL",
            "city": "Tirana",
            "latitude": 41.4146995544,
            "longitude": 19.7206001282,
            "type": "FN"
        },
        {
            "country_code": "AM",
            "city": "Yerevan",
            "latitude": 40.1473007202,
            "longitude": 44.3959007263,
            "type": "FP"
        },
        {
            "country_code": "AT",
            "city": "Vienna",
            "latitude": 48.1102981567,
            "longitude": 16.5697002411,
            "type": "TP"
        },
        {
            "country_code": "BE",
            "city": "Brussels",
            "latitude": 50.4592018127,
            "longitude": 4.4538202286,
            "type": "TP"
        },
        {
            "country_code": "BG",
            "city": "Plovdiv",
            "latitude": 42.0677986145,
            "longitude": 24.8507995605,
            "type": "FP"
        },
        {
            "country_code": "BG",
            "city": "Sofia",
            "latitude": 42.6966934204,
            "longitude": 23.4114360809,
            "type": "TP"
        },
        {
            "country_code": "BY",
            "city": "Minsk",
            "latitude": 53.8824996948,
            "longitude": 28.0307006836,
            "type": "FN"
        },
        {
            "country_code": "BY",
            "city": "Vitebsk",
            "latitude": 55.126499176,
            "longitude": 30.3495998383,
            "type": "FP"
        },
        {
            "country_code": "CH",
            "city": "Geneva",
            "latitude": 46.204705,
            "longitude": 6.1431301,
            "type": "TP"
        },
        {
            "country_code": "CH",
            "city": "Zurich",
            "latitude": 47.4646987915,
            "longitude": 8.5491695404,
            "type": "TP"
        },
        {
            "country_code": "CY",
            "city": "Nicosia",
            "latitude": 34.8750991821,
            "longitude": 33.6249008179,
            "type": "FN"
        },
        {
            "country_code": "CZ",
            "city": "Brno",
            "latitude": 49.1512985229,
            "longitude": 16.6944007874,
            "type": "FP"
        },
        {
            "country_code": "CZ",
            "city": "Pardubice",
            "latitude": 50.0134010315,
            "longitude": 15.7385997772,
            "type": "FP"
        },
        {
            "country_code": "CZ",
            "city": "Prague",
            "latitude": 50.1007995605,
            "longitude": 14.2600002289,
            "type": "TP"
        },
        {
            "country_code": "DE",
            "city": "Berlin",
            "latitude": 52.3800010681,
            "longitude": 13.5225000381,
            "type": "TP"
        },
        {
            "country_code": "DE",
            "city": "Cologne",
            "latitude": 50.8658981323,
            "longitude": 7.1427397728,
            "type": "TP"
        },
        {
            "country_code": "DE",
            "city": "Frankfurt",
            "latitude": 50.0264015198,
            "longitude": 8.543129921,
            "type": "FN"
        },
        {
            "country_code": "DE",
            "city": "Hamburg",
            "latitude": 53.6304016113,
            "longitude": 9.9882297516,
            "type": "TP"
        },
        {
            "country_code": "DE",
            "city": "Munich",
            "latitude": 48.3538017273,
            "longitude": 11.7861003876,
            "type": "TP"
        },
        {
            "country_code": "DE",
            "city": "Stuttgart",
            "latitude": 48.6898994446,
            "longitude": 9.2219600677,
            "type": "FN"
        },
        {
            "country_code": "DK",
            "city": "Copenhagen",
            "latitude": 55.6179008484,
            "longitude": 12.6560001373,
            "type": "TP"
        },
        {
            "country_code": "DK",
            "city": "Odense",
            "latitude": 55.4766998291,
            "longitude": 10.3309001923,
            "type": "FP"
        },
        {
            "country_code": "EE",
            "city": "Tallinn",
            "latitude": 59.4132995605,
            "longitude": 24.8327999115,
            "type": "TP"
        },
        {
            "country_code": "ES",
            "city": "Barcelona",
            "latitude": 41.2971000671,
            "longitude": 2.0784599781,
            "type": "TP"
        },
        {
            "country_code": "ES",
            "city": "Madrid",
            "latitude": 40.3707008362,
            "longitude": -3.7851400375,
            "type": "TP"
        },
        {
            "country_code": "ES",
            "city": "Sevilla",
            "latitude": 37.4179992676,
            "longitude": -5.8931097984,
            "type": "FP"
        },
        {
            "country_code": "ES",
            "city": "Valencia",
            "latitude": 39.4892997742,
            "longitude": -0.4816249907,
            "type": "FP"
        },
        {
            "country_code": "ES",
            "city": "Valladolid",
            "latitude": 41.7061004639,
            "longitude": -4.851940155,
            "type": "FP"
        },
        {
            "country_code": "ES",
            "city": "Zaragoza",
            "latitude": 41.6661987305,
            "longitude": -1.0415500402,
            "type": "FP"
        },
        {
            "country_code": "FI",
            "city": "Helsinki",
            "latitude": 60.317199707,
            "longitude": 24.963300705,
            "type": "FN"
        },
        {
            "country_code": "FI",
            "city": "Pori",
            "latitude": 61.4617004395,
            "longitude": 21.7999992371,
            "type": "FP"
        },
        {
            "country_code": "FR",
            "city": "Marseille",
            "latitude": 43.439271922,
            "longitude": 5.2214241028,
            "type": "FN"
        },
        {
            "country_code": "FR",
            "city": "Paris",
            "latitude": 49.0127983093,
            "longitude": 2.5499999523,
            "type": "FN"
        },
        {
            "country_code": "FR",
            "city": "Tours/Val de Loire (Loire Valley)",
            "latitude": 47.4322013855,
            "longitude": 0.7276059985,
            "type": "FP"
        },
        {
            "country_code": "GB",
            "city": "Birmingham",
            "latitude": 52.4538993835,
            "longitude": -1.7480299473,
            "type": "FP"
        },
        {
            "country_code": "GB",
            "city": "Bristol",
            "latitude": 51.3827018738,
            "longitude": -2.7190899849,
            "type": "FP"
        },
        {
            "country_code": "GB",
            "city": "Edinburgh",
            "latitude": 55.9500007629,
            "longitude": -3.3724999428,
            "type": "FN"
        },
        {
            "country_code": "GB",
            "city": "London",
            "latitude": 51.3307991028,
            "longitude": 0.0324999988,
            "type": "TP"
        },
        {
            "country_code": "GB",
            "city": "Manchester",
            "latitude": 53.3536987305,
            "longitude": -2.2749500275,
            "type": "FN"
        },
        {
            "country_code": "GE",
            "city": "Tbilisi",
            "latitude": 41.6692008972,
            "longitude": 44.95470047,
            "type": "FN"
        },
        {
            "country_code": "GR",
            "city": "Athens",
            "latitude": 37.9364013672,
            "longitude": 23.9444999695,
            "type": "FN"
        },
        {
            "country_code": "GR",
            "city": "Patras",
            "latitude": 38.1511001587,
            "longitude": 21.4256000519,
            "type": "FP"
        },
        {
            "country_code": "GR",
            "city": "Thessaloniki",
            "latitude": 40.5196990967,
            "longitude": 22.9708995819,
            "type": "FN"
        },
        {
            "country_code": "HR",
            "city": "Zagreb",
            "latitude": 45.7429008484,
            "longitude": 16.0687999725,
            "type": "TP"
        },
        {
            "country_code": "HU",
            "city": "Budapest",
            "latitude": 47.4812134,
            "longitude": 19.1303031,
            "type": "TP"
        },
        {
            "country_code": "IE",
            "city": "Cork",
            "latitude": 51.8413009644,
            "longitude": -8.491109848,
            "type": "TP"
        },
        {
            "country_code": "IE",
            "city": "Dublin",
            "latitude": 53.4212989807,
            "longitude": -6.270070076,
            "type": "TP"
        },
        {
            "country_code": "IE",
            "city": "Galway",
            "latitude": 53.300201416,
            "longitude": -8.9415903091,
            "type": "FP"
        },
        {
            "country_code": "IQ",
            "city": "Arbil",
            "latitude": 36.2375984192,
            "longitude": 43.9631996155,
            "type": "FP"
        },
        {
            "country_code": "IQ",
            "city": "Baghdad",
            "latitude": 33.2625007629,
            "longitude": 44.2346000671,
            "type": "FP"
        },
        {
            "country_code": "IR",
            "city": "Tabriz",
            "latitude": 38.1338996887,
            "longitude": 46.2350006104,
            "type": "OF"
        },
        {
            "country_code": "IS",
            "city": "Reykjav\u00edk",
            "latitude": 63.9850006104,
            "longitude": -22.6056003571,
            "type": "TP"
        },
        {
            "country_code": "IT",
            "city": "Milan",
            "latitude": 45.445098877,
            "longitude": 9.2767400742,
            "type": "TP"
        },
        {
            "country_code": "IT",
            "city": "Palermo",
            "latitude": 38.1759986877,
            "longitude": 13.0909996033,
            "type": "FN"
        },
        {
            "country_code": "IT",
            "city": "Pescara",
            "latitude": 42.4317016602,
            "longitude": 14.1810998917,
            "type": "FP"
        },
        {
            "country_code": "IT",
            "city": "Rome",
            "latitude": 41.7994003296,
            "longitude": 12.5949001312,
            "type": "TP"
        },
        {
            "country_code": "JO",
            "city": "Amman",
            "latitude": 31.972700119,
            "longitude": 35.9916000366,
            "type": "FP"
        },
        {
            "country_code": "LB",
            "city": "Beirut",
            "latitude": 33.8208999634,
            "longitude": 35.4883995056,
            "type": "FP"
        },
        {
            "country_code": "LT",
            "city": "Kaunas",
            "latitude": 54.9639015198,
            "longitude": 24.0848007202,
            "type": "FP"
        },
        {
            "country_code": "LT",
            "city": "Vilnius",
            "latitude": 54.6341018677,
            "longitude": 25.2858009338,
            "type": "TP"
        },
        {
            "country_code": "LT",
            "city": "\u0160iauliai",
            "latitude": 55.893901825,
            "longitude": 23.3950004578,
            "type": "FP"
        },
        {
            "country_code": "LU",
            "city": "Luxembourg City",
            "latitude": 49.6265983582,
            "longitude": 6.211520195,
            "type": "FN"
        },
        {
            "country_code": "LV",
            "city": "Riga",
            "latitude": 56.9235992432,
            "longitude": 23.9710998535,
            "type": "TP"
        },
        {
            "country_code": "MA",
            "city": "Casablanca",
            "latitude": 33.3675003052,
            "longitude": -7.5899701118,
            "type": "FP"
        },
        {
            "country_code": "MD",
            "city": "Chi\u015fin\u0103u",
            "latitude": 46.9277000427,
            "longitude": 28.9309997559,
            "type": "TP"
        },
        {
            "country_code": "MK",
            "city": "Skopje",
            "latitude": 41.9616012573,
            "longitude": 21.6214008331,
            "type": "FP"
        },
        {
            "country_code": "N/A",
            "city": "N/A",
            "latitude": 42.1715,
            "longitude": 26.5675,
            "type": "FP"
        },
        {
            "country_code": "N/A",
            "city": "N/A",
            "latitude": 44.8675,
            "longitude": 24.8475,
            "type": "FP"
        },
        {
            "country_code": "N/A",
            "city": "N/A",
            "latitude": 53.4095,
            "longitude": 21.9285,
            "type": "FP"
        },
        {
            "country_code": "N/A",
            "city": "N/A",
            "latitude": 58.1585,
            "longitude": 8.0195,
            "type": "FP"
        },
        {
            "country_code": "N/A",
            "city": "N/A",
            "latitude": 59.3685,
            "longitude": 28.1875,
            "type": "FP"
        },
        {
            "country_code": "NL",
            "city": "Amsterdam",
            "latitude": 52.3086013794,
            "longitude": 4.7638897896,
            "type": "TP"
        },
        {
            "country_code": "NO",
            "city": "Hammerfest",
            "latitude": 70.6797027588,
            "longitude": 23.6686000824,
            "type": "FP"
        },
        {
            "country_code": "NO",
            "city": "Rygge",
            "latitude": 59.3788986206,
            "longitude": 10.7855997086,
            "type": "TP"
        },
        {
            "country_code": "NO",
            "city": "Troms\u00f8",
            "latitude": 69.6832962036,
            "longitude": 18.9188995361,
            "type": "FP"
        },
        {
            "country_code": "NO",
            "city": "Trondheim",
            "latitude": 63.4578018188,
            "longitude": 10.9239997864,
            "type": "FP"
        },
        {
            "country_code": "PL",
            "city": "Warsaw",
            "latitude": 52.1656990051,
            "longitude": 20.9671001434,
            "type": "TP"
        },
        {
            "country_code": "PT",
            "city": "Funchal",
            "latitude": 32.6978988647,
            "longitude": -16.7744998932,
            "type": "FP"
        },
        {
            "country_code": "PT",
            "city": "Lisbon",
            "latitude": 38.7812995911,
            "longitude": -9.1359195709,
            "type": "TP"
        },
        {
            "country_code": "RO",
            "city": "Bucharest",
            "latitude": 44.503200531,
            "longitude": 26.1021003723,
            "type": "TP"
        },
        {
            "country_code": "RO",
            "city": "Tulcea",
            "latitude": 45.0625,
            "longitude": 28.7143001556,
            "type": "FP"
        },
        {
            "country_code": "RS",
            "city": "Belgrade",
            "latitude": 44.8184013367,
            "longitude": 20.3090991974,
            "type": "FN"
        },
        {
            "country_code": "RU",
            "city": "Ivanovo",
            "latitude": 56.9393997192,
            "longitude": 40.9407997131,
            "type": "FP"
        },
        {
            "country_code": "RU",
            "city": "Moscow",
            "latitude": 55.4087982178,
            "longitude": 37.9062995911,
            "type": "TP"
        },
        {
            "country_code": "RU",
            "city": "Petrozavodsk",
            "latitude": 61.8852005005,
            "longitude": 34.1547012329,
            "type": "FP"
        },
        {
            "country_code": "RU",
            "city": "Samara",
            "latitude": 53.504901886,
            "longitude": 50.1642990112,
            "type": "OF"
        },
        {
            "country_code": "RU",
            "city": "St Petersburg",
            "latitude": 59.8003005981,
            "longitude": 30.2625007629,
            "type": "TP"
        },
        {
            "country_code": "RU",
            "city": "Tver",
            "latitude": 56.8246994019,
            "longitude": 35.7577018738,
            "type": "FN"
        },
        {
            "country_code": "RU",
            "city": "Voronezh",
            "latitude": 51.814201355,
            "longitude": 39.229598999,
            "type": "FP"
        },
        {
            "country_code": "SE",
            "city": "Gothenburg",
            "latitude": 57.6627998352,
            "longitude": 12.279800415,
            "type": "FN"
        },
        {
            "country_code": "SE",
            "city": "J\u00f6nk\u00f6ping",
            "latitude": 57.757598877,
            "longitude": 14.0686998367,
            "type": "FP"
        },
        {
            "country_code": "SE",
            "city": "Link\u00f6ping",
            "latitude": 58.4062004089,
            "longitude": 15.6805000305,
            "type": "FP"
        },
        {
            "country_code": "SE",
            "city": "Stockholm",
            "latitude": 59.6519012451,
            "longitude": 17.9186000824,
            "type": "TP"
        },
        {
            "country_code": "SE",
            "city": "Sundsvall/ H\u00e4rn\u00f6sand",
            "latitude": 62.5280990601,
            "longitude": 17.4438991547,
            "type": "FP"
        },
        {
            "country_code": "SE",
            "city": "Ume\u00e5",
            "latitude": 63.7918014526,
            "longitude": 20.2828006744,
            "type": "FP"
        },
        {
            "country_code": "SE",
            "city": "\u00d6rebro",
            "latitude": 59.2237014771,
            "longitude": 15.0380001068,
            "type": "FP"
        },
        {
            "country_code": "SK",
            "city": "Bratislava",
            "latitude": 48.1702003479,
            "longitude": 17.2126998901,
            "type": "FN"
        },
        {
            "country_code": "SK",
            "city": "Ko\u0161ice",
            "latitude": 48.6631011963,
            "longitude": 21.2411003113,
            "type": "FP"
        },
        {
            "country_code": "TN",
            "city": "Tunis",
            "latitude": 36.8510017395,
            "longitude": 10.2271995544,
            "type": "FP"
        },
        {
            "country_code": "TR",
            "city": "Istanbul",
            "latitude": 40.9768981934,
            "longitude": 28.8145999908,
            "type": "TP"
        },
        {
            "country_code": "TR",
            "city": "Izmir",
            "latitude": 38.2924003601,
            "longitude": 27.156999588,
            "type": "FN"
        },
        {
            "country_code": "UA",
            "city": "Dnipropetrovsk",
            "latitude": 48.3572006226,
            "longitude": 35.1006011963,
            "type": "FP"
        },
        {
            "country_code": "UA",
            "city": "Kharkiv",
            "latitude": 49.9248008728,
            "longitude": 36.2900009155,
            "type": "FP"
        },
        {
            "country_code": "UA",
            "city": "Kiev",
            "latitude": 50.4016990662,
            "longitude": 30.4496994019,
            "type": "TP"
        },
        {
            "country_code": "UA",
            "city": "Kiev",
            "latitude": 50.3450012207,
            "longitude": 30.8946990967,
            "type": "FP"
        },
        {
            "country_code": "UA",
            "city": "Rivne",
            "latitude": 50.6071014404,
            "longitude": 26.1415996552,
            "type": "FP"
        }
    ]
}