{
    "target": "198.41.0.4",
    "measurement_filepath": "datasets/measurements/campaigns/198.41.0.4_North-Central-section_20230425/198.41.0.4_North-Central-section_1.5_52638904.json",
    "probes_filepath": "datasets/probes_section/North-Central-section_1.5.json",
    "alpha": 0.0,
    "threshold": -1,
    "noise": 0,
    "num_anycast_instances": 11,
    "anycast_instances": [
        {
            "marker": {
                "id": "KVB",
                "latitude": 58.456401825,
                "longitude": 13.972700119,
                "city": "Sk\u00f6vde",
                "country_code": "SE"
            },
            "circle": {
                "id": "32268",
                "latitude": 59.2715,
                "longitude": 15.2105,
                "radius": 141.818770907877
            }
        },
        {
            "marker": {
                "id": "QEF",
                "latitude": 49.9599990845,
                "longitude": 8.6458330154,
                "city": "Egelsbach",
                "country_code": "DE"
            },
            "circle": {
                "id": "6816",
                "latitude": 51.2705,
                "longitude": 6.8175,
                "radius": 204.59454714230912
            }
        },
        {
            "marker": {
                "id": "VNT",
                "latitude": 57.35779953,
                "longitude": 21.5442008972,
                "city": "Ventspils",
                "country_code": "LV"
            },
            "circle": {
                "id": "35667",
                "latitude": 59.4305,
                "longitude": 24.7305,
                "radius": 306.41571281610237
            }
        },
        {
            "marker": {
                "id": "TMP",
                "latitude": 61.414100647,
                "longitude": 23.6044006348,
                "city": "Tampere/Pirkkala",
                "country_code": "FI"
            },
            "circle": {
                "id": "110",
                "latitude": 60.1475,
                "longitude": 19.9475,
                "radius": 256.74139163307177
            }
        },
        {
            "marker": {
                "id": "SJJ",
                "latitude": 43.8246002197,
                "longitude": 18.3314990997,
                "city": "Sarajevo",
                "country_code": "BA"
            },
            "circle": {
                "id": "6621",
                "latitude": 40.9475,
                "longitude": 17.2785,
                "radius": 337.56034183808583
            }
        },
        {
            "marker": {
                "id": "NQY",
                "latitude": 50.4406013489,
                "longitude": -4.9954099655,
                "city": "Newquay",
                "country_code": "GB"
            },
            "circle": {
                "id": "6423",
                "latitude": 53.4685,
                "longitude": -2.2915,
                "radius": 384.8201045851386
            }
        },
        {
            "marker": {
                "id": "NRN",
                "latitude": 51.6024017334,
                "longitude": 6.1421699524,
                "city": "Weeze",
                "country_code": "DE"
            },
            "circle": {
                "id": "7012",
                "latitude": 54.3185,
                "longitude": 10.1175,
                "radius": 402.7042236671286
            }
        },
        {
            "marker": {
                "id": "QAM",
                "latitude": 49.8730010986,
                "longitude": 2.3870699406,
                "city": "Amiens/Glisy",
                "country_code": "FR"
            },
            "circle": {
                "id": "16012",
                "latitude": 52.1685,
                "longitude": 0.9275,
                "radius": 276.188898404286
            }
        },
        {
            "marker": {
                "id": "TLL",
                "latitude": 59.4132995605,
                "longitude": 24.8327999115,
                "city": "Tallinn",
                "country_code": "EE"
            },
            "circle": {
                "id": "2287",
                "latitude": 54.6105,
                "longitude": 39.8215,
                "radius": 1057.633480577182
            }
        },
        {
            "marker": {
                "id": "BDS",
                "latitude": 40.6576004028,
                "longitude": 17.9470005035,
                "city": "Brindisi",
                "country_code": "IT"
            },
            "circle": {
                "id": "60548",
                "latitude": 33.8915,
                "longitude": 35.4995,
                "radius": 1729.2004544354672
            }
        },
        {
            "marker": {
                "id": "CZL",
                "latitude": 36.2760009766,
                "longitude": 6.6203899384,
                "city": "Constantine",
                "country_code": "DZ"
            },
            "circle": {
                "id": "1001271",
                "latitude": 32.6575,
                "longitude": -16.9195,
                "radius": 2200.005128142058
            }
        }
    ]
}