{
    "target": "192.33.4.12",
    "probes_filepath": "datasets/probes_section/North-Central-section_1.5.json",
    "alpha": 0.8,
    "threshold": -1,
    "noise": 0,
    "results_filepath": "datasets/results/campaigns/192.33.4.12_North-Central-section_20230425_alpha_light-factor_0.18/192.33.4.12_North-Central-section_1.5_52641500_0.8_-1_0.json",
    "gt_filepath": "datasets/ground-truth/root_servers/root_servers_C.json",
    "statistics": {
        "TP": 2,
        "FP": 22,
        "TN": 0,
        "FN": 2,
        "accuracy": 0.07692307692307693,
        "precision": 0.08333333333333333,
        "recall": 0.5,
        "f1": 0.14285714285714285,
        "OT": 0,
        "OF": 1
    },
    "instances": [
        {
            "country_code": "AT",
            "city": "Vienna",
            "latitude": 48.1102981567,
            "longitude": 16.5697002411,
            "type": "TP"
        },
        {
            "country_code": "BE",
            "city": "Brussels",
            "latitude": 50.4592018127,
            "longitude": 4.4538202286,
            "type": "FP"
        },
        {
            "country_code": "BY",
            "city": "Minsk",
            "latitude": 53.8824996948,
            "longitude": 28.0307006836,
            "type": "FP"
        },
        {
            "country_code": "CZ",
            "city": "Prague",
            "latitude": 50.1007995605,
            "longitude": 14.2600002289,
            "type": "FP"
        },
        {
            "country_code": "DE",
            "city": "Berlin",
            "latitude": 52.3800010681,
            "longitude": 13.5225000381,
            "type": "FP"
        },
        {
            "country_code": "DE",
            "city": "Cologne",
            "latitude": 50.8658981323,
            "longitude": 7.1427397728,
            "type": "FP"
        },
        {
            "country_code": "DE",
            "city": "Frankfurt",
            "latitude": 50.1109221,
            "longitude": 8.6821267,
            "type": "FN"
        },
        {
            "country_code": "DE",
            "city": "Stuttgart",
            "latitude": 48.6898994446,
            "longitude": 9.2219600677,
            "type": "FP"
        },
        {
            "country_code": "ES",
            "city": "Barcelona",
            "latitude": 41.2971000671,
            "longitude": 2.0784599781,
            "type": "FP"
        },
        {
            "country_code": "ES",
            "city": "Madrid",
            "latitude": 40.4967002869,
            "longitude": -3.4458699226,
            "type": "TP"
        },
        {
            "country_code": "ES",
            "city": "Valladolid",
            "latitude": 41.7061004639,
            "longitude": -4.851940155,
            "type": "FP"
        },
        {
            "country_code": "FR",
            "city": "Paris",
            "latitude": 48.856614,
            "longitude": 2.3522219,
            "type": "FN"
        },
        {
            "country_code": "FR",
            "city": "Tours/Val de Loire (Loire Valley)",
            "latitude": 47.4322013855,
            "longitude": 0.7276059985,
            "type": "FP"
        },
        {
            "country_code": "HU",
            "city": "Budapest",
            "latitude": 47.4369010925,
            "longitude": 19.2555999756,
            "type": "FP"
        },
        {
            "country_code": "IE",
            "city": "Dublin",
            "latitude": 53.4212989807,
            "longitude": -6.270070076,
            "type": "FP"
        },
        {
            "country_code": "IR",
            "city": "Tehran",
            "latitude": 35.4160995483,
            "longitude": 51.1521987915,
            "type": "OF"
        },
        {
            "country_code": "IS",
            "city": "Reykjav\u00edk",
            "latitude": 63.9850006104,
            "longitude": -22.6056003571,
            "type": "FP"
        },
        {
            "country_code": "IT",
            "city": "Milan",
            "latitude": 45.6305999756,
            "longitude": 8.7281103134,
            "type": "FP"
        },
        {
            "country_code": "IT",
            "city": "Rome",
            "latitude": 41.799444,
            "longitude": 12.597222,
            "type": "FP"
        },
        {
            "country_code": "MA",
            "city": "Tangier",
            "latitude": 35.7268981934,
            "longitude": -5.9168901444,
            "type": "FP"
        },
        {
            "country_code": "RO",
            "city": "Bucharest",
            "latitude": 44.5722007751,
            "longitude": 26.1021995544,
            "type": "FP"
        },
        {
            "country_code": "RS",
            "city": "Belgrade",
            "latitude": 44.8184013367,
            "longitude": 20.3090991974,
            "type": "FP"
        },
        {
            "country_code": "RU",
            "city": "Murmansk",
            "latitude": 68.7817001343,
            "longitude": 32.7508010864,
            "type": "FP"
        },
        {
            "country_code": "RU",
            "city": "St Petersburg",
            "latitude": 59.8003005981,
            "longitude": 30.2625007629,
            "type": "FP"
        },
        {
            "country_code": "SE",
            "city": "Stockholm",
            "latitude": 59.3544006348,
            "longitude": 17.9416999817,
            "type": "FP"
        },
        {
            "country_code": "TR",
            "city": "Istanbul",
            "latitude": 40.898601532,
            "longitude": 29.3092002869,
            "type": "FP"
        },
        {
            "country_code": "UA",
            "city": "Kiev",
            "latitude": 50.6035003662,
            "longitude": 30.1919002533,
            "type": "FP"
        }
    ]
}