{
    "target": "192.33.4.12",
    "probes_filepath": "datasets/probes_section/North-Central-section_2.json",
    "alpha": 0.0,
    "threshold": -1,
    "noise": 0,
    "results_filepath": "datasets/results/campaigns/192.33.4.12_North-Central-section_20230425_alpha_light-factor_0.18/192.33.4.12_North-Central-section_2_52641718_0.0_-1_0.json",
    "gt_filepath": "datasets/ground-truth/root_servers/root_servers_C.json",
    "statistics": {
        "TP": 3,
        "FP": 23,
        "TN": 0,
        "FN": 1,
        "accuracy": 0.1111111111111111,
        "precision": 0.11538461538461539,
        "recall": 0.75,
        "f1": 0.19999999999999998,
        "OT": 0,
        "OF": 1
    },
    "instances": [
        {
            "country_code": "CH",
            "city": "Bern",
            "latitude": 46.914100647,
            "longitude": 7.4971499443,
            "type": "FP"
        },
        {
            "country_code": "CH",
            "city": "Zurich",
            "latitude": 47.4646987915,
            "longitude": 8.5491695404,
            "type": "FP"
        },
        {
            "country_code": "DE",
            "city": "Frankfurt",
            "latitude": 50.1109221,
            "longitude": 8.6821267,
            "type": "FN"
        },
        {
            "country_code": "DE",
            "city": "M\u00fcnster",
            "latitude": 52.134601593,
            "longitude": 7.6848301888,
            "type": "FP"
        },
        {
            "country_code": "ES",
            "city": "Granada",
            "latitude": 37.1887016296,
            "longitude": -3.7773599625,
            "type": "FP"
        },
        {
            "country_code": "ES",
            "city": "Madrid",
            "latitude": 40.3707008362,
            "longitude": -3.7851400375,
            "type": "TP"
        },
        {
            "country_code": "ES",
            "city": "Madrid",
            "latitude": 40.4936,
            "longitude": -3.56676,
            "type": "FP"
        },
        {
            "country_code": "ES",
            "city": "Pamplona",
            "latitude": 42.7700004578,
            "longitude": -1.646329999,
            "type": "FP"
        },
        {
            "country_code": "FR",
            "city": "Aurillac",
            "latitude": 44.8913993835,
            "longitude": 2.4219400883,
            "type": "FP"
        },
        {
            "country_code": "FR",
            "city": "Bourges",
            "latitude": 47.0581016541,
            "longitude": 2.3702800274,
            "type": "FP"
        },
        {
            "country_code": "FR",
            "city": "Montauban",
            "latitude": 44.0256996155,
            "longitude": 1.3780399561,
            "type": "FP"
        },
        {
            "country_code": "FR",
            "city": "Pontoise",
            "latitude": 49.0965995789,
            "longitude": 2.0408298969,
            "type": "TP"
        },
        {
            "country_code": "GB",
            "city": "Lakenheath",
            "latitude": 52.4093017578,
            "longitude": 0.5609999895,
            "type": "FP"
        },
        {
            "country_code": "GB",
            "city": "Stornoway",
            "latitude": 58.2155990601,
            "longitude": -6.3311100006,
            "type": "FP"
        },
        {
            "country_code": "GG",
            "city": "Saint Peter Port",
            "latitude": 49.4350013733,
            "longitude": -2.6019699574,
            "type": "FP"
        },
        {
            "country_code": "HR",
            "city": "Dubrovnik",
            "latitude": 42.5614013672,
            "longitude": 18.2681999207,
            "type": "FP"
        },
        {
            "country_code": "HR",
            "city": "Zadar",
            "latitude": 44.1082992554,
            "longitude": 15.3466997147,
            "type": "FP"
        },
        {
            "country_code": "IR",
            "city": "Sari",
            "latitude": 36.635799408,
            "longitude": 53.1935997009,
            "type": "OF"
        },
        {
            "country_code": "IT",
            "city": "Perugia",
            "latitude": 43.0959014893,
            "longitude": 12.5131998062,
            "type": "FP"
        },
        {
            "country_code": "LU",
            "city": "Luxembourg",
            "latitude": 49.6265983582,
            "longitude": 6.211520195,
            "type": "FP"
        },
        {
            "country_code": "MA",
            "city": "Ouarzazate",
            "latitude": 30.9391002655,
            "longitude": -6.909430027,
            "type": "FP"
        },
        {
            "country_code": "RO",
            "city": "Satu Mare",
            "latitude": 47.7033004761,
            "longitude": 22.8857002258,
            "type": "FP"
        },
        {
            "country_code": "RU",
            "city": "Orel",
            "latitude": 52.9347000122,
            "longitude": 36.0022010803,
            "type": "FP"
        },
        {
            "country_code": "SE",
            "city": "G\u00e4llivare",
            "latitude": 67.1324005127,
            "longitude": 20.8145999908,
            "type": "FP"
        },
        {
            "country_code": "SE",
            "city": "Kristianstad",
            "latitude": 55.9216995239,
            "longitude": 14.0854997635,
            "type": "FP"
        },
        {
            "country_code": "SE",
            "city": "\u00c4ngelholm",
            "latitude": 56.2961006165,
            "longitude": 12.8471002579,
            "type": "FP"
        },
        {
            "country_code": "SK",
            "city": "Bratislava",
            "latitude": 48.1702003479,
            "longitude": 17.2126998901,
            "type": "TP"
        },
        {
            "country_code": "TR",
            "city": "\u00c7anakkale",
            "latitude": 40.1376991272,
            "longitude": 26.4267997742,
            "type": "FP"
        }
    ]
}