{
    "target": "192.33.4.12",
    "probes_filepath": "datasets/probes_section/North-Central-section_1.5.json",
    "alpha": 0.0,
    "threshold": -1,
    "noise": 0,
    "results_filepath": "datasets/results/campaigns/192.33.4.12_North-Central-section_20230425_alpha_light-factor_0.18/192.33.4.12_North-Central-section_1.5_52641500_0.0_-1_0.json",
    "gt_filepath": "datasets/ground-truth/root_servers/root_servers_C.json",
    "statistics": {
        "TP": 4,
        "FP": 29,
        "TN": 0,
        "FN": 0,
        "accuracy": 0.12121212121212122,
        "precision": 0.12121212121212122,
        "recall": 1.0,
        "f1": 0.21621621621621626,
        "OT": 0,
        "OF": 0
    },
    "instances": [
        {
            "country_code": "AT",
            "city": "Vienna",
            "latitude": 48.1102981567,
            "longitude": 16.5697002411,
            "type": "FP"
        },
        {
            "country_code": "CH",
            "city": "Bern",
            "latitude": 46.914100647,
            "longitude": 7.4971499443,
            "type": "FP"
        },
        {
            "country_code": "DE",
            "city": "Donaueschingen",
            "latitude": 47.9733314514,
            "longitude": 8.5222215653,
            "type": "FP"
        },
        {
            "country_code": "DE",
            "city": "D\u00fcsseldorf",
            "latitude": 51.2895011902,
            "longitude": 6.7667798996,
            "type": "FP"
        },
        {
            "country_code": "DE",
            "city": "Fritzlar",
            "latitude": 51.1146,
            "longitude": 9.286,
            "type": "FP"
        },
        {
            "country_code": "DE",
            "city": "Hof",
            "latitude": 50.2886123657,
            "longitude": 11.8563890457,
            "type": "FP"
        },
        {
            "country_code": "DE",
            "city": "Mainz",
            "latitude": 49.9674987793,
            "longitude": 8.1472215652,
            "type": "TP"
        },
        {
            "country_code": "DE",
            "city": "Manching",
            "latitude": 48.7156982422,
            "longitude": 11.5340003967,
            "type": "FP"
        },
        {
            "country_code": "ES",
            "city": "Burgos",
            "latitude": 42.3576011658,
            "longitude": -3.620759964,
            "type": "FP"
        },
        {
            "country_code": "ES",
            "city": "Granada",
            "latitude": 37.1887016296,
            "longitude": -3.7773599625,
            "type": "FP"
        },
        {
            "country_code": "ES",
            "city": "Lleida",
            "latitude": 41.728185,
            "longitude": 0.535023,
            "type": "FP"
        },
        {
            "country_code": "ES",
            "city": "Madrid",
            "latitude": 40.4967002869,
            "longitude": -3.4458699226,
            "type": "TP"
        },
        {
            "country_code": "ES",
            "city": "Mor\u00f3n",
            "latitude": 37.1749000549,
            "longitude": -5.615940094,
            "type": "FP"
        },
        {
            "country_code": "FR",
            "city": "Albi/Le S\u00e9questre",
            "latitude": 43.913898468,
            "longitude": 2.1130599976,
            "type": "FP"
        },
        {
            "country_code": "FR",
            "city": "Granville",
            "latitude": 48.8830986023,
            "longitude": -1.5641700029,
            "type": "FP"
        },
        {
            "country_code": "FR",
            "city": "Paris",
            "latitude": 49.0127983093,
            "longitude": 2.5499999523,
            "type": "TP"
        },
        {
            "country_code": "FR",
            "city": "Saint-Yan",
            "latitude": 46.4124984741,
            "longitude": 4.0132598877,
            "type": "FP"
        },
        {
            "country_code": "GB",
            "city": "Wick",
            "latitude": 58.4589004517,
            "longitude": -3.0930600166,
            "type": "FP"
        },
        {
            "country_code": "GE",
            "city": "Sukhumi",
            "latitude": 42.8582000732,
            "longitude": 41.1281013489,
            "type": "FP"
        },
        {
            "country_code": "GR",
            "city": "Mytilene",
            "latitude": 39.0567016602,
            "longitude": 26.5983009338,
            "type": "FP"
        },
        {
            "country_code": "HU",
            "city": "Budapest",
            "latitude": 47.4812134,
            "longitude": 19.1303031,
            "type": "FP"
        },
        {
            "country_code": "HU",
            "city": "Tasz\u00e1r",
            "latitude": 46.3931007385,
            "longitude": 17.9174995422,
            "type": "FP"
        },
        {
            "country_code": "IE",
            "city": "Waterford",
            "latitude": 52.1871986389,
            "longitude": -7.0869598389,
            "type": "FP"
        },
        {
            "country_code": "IT",
            "city": "Pescara",
            "latitude": 42.4317016602,
            "longitude": 14.1810998917,
            "type": "FP"
        },
        {
            "country_code": "IT",
            "city": "Varese",
            "latitude": 45.7421989441,
            "longitude": 8.8882303238,
            "type": "FP"
        },
        {
            "country_code": "MK",
            "city": "Skopje",
            "latitude": 41.9616012573,
            "longitude": 21.6214008331,
            "type": "FP"
        },
        {
            "country_code": "NL",
            "city": "Groningen",
            "latitude": 53.1197013855,
            "longitude": 6.5794401169,
            "type": "FP"
        },
        {
            "country_code": "NO",
            "city": "Br\u00f8nn\u00f8y",
            "latitude": 65.4610977173,
            "longitude": 12.217499733,
            "type": "FP"
        },
        {
            "country_code": "PL",
            "city": "Goleniow",
            "latitude": 53.5847015381,
            "longitude": 14.9021997452,
            "type": "FP"
        },
        {
            "country_code": "RO",
            "city": "Arad",
            "latitude": 46.1766014099,
            "longitude": 21.2619991302,
            "type": "FP"
        },
        {
            "country_code": "SE",
            "city": "Norrk\u00f6ping",
            "latitude": 58.5862998962,
            "longitude": 16.2506008148,
            "type": "FP"
        },
        {
            "country_code": "SK",
            "city": "Bratislava",
            "latitude": 48.1702003479,
            "longitude": 17.2126998901,
            "type": "TP"
        },
        {
            "country_code": "UA",
            "city": "Rivne",
            "latitude": 50.6071014404,
            "longitude": 26.1415996552,
            "type": "FP"
        }
    ]
}