{
    "target": "193.0.14.129",
    "probes_filepath": "datasets/probes_sets/North-Central_300.json",
    "alpha": 1,
    "threshold": 20.0,
    "noise": 0,
    "results_filepath": "datasets/results/campaigns/193.0.14.129_North-Central_20230410_threshold_light-factor_0.18/193.0.14.129_North-Central_300_52098541_1_20.0_0.json",
    "gt_filepath": "datasets/ground-truth/root_servers/root_servers_K.json",
    "statistics": {
        "TP": 21,
        "FP": 9,
        "TN": 0,
        "FN": 18,
        "accuracy": 0.4375,
        "precision": 0.7,
        "recall": 0.5384615384615384,
        "f1": 0.608695652173913,
        "OT": 1,
        "OF": 2
    },
    "instances": [
        {
            "country_code": "AM",
            "city": "Yerevan",
            "latitude": 40.1473007202,
            "longitude": 44.3959007263,
            "type": "OT"
        },
        {
            "country_code": "AT",
            "city": "Feldkirch",
            "latitude": 47.2375671,
            "longitude": 9.5981724,
            "type": "FN"
        },
        {
            "country_code": "AT",
            "city": "Salzburg",
            "latitude": 47.811195,
            "longitude": 13.033229,
            "type": "FN"
        },
        {
            "country_code": "AT",
            "city": "Vienna",
            "latitude": 48.1102981567,
            "longitude": 16.5697002411,
            "type": "TP"
        },
        {
            "country_code": "BA",
            "city": "Sarajevo",
            "latitude": 43.8246002197,
            "longitude": 18.3314990997,
            "type": "TP"
        },
        {
            "country_code": "BE",
            "city": "Brussels",
            "latitude": 50.4592018127,
            "longitude": 4.4538202286,
            "type": "FP"
        },
        {
            "country_code": "BG",
            "city": "Sofia",
            "latitude": 42.6966934204,
            "longitude": 23.4114360809,
            "type": "TP"
        },
        {
            "country_code": "CH",
            "city": "Geneva",
            "latitude": 46.2017559,
            "longitude": 6.1466014,
            "type": "FN"
        },
        {
            "country_code": "CH",
            "city": "Zurich",
            "latitude": 47.4646987915,
            "longitude": 8.5491695404,
            "type": "TP"
        },
        {
            "country_code": "CZ",
            "city": "Prague",
            "latitude": 50.1007995605,
            "longitude": 14.2600002289,
            "type": "TP"
        },
        {
            "country_code": "DE",
            "city": "Berlin",
            "latitude": 52.3800010681,
            "longitude": 13.5225000381,
            "type": "TP"
        },
        {
            "country_code": "DE",
            "city": "Cologne",
            "latitude": 50.8658981323,
            "longitude": 7.1427397728,
            "type": "FP"
        },
        {
            "country_code": "DE",
            "city": "Frankfurt-am-Main",
            "latitude": 50.121212,
            "longitude": 8.6365638,
            "type": "TP"
        },
        {
            "country_code": "DE",
            "city": "Hamburg",
            "latitude": 53.550341,
            "longitude": 10.000654,
            "type": "FN"
        },
        {
            "country_code": "DE",
            "city": "Stuttgart",
            "latitude": 48.6898994446,
            "longitude": 9.2219600677,
            "type": "TP"
        },
        {
            "country_code": "EE",
            "city": "Tallinn",
            "latitude": 59.4372155,
            "longitude": 24.7453688,
            "type": "FN"
        },
        {
            "country_code": "ES",
            "city": "Barcelona",
            "latitude": 41.2971000671,
            "longitude": 2.0784599781,
            "type": "TP"
        },
        {
            "country_code": "ES",
            "city": "Bilbao",
            "latitude": 43.3011016846,
            "longitude": -2.9106099606,
            "type": "FP"
        },
        {
            "country_code": "ES",
            "city": "Madrid",
            "latitude": 40.3707008362,
            "longitude": -3.7851400375,
            "type": "TP"
        },
        {
            "country_code": "FI",
            "city": "Helsinki",
            "latitude": 60.1674881,
            "longitude": 24.9427473,
            "type": "FN"
        },
        {
            "country_code": "FO",
            "city": "Torshavn",
            "latitude": 62.012,
            "longitude": -6.768,
            "type": "FN"
        },
        {
            "country_code": "FR",
            "city": "Lyon",
            "latitude": 45.7578137,
            "longitude": 4.8320114,
            "type": "FN"
        },
        {
            "country_code": "FR",
            "city": "Paris",
            "latitude": 49.0127983093,
            "longitude": 2.5499999523,
            "type": "TP"
        },
        {
            "country_code": "GB",
            "city": "London",
            "latitude": 51.5052986145,
            "longitude": 0.0552779995,
            "type": "TP"
        },
        {
            "country_code": "GB",
            "city": "London",
            "latitude": 51.4706001282,
            "longitude": -0.4619410038,
            "type": "FP"
        },
        {
            "country_code": "GB",
            "city": "London",
            "latitude": 51.8746986389,
            "longitude": -0.3683330119,
            "type": "FP"
        },
        {
            "country_code": "GR",
            "city": "Athens",
            "latitude": 37.9364013672,
            "longitude": 23.9444999695,
            "type": "TP"
        },
        {
            "country_code": "HU",
            "city": "Budapest",
            "latitude": 47.48138955,
            "longitude": 19.14609412691246,
            "type": "FN"
        },
        {
            "country_code": "IE",
            "city": "Cork",
            "latitude": 51.897077,
            "longitude": -8.4654674,
            "type": "FN"
        },
        {
            "country_code": "IE",
            "city": "Dublin",
            "latitude": 53.4212989807,
            "longitude": -6.270070076,
            "type": "FP"
        },
        {
            "country_code": "IS",
            "city": "Reykjavik",
            "latitude": 64.145981,
            "longitude": -21.9422367,
            "type": "FN"
        },
        {
            "country_code": "IT",
            "city": "Milan",
            "latitude": 45.6305999756,
            "longitude": 8.7281103134,
            "type": "TP"
        },
        {
            "country_code": "IT",
            "city": "Palermo",
            "latitude": 38.1112268,
            "longitude": 13.3524434,
            "type": "FN"
        },
        {
            "country_code": "IT",
            "city": "Prato",
            "latitude": 43.880598,
            "longitude": 11.0969262,
            "type": "FN"
        },
        {
            "country_code": "LT",
            "city": "Vilnius",
            "latitude": 54.6870458,
            "longitude": 25.2829111,
            "type": "FN"
        },
        {
            "country_code": "LU",
            "city": "Kirchberg",
            "latitude": 49.6278334,
            "longitude": 6.1596669,
            "type": "FN"
        },
        {
            "country_code": "LV",
            "city": "Riga",
            "latitude": 56.9235992432,
            "longitude": 23.9710998535,
            "type": "TP"
        },
        {
            "country_code": "N/A",
            "city": "N/A",
            "latitude": 40.9475,
            "longitude": 17.2785,
            "type": "OF"
        },
        {
            "country_code": "N/A",
            "city": "N/A",
            "latitude": 44.8495,
            "longitude": 24.8705,
            "type": "OF"
        },
        {
            "country_code": "NL",
            "city": "Amsterdam",
            "latitude": 52.3086013794,
            "longitude": 4.7638897896,
            "type": "TP"
        },
        {
            "country_code": "NL",
            "city": "Amsterdam",
            "latitude": 52.3747158,
            "longitude": 4.8986167,
            "type": "FP"
        },
        {
            "country_code": "NL",
            "city": "Groningen",
            "latitude": 53.1197013855,
            "longitude": 6.5794401169,
            "type": "FP"
        },
        {
            "country_code": "PL",
            "city": "Gdynia",
            "latitude": 54.50383255,
            "longitude": 18.462806155884614,
            "type": "FN"
        },
        {
            "country_code": "PL",
            "city": "Poznan",
            "latitude": 52.4006632,
            "longitude": 16.91973259178088,
            "type": "FN"
        },
        {
            "country_code": "PL",
            "city": "Warsaw",
            "latitude": 52.1656990051,
            "longitude": 20.9671001434,
            "type": "TP"
        },
        {
            "country_code": "RO",
            "city": "Bucharest",
            "latitude": 44.503200531,
            "longitude": 26.1021003723,
            "type": "TP"
        },
        {
            "country_code": "RS",
            "city": "Belgrade",
            "latitude": 44.8184013367,
            "longitude": 20.3090991974,
            "type": "TP"
        },
        {
            "country_code": "RU",
            "city": "Moscow",
            "latitude": 55.8782997131,
            "longitude": 38.0616989136,
            "type": "TP"
        },
        {
            "country_code": "RU",
            "city": "Novosibirsk",
            "latitude": 55.0282171,
            "longitude": 82.9234509,
            "type": "FN"
        },
        {
            "country_code": "RU",
            "city": "St Petersburg",
            "latitude": 59.8003005981,
            "longitude": 30.2625007629,
            "type": "TP"
        },
        {
            "country_code": "SE",
            "city": "Stockholm",
            "latitude": 59.6519012451,
            "longitude": 17.9186000824,
            "type": "FP"
        }
    ]
}