{
    "target": "199.7.83.42",
    "measurement_filepath": "datasets/measurements/campaigns/199.7.83.42_North-Central-section_20230425/199.7.83.42_North-Central-section_1.5_52655267.json",
    "probes_filepath": "datasets/probes_section/North-Central-section_1.5.json",
    "alpha": 0.3,
    "threshold": -1,
    "noise": 0,
    "num_anycast_instances": 16,
    "anycast_instances": [
        {
            "marker": {
                "id": "HER",
                "latitude": 35.3396987915,
                "longitude": 25.1802997589,
                "city": "Heraklion",
                "country_code": "GR"
            },
            "circle": {
                "id": "6297",
                "latitude": 35.3105,
                "longitude": 25.0715,
                "radius": 52.25737560324474
            }
        },
        {
            "marker": {
                "id": "EBL",
                "latitude": 36.2375984192,
                "longitude": 43.9631996155,
                "city": "Arbil",
                "country_code": "IQ"
            },
            "circle": {
                "id": "7020",
                "latitude": 36.2375,
                "longitude": 44.0085,
                "radius": 55.84295257048881
            }
        },
        {
            "marker": {
                "id": "NLV",
                "latitude": 47.0578994751,
                "longitude": 31.9197998047,
                "city": "Nikolayev",
                "country_code": "UA"
            },
            "circle": {
                "id": "6414",
                "latitude": 46.9795,
                "longitude": 31.9875,
                "radius": 59.34105719883618
            }
        },
        {
            "marker": {
                "id": "AOI",
                "latitude": 43.6162986755,
                "longitude": 13.3622999191,
                "city": "Ancona",
                "country_code": "IT"
            },
            "circle": {
                "id": "54353",
                "latitude": 43.5685,
                "longitude": 13.5095,
                "radius": 73.60447231570724
            }
        },
        {
            "marker": {
                "id": "MHP",
                "latitude": 53.8644981384,
                "longitude": 27.5396995544,
                "city": "Minsk",
                "country_code": "BY"
            },
            "circle": {
                "id": "17271",
                "latitude": 53.9575,
                "longitude": 27.7805,
                "radius": 75.58152468346513
            }
        },
        {
            "marker": {
                "id": "BOJ",
                "latitude": 42.5695991516,
                "longitude": 27.5151996613,
                "city": "Burgas",
                "country_code": "BG"
            },
            "circle": {
                "id": "11518",
                "latitude": 42.1715,
                "longitude": 26.5675,
                "radius": 103.64643785363091
            }
        },
        {
            "marker": {
                "id": "PDV",
                "latitude": 42.0677986145,
                "longitude": 24.8507995605,
                "city": "Plovdiv",
                "country_code": "BG"
            },
            "circle": {
                "id": "16209",
                "latitude": 42.6615,
                "longitude": 23.3075,
                "radius": 144.1654594870737
            }
        },
        {
            "marker": {
                "id": "WIE",
                "latitude": 48.1102981567,
                "longitude": 16.5697002411,
                "city": "Vienna",
                "country_code": "AT"
            },
            "circle": {
                "id": "175",
                "latitude": 48.1495,
                "longitude": 17.1105,
                "radius": 165.40969977397896
            }
        },
        {
            "marker": {
                "id": "PRG",
                "latitude": 50.1007995605,
                "longitude": 14.2600002289,
                "city": "Prague",
                "country_code": "CZ"
            },
            "circle": {
                "id": "33280",
                "latitude": 50.0275,
                "longitude": 15.7815,
                "radius": 182.89608104623028
            }
        },
        {
            "marker": {
                "id": "VBY",
                "latitude": 57.6627998352,
                "longitude": 18.346200943,
                "city": "Visby",
                "country_code": "SE"
            },
            "circle": {
                "id": "1333",
                "latitude": 59.3485,
                "longitude": 18.0185,
                "radius": 196.15903745046643
            }
        },
        {
            "marker": {
                "id": "INI",
                "latitude": 43.337299,
                "longitude": 21.853701,
                "city": "Nis",
                "country_code": "RS"
            },
            "circle": {
                "id": "60080",
                "latitude": 44.8075,
                "longitude": 20.4615,
                "radius": 201.42433972597172
            }
        },
        {
            "marker": {
                "id": "SVL",
                "latitude": 61.9430999756,
                "longitude": 28.9451007843,
                "city": "Savonlinna",
                "country_code": "FI"
            },
            "circle": {
                "id": "11054",
                "latitude": 60.0995,
                "longitude": 30.2895,
                "radius": 231.35901112103227
            }
        },
        {
            "marker": {
                "id": "LED",
                "latitude": 59.8003005981,
                "longitude": 30.2625007629,
                "city": "St Petersburg",
                "country_code": "RU"
            },
            "circle": {
                "id": "4123",
                "latitude": 59.5685,
                "longitude": 30.0885,
                "radius": 247.81160149288422
            }
        },
        {
            "marker": {
                "id": "ZAZ",
                "latitude": 41.6661987305,
                "longitude": -1.0415500402,
                "city": "Zaragoza",
                "country_code": "ES"
            },
            "circle": {
                "id": "32648",
                "latitude": 40.5615,
                "longitude": -3.6305,
                "radius": 252.71754728255002
            }
        },
        {
            "marker": {
                "id": "LIN",
                "latitude": 45.445098877,
                "longitude": 9.2767400742,
                "city": "Milan",
                "country_code": "IT"
            },
            "circle": {
                "id": "32208",
                "latitude": 46.3015,
                "longitude": 7.5375,
                "radius": 382.9036055603315
            }
        },
        {
            "marker": {
                "id": "STN",
                "latitude": 51.8849983215,
                "longitude": 0.2349999994,
                "city": "London",
                "country_code": "GB"
            },
            "circle": {
                "id": "30960",
                "latitude": 48.1175,
                "longitude": -1.6995,
                "radius": 650.1706528020743
            }
        }
    ]
}