{
    "target": "198.97.190.53",
    "measurement_filepath": "datasets/measurements/campaigns/198.97.190.53_North-Central_20230410/198.97.190.53_North-Central_1000_52071953.json",
    "probes_filepath": "datasets/probes_sets/North-Central_1000.json",
    "alpha": 0.0,
    "threshold": -1,
    "noise": 0,
    "num_anycast_instances": 10,
    "anycast_instances": [
        {
            "marker": {
                "id": "QEF",
                "latitude": 49.9599990845,
                "longitude": 8.6458330154,
                "city": "Egelsbach",
                "country_code": "DE"
            },
            "circle": {
                "id": "1002660",
                "latitude": 50.1075,
                "longitude": 8.6805,
                "radius": 29.7199403134529
            }
        },
        {
            "marker": {
                "id": "LHR",
                "latitude": 51.4706001282,
                "longitude": -0.4619410038,
                "city": "London",
                "country_code": "GB"
            },
            "circle": {
                "id": "1002085",
                "latitude": 51.5095,
                "longitude": -0.1285,
                "radius": 31.127803170278142
            }
        },
        {
            "marker": {
                "id": "DOL",
                "latitude": 49.3652992249,
                "longitude": 0.1543059945,
                "city": "Deauville",
                "country_code": "FR"
            },
            "circle": {
                "id": "1002484",
                "latitude": 48.8595,
                "longitude": 2.3415,
                "radius": 176.28310674465467
            }
        },
        {
            "marker": {
                "id": "BFS",
                "latitude": 54.6575012207,
                "longitude": -6.2158298492,
                "city": "Belfast",
                "country_code": "GB"
            },
            "circle": {
                "id": "1002711",
                "latitude": 55.3775,
                "longitude": -3.4425,
                "radius": 200.98059402998777
            }
        },
        {
            "marker": {
                "id": "UDE",
                "latitude": 51.6563987732,
                "longitude": 5.7086100578,
                "city": "Uden",
                "country_code": "NL"
            },
            "circle": {
                "id": "50025",
                "latitude": 53.5495,
                "longitude": 10.0485,
                "radius": 364.054237995435
            }
        },
        {
            "marker": {
                "id": "DEX",
                "latitude": 50.121212,
                "longitude": 8.6365638,
                "city": "Frankfurt-am-Main",
                "country_code": "DE"
            },
            "circle": {
                "id": "18159",
                "latitude": 52.5015,
                "longitude": 13.3095,
                "radius": 419.6765464725459
            }
        },
        {
            "marker": {
                "id": "GPA",
                "latitude": 38.1511001587,
                "longitude": 21.4256000519,
                "city": "Patras",
                "country_code": "GR"
            },
            "circle": {
                "id": "6621",
                "latitude": 40.9475,
                "longitude": 17.2785,
                "radius": 472.53863580960495
            }
        },
        {
            "marker": {
                "id": "TRS",
                "latitude": 45.8274993896,
                "longitude": 13.4722003937,
                "city": "Trieste",
                "country_code": "IT"
            },
            "circle": {
                "id": "33280",
                "latitude": 50.0275,
                "longitude": 15.7815,
                "radius": 502.03151331536867
            }
        },
        {
            "marker": {
                "id": "BLL",
                "latitude": 55.7402992249,
                "longitude": 9.1517801285,
                "city": "Billund",
                "country_code": "DK"
            },
            "circle": {
                "id": "1003302",
                "latitude": 53.8985,
                "longitude": 27.5575,
                "radius": 1196.0531821118204
            }
        },
        {
            "marker": {
                "id": "AAR",
                "latitude": 56.2999992371,
                "longitude": 10.6190004349,
                "city": "Aarhus",
                "country_code": "DK"
            },
            "circle": {
                "id": "7140",
                "latitude": 55.7275,
                "longitude": 37.6695,
                "radius": 1677.034168403803
            }
        }
    ]
}