{
    "target": "192.58.128.30",
    "probes_filepath": "datasets/probes_section/North-Central-section_2.json",
    "alpha": 1,
    "threshold": 0.5,
    "noise": 0,
    "results_filepath": "datasets/results/campaigns/192.58.128.30_North-Central-section_20230425_threshold_light-factor_0.40/192.58.128.30_North-Central-section_2_52654207_1_0.5_0.json",
    "gt_filepath": "datasets/ground-truth/root_servers/root_servers_J.json",
    "statistics": {
        "TP": 3,
        "FP": 1,
        "TN": 0,
        "FN": 36,
        "accuracy": 0.075,
        "precision": 0.75,
        "recall": 0.07692307692307693,
        "f1": 0.13953488372093026,
        "OT": 0,
        "OF": 0
    },
    "instances": [
        {
            "country_code": "AT",
            "city": "Vienna",
            "latitude": 48.2081743,
            "longitude": 16.3738189,
            "type": "FN"
        },
        {
            "country_code": "BG",
            "city": "Sofia",
            "latitude": 42.6977082,
            "longitude": 23.3218675,
            "type": "FN"
        },
        {
            "country_code": "BG",
            "city": "Varna",
            "latitude": 43.2321014404,
            "longitude": 27.8250999451,
            "type": "FP"
        },
        {
            "country_code": "CH",
            "city": "Geneva",
            "latitude": 46.2043907,
            "longitude": 6.1431577,
            "type": "FN"
        },
        {
            "country_code": "CH",
            "city": "Zurich",
            "latitude": 47.3768866,
            "longitude": 8.541694,
            "type": "FN"
        },
        {
            "country_code": "CZ",
            "city": "Prague",
            "latitude": 50.0755381,
            "longitude": 14.4378005,
            "type": "FN"
        },
        {
            "country_code": "DE",
            "city": "Berlin",
            "latitude": 52.5200066,
            "longitude": 13.404954,
            "type": "FN"
        },
        {
            "country_code": "DE",
            "city": "Frankfurt",
            "latitude": 50.1109221,
            "longitude": 8.6821267,
            "type": "FN"
        },
        {
            "country_code": "EE",
            "city": "Tallinn",
            "latitude": 59.4369608,
            "longitude": 24.7535746,
            "type": "FN"
        },
        {
            "country_code": "ES",
            "city": "Barcelona",
            "latitude": 41.3850639,
            "longitude": 2.1734035,
            "type": "FN"
        },
        {
            "country_code": "FI",
            "city": "Helsinki",
            "latitude": 60.1733244,
            "longitude": 24.9410248,
            "type": "FN"
        },
        {
            "country_code": "FI",
            "city": "Oulu",
            "latitude": 65.0120888,
            "longitude": 25.4650773,
            "type": "FN"
        },
        {
            "country_code": "FR",
            "city": "Marseille",
            "latitude": 43.2961743,
            "longitude": 5.3699525,
            "type": "FN"
        },
        {
            "country_code": "FR",
            "city": "Paris",
            "latitude": 48.9693984985,
            "longitude": 2.4413900375,
            "type": "TP"
        },
        {
            "country_code": "GB",
            "city": "Edinburgh",
            "latitude": 55.953252,
            "longitude": -3.188267,
            "type": "FN"
        },
        {
            "country_code": "GB",
            "city": "Leeds",
            "latitude": 53.8007554,
            "longitude": -1.5490774,
            "type": "FN"
        },
        {
            "country_code": "GB",
            "city": "London",
            "latitude": 51.5073509,
            "longitude": -0.1277583,
            "type": "FN"
        },
        {
            "country_code": "GR",
            "city": "Athens",
            "latitude": 37.983917,
            "longitude": 23.7293599,
            "type": "FN"
        },
        {
            "country_code": "HR",
            "city": "Zagreb",
            "latitude": 45.8150108,
            "longitude": 15.981919,
            "type": "FN"
        },
        {
            "country_code": "IE",
            "city": "Dublin",
            "latitude": 53.3498053,
            "longitude": -6.2603097,
            "type": "FN"
        },
        {
            "country_code": "IL",
            "city": "Tel Aviv",
            "latitude": 32.0852999,
            "longitude": 34.7817676,
            "type": "FN"
        },
        {
            "country_code": "IS",
            "city": "Reykjavik",
            "latitude": 64.133333,
            "longitude": -21.933333,
            "type": "FN"
        },
        {
            "country_code": "IT",
            "city": "Milan",
            "latitude": 45.4654219,
            "longitude": 9.1859243,
            "type": "FN"
        },
        {
            "country_code": "IT",
            "city": "Rome",
            "latitude": 41.9027835,
            "longitude": 12.4963655,
            "type": "FN"
        },
        {
            "country_code": "IT",
            "city": "Turin",
            "latitude": 45.070312,
            "longitude": 7.6868565,
            "type": "FN"
        },
        {
            "country_code": "LB",
            "city": "Beirut",
            "latitude": 33.8886289,
            "longitude": 35.4954794,
            "type": "FN"
        },
        {
            "country_code": "LT",
            "city": "Vilnius",
            "latitude": 54.6341018677,
            "longitude": 25.2858009338,
            "type": "TP"
        },
        {
            "country_code": "LU",
            "city": "Bettembourg",
            "latitude": 49.5192118,
            "longitude": 6.1002461,
            "type": "FN"
        },
        {
            "country_code": "LV",
            "city": "Riga",
            "latitude": 56.9496487,
            "longitude": 24.1051864,
            "type": "FN"
        },
        {
            "country_code": "N/A",
            "city": "N/A",
            "latitude": 46.0475,
            "longitude": 14.4605,
            "type": "TP"
        },
        {
            "country_code": "NL",
            "city": "Amsterdam",
            "latitude": 52.3702157,
            "longitude": 4.8951679,
            "type": "FN"
        },
        {
            "country_code": "NO",
            "city": "Oslo",
            "latitude": 59.9138688,
            "longitude": 10.7522454,
            "type": "FN"
        },
        {
            "country_code": "PL",
            "city": "Warsaw",
            "latitude": 52.2296756,
            "longitude": 21.0122287,
            "type": "FN"
        },
        {
            "country_code": "PT",
            "city": "Lisbon",
            "latitude": 38.7222524,
            "longitude": -9.1393366,
            "type": "FN"
        },
        {
            "country_code": "RS",
            "city": "Belgrade",
            "latitude": 44.786568,
            "longitude": 20.4489216,
            "type": "FN"
        },
        {
            "country_code": "RU",
            "city": "Moscow",
            "latitude": 55.755826,
            "longitude": 37.6173,
            "type": "FN"
        },
        {
            "country_code": "RU",
            "city": "Saint Petersburg",
            "latitude": 59.9342802,
            "longitude": 30.3350986,
            "type": "FN"
        },
        {
            "country_code": "SE",
            "city": "Stockholm",
            "latitude": 59.3293235,
            "longitude": 18.0685808,
            "type": "FN"
        },
        {
            "country_code": "SK",
            "city": "Bratislava",
            "latitude": 48.1458923,
            "longitude": 17.1071373,
            "type": "FN"
        },
        {
            "country_code": "UA",
            "city": "Kiev",
            "latitude": 50.4501,
            "longitude": 30.5234,
            "type": "FN"
        }
    ]
}