{
    "target": "199.7.83.42",
    "measurement_filepath": "datasets/measurements/campaigns/199.7.83.42_North-Central_20230410/199.7.83.42_North-Central_300_52100151.json",
    "probes_filepath": "datasets/probes_sets/North-Central_300.json",
    "alpha": 1,
    "threshold": 5.0,
    "noise": 0,
    "num_anycast_instances": 13,
    "anycast_instances": [
        {
            "marker": {
                "id": "MAD",
                "latitude": 40.4936,
                "longitude": -3.56676,
                "city": "Madrid",
                "country_code": "ES"
            },
            "circle": {
                "id": "1005357",
                "latitude": 40.4905,
                "longitude": -3.6905,
                "radius": 15.310874502143639
            }
        },
        {
            "marker": {
                "id": "PRG",
                "latitude": 50.1007995605,
                "longitude": 14.2600002289,
                "city": "Prague",
                "country_code": "CZ"
            },
            "circle": {
                "id": "1004988",
                "latitude": 50.0915,
                "longitude": 14.4115,
                "radius": 18.476350088995257
            }
        },
        {
            "marker": {
                "id": "MHP",
                "latitude": 53.8644981384,
                "longitude": 27.5396995544,
                "city": "Minsk",
                "country_code": "BY"
            },
            "circle": {
                "id": "1000444",
                "latitude": 53.9595,
                "longitude": 27.7795,
                "radius": 27.01771902232578
            }
        },
        {
            "marker": {
                "id": "TMP",
                "latitude": 61.414100647,
                "longitude": 23.6044006348,
                "city": "Tampere/Pirkkala",
                "country_code": "FI"
            },
            "circle": {
                "id": "14572",
                "latitude": 61.4685,
                "longitude": 23.4605,
                "radius": 28.738075044634197
            }
        },
        {
            "marker": {
                "id": "SOF",
                "latitude": 42.6966934204,
                "longitude": 23.4114360809,
                "city": "Sofia",
                "country_code": "BG"
            },
            "circle": {
                "id": "27804",
                "latitude": 42.6595,
                "longitude": 23.3875,
                "radius": 34.82746244945478
            }
        },
        {
            "marker": {
                "id": "LED",
                "latitude": 59.8003005981,
                "longitude": 30.2625007629,
                "city": "St Petersburg",
                "country_code": "RU"
            },
            "circle": {
                "id": "11072",
                "latitude": 59.9985,
                "longitude": 30.2405,
                "radius": 34.95527296807392
            }
        },
        {
            "marker": {
                "id": "PAR",
                "latitude": 49.0127983093,
                "longitude": 2.5499999523,
                "city": "Paris",
                "country_code": "FR"
            },
            "circle": {
                "id": "52786",
                "latitude": 48.9305,
                "longitude": 2.3615,
                "radius": 38.27637681572249
            }
        },
        {
            "marker": {
                "id": "BEG",
                "latitude": 44.8184013367,
                "longitude": 20.3090991974,
                "city": "Belgrade",
                "country_code": "RS"
            },
            "circle": {
                "id": "53530",
                "latitude": 44.8175,
                "longitude": 20.4485,
                "radius": 44.30443567741002
            }
        },
        {
            "marker": {
                "id": "CKL",
                "latitude": 55.8782997131,
                "longitude": 38.0616989136,
                "city": "Moscow",
                "country_code": "RU"
            },
            "circle": {
                "id": "20904",
                "latitude": 55.9995,
                "longitude": 37.8675,
                "radius": 56.08844677628135
            }
        },
        {
            "marker": {
                "id": "BRU",
                "latitude": 50.9014015198,
                "longitude": 4.4844398499,
                "city": "Brussels",
                "country_code": "BE"
            },
            "circle": {
                "id": "11833",
                "latitude": 51.1985,
                "longitude": 4.3985,
                "radius": 67.0902693729849
            }
        },
        {
            "marker": {
                "id": "BBU",
                "latitude": 44.503200531,
                "longitude": 26.1021003723,
                "city": "Bucharest",
                "country_code": "RO"
            },
            "circle": {
                "id": "61012",
                "latitude": 44.3785,
                "longitude": 26.1275,
                "radius": 76.83263087646006
            }
        },
        {
            "marker": {
                "id": "ILD",
                "latitude": 41.728185,
                "longitude": 0.535023,
                "city": "Lleida",
                "country_code": "ES"
            },
            "circle": {
                "id": "1005149",
                "latitude": 41.6115,
                "longitude": 0.6295,
                "radius": 109.540116955017
            }
        },
        {
            "marker": {
                "id": "WIE",
                "latitude": 48.1102981567,
                "longitude": 16.5697002411,
                "city": "Vienna",
                "country_code": "AT"
            },
            "circle": {
                "id": "31908",
                "latitude": 49.2115,
                "longitude": 16.6375,
                "radius": 123.79923257468381
            }
        }
    ]
}