{
    "target": "198.97.190.53",
    "measurement_filepath": "datasets/measurements/campaigns/198.97.190.53_North-Central_20230410/198.97.190.53_North-Central_1000_52071953.json",
    "probes_filepath": "datasets/probes_sets/North-Central_1000.json",
    "alpha": 0.0,
    "threshold": -1,
    "noise": 0,
    "num_anycast_instances": 30,
    "anycast_instances": [
        {
            "marker": {
                "id": "FRA",
                "latitude": 50.0264015198,
                "longitude": 8.543129921,
                "city": "Frankfurt-am-Main",
                "country_code": "DE"
            },
            "circle": {
                "id": "1002660",
                "latitude": 50.1075,
                "longitude": 8.6805,
                "radius": 15.28454073263292
            }
        },
        {
            "marker": {
                "id": "LCY",
                "latitude": 51.5052986145,
                "longitude": 0.0552779995,
                "city": "London",
                "country_code": "GB"
            },
            "circle": {
                "id": "1002085",
                "latitude": 51.5095,
                "longitude": -0.1285,
                "radius": 16.008584487571618
            }
        },
        {
            "marker": {
                "id": "EVX",
                "latitude": 49.0287017822,
                "longitude": 1.2198599577,
                "city": "\u00c9vreux/Fauville",
                "country_code": "FR"
            },
            "circle": {
                "id": "1002484",
                "latitude": 48.8595,
                "longitude": 2.3415,
                "radius": 90.65988346867955
            }
        },
        {
            "marker": {
                "id": "UDE",
                "latitude": 51.6563987732,
                "longitude": 5.7086100578,
                "city": "Uden",
                "country_code": "NL"
            },
            "circle": {
                "id": "7117",
                "latitude": 51.2705,
                "longitude": 6.8175,
                "radius": 98.28261935843273
            }
        },
        {
            "marker": {
                "id": "LIL",
                "latitude": 50.5619010925,
                "longitude": 3.0894401073,
                "city": "Lille/Lesquin",
                "country_code": "FR"
            },
            "circle": {
                "id": "1000163",
                "latitude": 51.0185,
                "longitude": 2.1505,
                "radius": 99.77846380686952
            }
        },
        {
            "marker": {
                "id": "IGS",
                "latitude": 48.7156982422,
                "longitude": 11.5340003967,
                "city": "Manching",
                "country_code": "DE"
            },
            "circle": {
                "id": "1003072",
                "latitude": 49.4485,
                "longitude": 11.0805,
                "radius": 101.51166293807867
            }
        },
        {
            "marker": {
                "id": "GLA",
                "latitude": 55.8718986511,
                "longitude": -4.4330601692,
                "city": "Glasgow",
                "country_code": "GB"
            },
            "circle": {
                "id": "1002711",
                "latitude": 55.3775,
                "longitude": -3.4425,
                "radius": 103.36144835827943
            }
        },
        {
            "marker": {
                "id": "BHX",
                "latitude": 52.4538993835,
                "longitude": -1.7480299473,
                "city": "Birmingham",
                "country_code": "GB"
            },
            "circle": {
                "id": "15838",
                "latitude": 51.5715,
                "longitude": -2.0215,
                "radius": 103.72056974371763
            }
        },
        {
            "marker": {
                "id": "ODH",
                "latitude": 51.2341003418,
                "longitude": -0.9428250194,
                "city": "Odiham",
                "country_code": "GB"
            },
            "circle": {
                "id": "1005028",
                "latitude": 51.5415,
                "longitude": -0.6715,
                "radius": 39.41018589602934
            }
        },
        {
            "marker": {
                "id": "EPL",
                "latitude": 48.3250007629,
                "longitude": 6.0699801445,
                "city": "\u00c9pinal/Mirecourt",
                "country_code": "FR"
            },
            "circle": {
                "id": "33863",
                "latitude": 48.5885,
                "longitude": 7.7505,
                "radius": 128.69194442075496
            }
        },
        {
            "marker": {
                "id": "FDH",
                "latitude": 47.6712989807,
                "longitude": 9.5114898682,
                "city": "Friedrichshafen",
                "country_code": "DE"
            },
            "circle": {
                "id": "22152",
                "latitude": 48.7785,
                "longitude": 9.1795,
                "radius": 129.06806403856174
            }
        },
        {
            "marker": {
                "id": "PRG",
                "latitude": 50.1007995605,
                "longitude": 14.2600002289,
                "city": "Prague",
                "country_code": "CZ"
            },
            "circle": {
                "id": "1000609",
                "latitude": 50.4815,
                "longitude": 12.3275,
                "radius": 154.40886696574333
            }
        },
        {
            "marker": {
                "id": "SGD",
                "latitude": 54.9644012451,
                "longitude": 9.7917299271,
                "city": "S\u00f8nderborg",
                "country_code": "DK"
            },
            "circle": {
                "id": "50025",
                "latitude": 53.5495,
                "longitude": 10.0485,
                "radius": 187.22789382622375
            }
        },
        {
            "marker": {
                "id": "PAD",
                "latitude": 51.6141014099,
                "longitude": 8.6163196564,
                "city": "Paderborn",
                "country_code": "DE"
            },
            "circle": {
                "id": "6855",
                "latitude": 52.9295,
                "longitude": 9.2695,
                "radius": 163.37427434336735
            }
        },
        {
            "marker": {
                "id": "XFW",
                "latitude": 53.5352783203,
                "longitude": 9.8355560303,
                "city": "Hamburg",
                "country_code": "DE"
            },
            "circle": {
                "id": "6702",
                "latitude": 53.4385,
                "longitude": 6.8375,
                "radius": 198.8578685622501
            }
        },
        {
            "marker": {
                "id": "AOC",
                "latitude": 50.9819450378,
                "longitude": 12.5063886642,
                "city": "Altenburg",
                "country_code": "DE"
            },
            "circle": {
                "id": "18159",
                "latitude": 52.5015,
                "longitude": 13.3095,
                "radius": 215.83365247159506
            }
        },
        {
            "marker": {
                "id": "TGD",
                "latitude": 42.3594017029,
                "longitude": 19.2518997192,
                "city": "Podgorica",
                "country_code": "ME"
            },
            "circle": {
                "id": "6621",
                "latitude": 40.9475,
                "longitude": 17.2785,
                "radius": 243.0198698449397
            }
        },
        {
            "marker": {
                "id": "MAN",
                "latitude": 53.3536987305,
                "longitude": -2.2749500275,
                "city": "Manchester",
                "country_code": "GB"
            },
            "circle": {
                "id": "1003964",
                "latitude": 53.3495,
                "longitude": -6.2595,
                "radius": 283.19942811555734
            }
        },
        {
            "marker": {
                "id": "SPU",
                "latitude": 43.538898468,
                "longitude": 16.2980003357,
                "city": "Split",
                "country_code": "HR"
            },
            "circle": {
                "id": "24859",
                "latitude": 46.1215,
                "longitude": 14.5495,
                "radius": 323.0956555320438
            }
        },
        {
            "marker": {
                "id": "BOU",
                "latitude": 47.0581016541,
                "longitude": 2.3702800274,
                "city": "Bourges",
                "country_code": "FR"
            },
            "circle": {
                "id": "11722",
                "latitude": 45.1785,
                "longitude": 5.7585,
                "radius": 339.897436900841
            }
        },
        {
            "marker": {
                "id": "XBV",
                "latitude": 47.0059013367,
                "longitude": 4.8934202194,
                "city": "Beaune/Challanges",
                "country_code": "FR"
            },
            "circle": {
                "id": "32358",
                "latitude": 45.0815,
                "longitude": 7.6495,
                "radius": 302.48913013272954
            }
        },
        {
            "marker": {
                "id": "CCF",
                "latitude": 43.2159996033,
                "longitude": 2.306319952,
                "city": "Carcassonne/Salvaza",
                "country_code": "FR"
            },
            "circle": {
                "id": "1005247",
                "latitude": 40.4205,
                "longitude": -3.6905,
                "radius": 589.1311320040679
            }
        },
        {
            "marker": {
                "id": "KLD",
                "latitude": 56.8246994019,
                "longitude": 35.7577018738,
                "city": "Tver",
                "country_code": "RU"
            },
            "circle": {
                "id": "1003302",
                "latitude": 53.8985,
                "longitude": 27.5575,
                "radius": 615.1130650860791
            }
        },
        {
            "marker": {
                "id": "LJU",
                "latitude": 46.2237014771,
                "longitude": 14.4575996399,
                "city": "Ljubljana",
                "country_code": "SI"
            },
            "circle": {
                "id": "14899",
                "latitude": 47.5215,
                "longitude": 19.0615,
                "radius": 393.4380105329965
            }
        },
        {
            "marker": {
                "id": "LPX",
                "latitude": 56.5175018311,
                "longitude": 21.0969009399,
                "city": "Liep\u0101ja",
                "country_code": "LV"
            },
            "circle": {
                "id": "23930",
                "latitude": 52.0775,
                "longitude": 21.0085,
                "radius": 498.71772290473297
            }
        },
        {
            "marker": {
                "id": "KGD",
                "latitude": 54.8899993896,
                "longitude": 20.5925998688,
                "city": "Kaliningrad",
                "country_code": "RU"
            },
            "circle": {
                "id": "53752",
                "latitude": 49.8085,
                "longitude": 24.0195,
                "radius": 612.0577812150899
            }
        },
        {
            "marker": {
                "id": "MJV",
                "latitude": 37.7750015259,
                "longitude": -0.8123890162,
                "city": "San Javier",
                "country_code": "ES"
            },
            "circle": {
                "id": "32558",
                "latitude": 38.7215,
                "longitude": -9.2405,
                "radius": 745.9078797200784
            }
        },
        {
            "marker": {
                "id": "LPI",
                "latitude": 58.4062004089,
                "longitude": 15.6805000305,
                "city": "Link\u00f6ping",
                "country_code": "SE"
            },
            "circle": {
                "id": "34635",
                "latitude": 67.2995,
                "longitude": 14.3985,
                "radius": 999.5027816226637
            }
        },
        {
            "marker": {
                "id": "DOG",
                "latitude": 19.1539001465,
                "longitude": 30.4300994873,
                "city": "Dongola",
                "country_code": "SD"
            },
            "circle": {
                "id": "51467",
                "latitude": 32.0905,
                "longitude": 34.7805,
                "radius": 1505.942207903385
            }
        },
        {
            "marker": {
                "id": "TCE",
                "latitude": 45.0625,
                "longitude": 28.7143001556,
                "city": "Tulcea",
                "country_code": "RO"
            },
            "circle": {
                "id": "11003",
                "latitude": 48.4485,
                "longitude": 22.7075,
                "radius": 597.6889325620215
            }
        }
    ]
}