{
    "target": "192.33.4.12",
    "probes_filepath": "datasets/probes_section/North-Central-section_2.json",
    "alpha": 0.0,
    "threshold": -1,
    "noise": 0,
    "results_filepath": "datasets/results/campaigns/192.33.4.12_North-Central-section_20230425_alpha_light-factor_0.25/192.33.4.12_North-Central-section_2_52641718_0.0_-1_0.json",
    "gt_filepath": "datasets/ground-truth/root_servers/root_servers_C.json",
    "statistics": {
        "TP": 2,
        "FP": 16,
        "TN": 0,
        "FN": 2,
        "accuracy": 0.1,
        "precision": 0.1111111111111111,
        "recall": 0.5,
        "f1": 0.1818181818181818,
        "OT": 0,
        "OF": 0
    },
    "instances": [
        {
            "country_code": "CZ",
            "city": "Brno",
            "latitude": 49.1512985229,
            "longitude": 16.6944007874,
            "type": "FP"
        },
        {
            "country_code": "DE",
            "city": "Frankfurt",
            "latitude": 50.1109221,
            "longitude": 8.6821267,
            "type": "FN"
        },
        {
            "country_code": "DE",
            "city": "Trier",
            "latitude": 49.9726982117,
            "longitude": 6.6925001144,
            "type": "FP"
        },
        {
            "country_code": "DK",
            "city": "Karup",
            "latitude": 56.2975006104,
            "longitude": 9.1246299744,
            "type": "FP"
        },
        {
            "country_code": "DZ",
            "city": "Oran",
            "latitude": 35.6239013672,
            "longitude": -0.6211829782,
            "type": "FP"
        },
        {
            "country_code": "ES",
            "city": "Madrid",
            "latitude": 40.3707008362,
            "longitude": -3.7851400375,
            "type": "TP"
        },
        {
            "country_code": "ES",
            "city": "Melilla",
            "latitude": 35.279800415,
            "longitude": -2.9562599659,
            "type": "FP"
        },
        {
            "country_code": "FR",
            "city": "Biarritz/Anglet/Bayonne",
            "latitude": 43.4683990479,
            "longitude": -1.5233199596,
            "type": "FP"
        },
        {
            "country_code": "FR",
            "city": "Creil",
            "latitude": 49.2535018921,
            "longitude": 2.5191400051,
            "type": "FP"
        },
        {
            "country_code": "FR",
            "city": "Paris",
            "latitude": 48.7252998352,
            "longitude": 2.3594400883,
            "type": "TP"
        },
        {
            "country_code": "GB",
            "city": "Barrow-in-Furness",
            "latitude": 54.1311988831,
            "longitude": -3.2636699677,
            "type": "FP"
        },
        {
            "country_code": "GR",
            "city": "Athens",
            "latitude": 37.9364013672,
            "longitude": 23.9444999695,
            "type": "FP"
        },
        {
            "country_code": "HR",
            "city": "Zadar",
            "latitude": 44.1082992554,
            "longitude": 15.3466997147,
            "type": "FP"
        },
        {
            "country_code": "IT",
            "city": "Milan",
            "latitude": 45.6305999756,
            "longitude": 8.7281103134,
            "type": "FP"
        },
        {
            "country_code": "SE",
            "city": "Malm\u00f6",
            "latitude": 55.536305364,
            "longitude": 13.3761978149,
            "type": "FP"
        },
        {
            "country_code": "SE",
            "city": "Norrk\u00f6ping",
            "latitude": 58.5862998962,
            "longitude": 16.2506008148,
            "type": "FP"
        },
        {
            "country_code": "SI",
            "city": "Portoroz",
            "latitude": 45.473400116,
            "longitude": 13.6149997711,
            "type": "FP"
        },
        {
            "country_code": "SK",
            "city": "Bratislava",
            "latitude": 48.1458923,
            "longitude": 17.1071373,
            "type": "FN"
        },
        {
            "country_code": "UA",
            "city": "Chernivtsi",
            "latitude": 48.2593002319,
            "longitude": 25.9808006287,
            "type": "FP"
        },
        {
            "country_code": "UA",
            "city": "Lviv",
            "latitude": 49.8125,
            "longitude": 23.9561004639,
            "type": "FP"
        }
    ]
}