{
    "target": "202.12.27.33",
    "measurement_filepath": "datasets/measurements/campaigns/202.12.27.33_North-Central_20230410/202.12.27.33_North-Central_300_52101188.json",
    "probes_filepath": "datasets/probes_sets/North-Central_300.json",
    "alpha": 1,
    "threshold": 20.0,
    "noise": 0,
    "num_anycast_instances": 8,
    "anycast_instances": [
        {
            "marker": {
                "id": "ORY",
                "latitude": 48.7252998352,
                "longitude": 2.3594400883,
                "city": "Paris",
                "country_code": "FR"
            },
            "circle": {
                "id": "1000724",
                "latitude": 48.7695,
                "longitude": 2.3785,
                "radius": 21.337044671345758
            }
        },
        {
            "marker": {
                "id": "SEN",
                "latitude": 51.5713996887,
                "longitude": 0.695555985,
                "city": "Southend",
                "country_code": "GB"
            },
            "circle": {
                "id": "1004867",
                "latitude": 51.0205,
                "longitude": 2.1605,
                "radius": 138.59945859141772
            }
        },
        {
            "marker": {
                "id": "MHG",
                "latitude": 49.4730567932,
                "longitude": 8.514166832,
                "city": "Mannheim",
                "country_code": "DE"
            },
            "circle": {
                "id": "12829",
                "latitude": 49.2015,
                "longitude": 6.2085,
                "radius": 173.14348226145643
            }
        },
        {
            "marker": {
                "id": "BNX",
                "latitude": 50.4592018127,
                "longitude": 4.4538202286,
                "city": "Brussels",
                "country_code": "BE"
            },
            "circle": {
                "id": "33832",
                "latitude": 50.5785,
                "longitude": 2.8485,
                "radius": 152.26306947043793
            }
        },
        {
            "marker": {
                "id": "LYS",
                "latitude": 45.726398468,
                "longitude": 5.0908298492,
                "city": "Lyon",
                "country_code": "FR"
            },
            "circle": {
                "id": "19671",
                "latitude": 45.7775,
                "longitude": 4.9205,
                "radius": 207.35695776522886
            }
        },
        {
            "marker": {
                "id": "NTE",
                "latitude": 47.1531982422,
                "longitude": -1.610730052,
                "city": "Nantes",
                "country_code": "FR"
            },
            "circle": {
                "id": "1004691",
                "latitude": 45.6675,
                "longitude": -0.9385,
                "radius": 287.07926116302974
            }
        },
        {
            "marker": {
                "id": "LCY",
                "latitude": 51.5052986145,
                "longitude": 0.0552779995,
                "city": "London",
                "country_code": "GB"
            },
            "circle": {
                "id": "30995",
                "latitude": 53.3295,
                "longitude": -6.2585,
                "radius": 476.982299025574
            }
        },
        {
            "marker": {
                "id": "SXF",
                "latitude": 52.3800010681,
                "longitude": 13.5225000381,
                "city": "Berlin",
                "country_code": "DE"
            },
            "circle": {
                "id": "32130",
                "latitude": 55.7175,
                "longitude": 12.4385,
                "radius": 510.4988200209126
            }
        }
    ]
}