{
    "target": "104.16.123.96",
    "measurement_filepath": "datasets/measurements/campaigns/104.16.123.96_North-Central_20230418/104.16.123.96_North-Central_300_52452380.json",
    "probes_filepath": "datasets/probes_sets/North-Central_300.json",
    "alpha": 0.0,
    "threshold": -1,
    "noise": 0,
    "num_anycast_instances": 44,
    "anycast_instances": [
        {
            "marker": {
                "id": "ECN",
                "latitude": 35.1547012329,
                "longitude": 33.4961013794,
                "city": "Nicosia",
                "country_code": "CY"
            },
            "circle": {
                "id": "18864",
                "latitude": 35.1495,
                "longitude": 33.3505,
                "radius": 23.875171562662
            }
        },
        {
            "marker": {
                "id": "AMX",
                "latitude": 52.3086013794,
                "longitude": 4.7638897896,
                "city": "Amsterdam",
                "country_code": "NL"
            },
            "circle": {
                "id": "1004258",
                "latitude": 52.3815,
                "longitude": 4.8995,
                "radius": 27.686395607158747
            }
        },
        {
            "marker": {
                "id": "QEF",
                "latitude": 49.9599990845,
                "longitude": 8.6458330154,
                "city": "Egelsbach",
                "country_code": "DE"
            },
            "circle": {
                "id": "1002660",
                "latitude": 50.1075,
                "longitude": 8.6805,
                "radius": 27.71202786231775
            }
        },
        {
            "marker": {
                "id": "PRG",
                "latitude": 50.1007995605,
                "longitude": 14.2600002289,
                "city": "Prague",
                "country_code": "CZ"
            },
            "circle": {
                "id": "30144",
                "latitude": 50.0795,
                "longitude": 14.5295,
                "radius": 34.24229455276
            }
        },
        {
            "marker": {
                "id": "XFW",
                "latitude": 53.5352783203,
                "longitude": 9.8355560303,
                "city": "Hamburg",
                "country_code": "DE"
            },
            "circle": {
                "id": "50025",
                "latitude": 53.5495,
                "longitude": 10.0485,
                "radius": 36.584048390312496
            }
        },
        {
            "marker": {
                "id": "LED",
                "latitude": 59.8003005981,
                "longitude": 30.2625007629,
                "city": "St Petersburg",
                "country_code": "RU"
            },
            "circle": {
                "id": "14793",
                "latitude": 59.8385,
                "longitude": 30.3115,
                "radius": 42.73983682665549
            }
        },
        {
            "marker": {
                "id": "SOF",
                "latitude": 42.6966934204,
                "longitude": 23.4114360809,
                "city": "Sofia",
                "country_code": "BG"
            },
            "circle": {
                "id": "16209",
                "latitude": 42.6615,
                "longitude": 23.3075,
                "radius": 43.56778864753699
            }
        },
        {
            "marker": {
                "id": "GRNET",
                "latitude": 37.9908372,
                "longitude": 23.7383394,
                "city": "Athens",
                "country_code": "GR"
            },
            "circle": {
                "id": "22125",
                "latitude": 37.8695,
                "longitude": 23.8685,
                "radius": 45.910779128978746
            }
        },
        {
            "marker": {
                "id": "BUD",
                "latitude": 47.4369010925,
                "longitude": 19.2555999756,
                "city": "Budapest",
                "country_code": "HU"
            },
            "circle": {
                "id": "53435",
                "latitude": 47.4995,
                "longitude": 19.0385,
                "radius": 54.13438604437675
            }
        },
        {
            "marker": {
                "id": "BTS",
                "latitude": 48.1702003479,
                "longitude": 17.2126998901,
                "city": "Bratislava",
                "country_code": "SK"
            },
            "circle": {
                "id": "53983",
                "latitude": 48.2085,
                "longitude": 16.3715,
                "radius": 66.0839260499705
            }
        },
        {
            "marker": {
                "id": "BVA",
                "latitude": 49.4543991089,
                "longitude": 2.1127800941,
                "city": "Beauvais/Till\u00e9",
                "country_code": "FR"
            },
            "circle": {
                "id": "17276",
                "latitude": 48.9105,
                "longitude": 2.2705,
                "radius": 67.04543541089099
            }
        },
        {
            "marker": {
                "id": "DME",
                "latitude": 55.4087982178,
                "longitude": 37.9062995911,
                "city": "Moscow",
                "country_code": "RU"
            },
            "circle": {
                "id": "13251",
                "latitude": 55.9175,
                "longitude": 37.8195,
                "radius": 69.50504515849474
            }
        },
        {
            "marker": {
                "id": "ZAG",
                "latitude": 45.7429008484,
                "longitude": 16.0687999725,
                "city": "Zagreb",
                "country_code": "HR"
            },
            "circle": {
                "id": "13593",
                "latitude": 46.3085,
                "longitude": 16.3415,
                "radius": 69.5829537235175
            }
        },
        {
            "marker": {
                "id": "EKT",
                "latitude": 59.3511009216,
                "longitude": 16.7084007263,
                "city": "Eskilstuna",
                "country_code": "SE"
            },
            "circle": {
                "id": "14746",
                "latitude": 59.3805,
                "longitude": 17.9795,
                "radius": 72.931560531263
            }
        },
        {
            "marker": {
                "id": "TOJ",
                "latitude": 40.4967002869,
                "longitude": -3.4458699226,
                "city": "Madrid",
                "country_code": "ES"
            },
            "circle": {
                "id": "1003694",
                "latitude": 40.3395,
                "longitude": -3.7685,
                "radius": 73.80553049444751
            }
        },
        {
            "marker": {
                "id": "KUN",
                "latitude": 54.9639015198,
                "longitude": 24.0848007202,
                "city": "Kaunas",
                "country_code": "LT"
            },
            "circle": {
                "id": "1004007",
                "latitude": 54.9005,
                "longitude": 23.8875,
                "radius": 74.24941070257375
            }
        },
        {
            "marker": {
                "id": "SAW",
                "latitude": 40.898601532,
                "longitude": 29.3092002869,
                "city": "Istanbul",
                "country_code": "TR"
            },
            "circle": {
                "id": "25265",
                "latitude": 41.0595,
                "longitude": 28.9905,
                "radius": 74.35385090012949
            }
        },
        {
            "marker": {
                "id": "AGH",
                "latitude": 56.2961006165,
                "longitude": 12.8471002579,
                "city": "\u00c4ngelholm",
                "country_code": "SE"
            },
            "circle": {
                "id": "62426",
                "latitude": 55.6705,
                "longitude": 12.5685,
                "radius": 76.218485040775
            }
        },
        {
            "marker": {
                "id": "GML",
                "latitude": 50.6035003662,
                "longitude": 30.1919002533,
                "city": "Kiev",
                "country_code": "UA"
            },
            "circle": {
                "id": "11629",
                "latitude": 50.4415,
                "longitude": 30.6685,
                "radius": 82.64150097936775
            }
        },
        {
            "marker": {
                "id": "PED",
                "latitude": 50.0134010315,
                "longitude": 15.7385997772,
                "city": "Pardubice",
                "country_code": "CZ"
            },
            "circle": {
                "id": "33280",
                "latitude": 50.0275,
                "longitude": 15.7815,
                "radius": 83.75245688060126
            }
        },
        {
            "marker": {
                "id": "MST",
                "latitude": 50.9117012024,
                "longitude": 5.7701401711,
                "city": "Maastricht",
                "country_code": "NL"
            },
            "circle": {
                "id": "55045",
                "latitude": 50.9395,
                "longitude": 6.9395,
                "radius": 84.02935268962149
            }
        },
        {
            "marker": {
                "id": "RIX",
                "latitude": 56.9235992432,
                "longitude": 23.9710998535,
                "city": "Riga",
                "country_code": "LV"
            },
            "circle": {
                "id": "54838",
                "latitude": 56.9515,
                "longitude": 24.0985,
                "radius": 104.9773506923715
            }
        },
        {
            "marker": {
                "id": "FMM",
                "latitude": 47.9888000488,
                "longitude": 10.2395000458,
                "city": "Memmingen",
                "country_code": "DE"
            },
            "circle": {
                "id": "19531",
                "latitude": 47.2675,
                "longitude": 9.6085,
                "radius": 112.193130312088
            }
        },
        {
            "marker": {
                "id": "DUB",
                "latitude": 53.4212989807,
                "longitude": -6.270070076,
                "city": "Dublin",
                "country_code": "IE"
            },
            "circle": {
                "id": "10633",
                "latitude": 52.8285,
                "longitude": -6.9015,
                "radius": 115.70298798818025
            }
        },
        {
            "marker": {
                "id": "OTP",
                "latitude": 44.5722007751,
                "longitude": 26.1021995544,
                "city": "Bucharest",
                "country_code": "RO"
            },
            "circle": {
                "id": "61956",
                "latitude": 44.4405,
                "longitude": 26.0495,
                "radius": 123.372540967137
            }
        },
        {
            "marker": {
                "id": "REU",
                "latitude": 41.1473999023,
                "longitude": 1.1671700478,
                "city": "Reus",
                "country_code": "ES"
            },
            "circle": {
                "id": "60555",
                "latitude": 41.3895,
                "longitude": 2.1695,
                "radius": 125.65519821640623
            }
        },
        {
            "marker": {
                "id": "OXF",
                "latitude": 51.8368988037,
                "longitude": -1.3200000525,
                "city": "Kidlington",
                "country_code": "GB"
            },
            "circle": {
                "id": "52675",
                "latitude": 51.5395,
                "longitude": 0.7305,
                "radius": 148.5034681882465
            }
        },
        {
            "marker": {
                "id": "KLV",
                "latitude": 50.202999115,
                "longitude": 12.9149999619,
                "city": "Karlovy Vary",
                "country_code": "CZ"
            },
            "circle": {
                "id": "18176",
                "latitude": 49.4505,
                "longitude": 11.0105,
                "radius": 167.72222581919522
            }
        },
        {
            "marker": {
                "id": "VTM",
                "latitude": 31.2082996368,
                "longitude": 35.012298584,
                "city": "Beersheba",
                "country_code": "IL"
            },
            "circle": {
                "id": "53304",
                "latitude": 32.7995,
                "longitude": 35.3775,
                "radius": 204.7379378749705
            }
        },
        {
            "marker": {
                "id": "KRK",
                "latitude": 50.0777015686,
                "longitude": 19.7847995758,
                "city": "Krak\u00f3w",
                "country_code": "PL"
            },
            "circle": {
                "id": "16302",
                "latitude": 51.2385,
                "longitude": 22.2975,
                "radius": 223.28351154148024
            }
        },
        {
            "marker": {
                "id": "BGY",
                "latitude": 45.6739006042,
                "longitude": 9.7041702271,
                "city": "Bergamo",
                "country_code": "IT"
            },
            "circle": {
                "id": "26210",
                "latitude": 43.8675,
                "longitude": 11.0875,
                "radius": 234.45475285204876
            }
        },
        {
            "marker": {
                "id": "OZH",
                "latitude": 47.8670005798,
                "longitude": 35.315700531,
                "city": "Zaporizhia",
                "country_code": "UA"
            },
            "circle": {
                "id": "21724",
                "latitude": 50.0395,
                "longitude": 36.2185,
                "radius": 251.15712753866
            }
        },
        {
            "marker": {
                "id": "WMI",
                "latitude": 52.4510993958,
                "longitude": 20.6518001556,
                "city": "Warsaw",
                "country_code": "PL"
            },
            "circle": {
                "id": "22991",
                "latitude": 54.3475,
                "longitude": 18.6515,
                "radius": 253.6487776052125
            }
        },
        {
            "marker": {
                "id": "CHR",
                "latitude": 46.8622016907,
                "longitude": 1.7306699753,
                "city": "Ch\u00e2teauroux/D\u00e9ols",
                "country_code": "FR"
            },
            "circle": {
                "id": "50617",
                "latitude": 45.7605,
                "longitude": 4.8775,
                "radius": 283.8269731751528
            }
        },
        {
            "marker": {
                "id": "LUG",
                "latitude": 46.0042991638,
                "longitude": 8.9105796814,
                "city": "Lugano",
                "country_code": "CH"
            },
            "circle": {
                "id": "60236",
                "latitude": 46.8505,
                "longitude": 9.5285,
                "radius": 122.85097703833148
            }
        },
        {
            "marker": {
                "id": "XVO",
                "latitude": 47.6375999451,
                "longitude": 6.2039198875,
                "city": "Vesoul/Frotey",
                "country_code": "FR"
            },
            "circle": {
                "id": "1003904",
                "latitude": 47.3695,
                "longitude": 8.0075,
                "radius": 155.77422224994874
            }
        },
        {
            "marker": {
                "id": "RYN",
                "latitude": 45.6281013489,
                "longitude": -0.9725000262,
                "city": "Royan/M\u00e9dis",
                "country_code": "FR"
            },
            "circle": {
                "id": "26108",
                "latitude": 48.1215,
                "longitude": -1.6825,
                "radius": 285.1791870569617
            }
        },
        {
            "marker": {
                "id": "LIS",
                "latitude": 38.7812995911,
                "longitude": -9.1359195709,
                "city": "Lisbon",
                "country_code": "PT"
            },
            "circle": {
                "id": "50272",
                "latitude": 37.2885,
                "longitude": -5.9195,
                "radius": 334.932181275783
            }
        },
        {
            "marker": {
                "id": "CKC",
                "latitude": 49.415599823,
                "longitude": 31.995300293,
                "city": "Cherkasy",
                "country_code": "UA"
            },
            "circle": {
                "id": "22642",
                "latitude": 46.4685,
                "longitude": 30.6995,
                "radius": 347.4691271287705
            }
        },
        {
            "marker": {
                "id": "RVK",
                "latitude": 64.8383026123,
                "longitude": 11.1461000443,
                "city": "R\u00f8rvik",
                "country_code": "NO"
            },
            "circle": {
                "id": "21275",
                "latitude": 65.7995,
                "longitude": 21.6805,
                "radius": 523.3817578486402
            }
        },
        {
            "marker": {
                "id": "URE",
                "latitude": 58.2299003601,
                "longitude": 22.5095005035,
                "city": "Kuressaare",
                "country_code": "EE"
            },
            "circle": {
                "id": "27785",
                "latitude": 60.2395,
                "longitude": 25.1215,
                "radius": 272.949341103138
            }
        },
        {
            "marker": {
                "id": "BOO",
                "latitude": 67.269203186,
                "longitude": 14.3653001785,
                "city": "Bod\u00f8",
                "country_code": "NO"
            },
            "circle": {
                "id": "50865",
                "latitude": 63.6695,
                "longitude": 22.7005,
                "radius": 559.9982587725312
            }
        },
        {
            "marker": {
                "id": "CIA",
                "latitude": 41.7994003296,
                "longitude": 12.5949001312,
                "city": "Rome",
                "country_code": "IT"
            },
            "circle": {
                "id": "62801",
                "latitude": 35.9175,
                "longitude": 14.4675,
                "radius": 676.9236879822637
            }
        },
        {
            "marker": {
                "id": "SKG",
                "latitude": 40.5196990967,
                "longitude": 22.9708995819,
                "city": "Thessaloniki",
                "country_code": "GR"
            },
            "circle": {
                "id": "16235",
                "latitude": 41.3295,
                "longitude": 19.8185,
                "radius": 284.6441324675462
            }
        }
    ]
}