{
    "target": "198.97.190.53",
    "probes_filepath": "datasets/probes_section/North-Central-section_1.json",
    "alpha": 0.0,
    "threshold": -1,
    "noise": 0,
    "results_filepath": "datasets/results/campaigns/198.97.190.53_North-Central-section_20230425_alpha_light-factor_0.35/198.97.190.53_North-Central-section_1_52651836_0.0_-1_0.json",
    "gt_filepath": "datasets/ground-truth/root_servers/root_servers_H.json",
    "statistics": {
        "TP": 1,
        "FP": 4,
        "TN": 0,
        "FN": 1,
        "accuracy": 0.16666666666666666,
        "precision": 0.2,
        "recall": 0.5,
        "f1": 0.28571428571428575,
        "OT": 0,
        "OF": 0
    },
    "instances": [
        {
            "country_code": "DE",
            "city": "Egelsbach",
            "latitude": 49.9599990845,
            "longitude": 8.6458330154,
            "type": "TP"
        },
        {
            "country_code": "GB",
            "city": "Fairford",
            "latitude": 51.6822013855,
            "longitude": -1.7900300026,
            "type": "FP"
        },
        {
            "country_code": "GB",
            "city": "London",
            "latitude": 51.523551,
            "longitude": -0.100785,
            "type": "FN"
        },
        {
            "country_code": "NL",
            "city": "Amsterdam",
            "latitude": 52.3747158,
            "longitude": 4.8986167,
            "type": "FP"
        },
        {
            "country_code": "RS",
            "city": "Nis",
            "latitude": 43.337299,
            "longitude": 21.853701,
            "type": "FP"
        },
        {
            "country_code": "SE",
            "city": "Lule\u00e5",
            "latitude": 65.543800354,
            "longitude": 22.1219997406,
            "type": "FP"
        }
    ]
}