{
    "target": "199.7.83.42",
    "probes_filepath": "datasets/probes_section/North-Central-section_1.json",
    "alpha": 0.0,
    "threshold": -1,
    "noise": 0,
    "results_filepath": "datasets/results/campaigns/199.7.83.42_North-Central-section_20230425_alpha_light-factor_0.25/199.7.83.42_North-Central-section_1_52655092_0.0_-1_0.json",
    "gt_filepath": "datasets/ground-truth/root_servers/root_servers_L.json",
    "statistics": {
        "TP": 15,
        "FP": 27,
        "TN": 0,
        "FN": 26,
        "accuracy": 0.22058823529411764,
        "precision": 0.35714285714285715,
        "recall": 0.36585365853658536,
        "f1": 0.3614457831325302,
        "OT": 0,
        "OF": 0
    },
    "instances": [
        {
            "country_code": "AM",
            "city": "Yerevan",
            "latitude": 40.183333,
            "longitude": 44.516667,
            "type": "FN"
        },
        {
            "country_code": "BA",
            "city": "Tuzla",
            "latitude": 44.4586982727,
            "longitude": 18.7248001099,
            "type": "FP"
        },
        {
            "country_code": "BE",
            "city": "Brussels",
            "latitude": 50.8503396,
            "longitude": 4.3517103,
            "type": "FN"
        },
        {
            "country_code": "BG",
            "city": "Dolna Mitropoliya",
            "latitude": 43.4514007568,
            "longitude": 24.5027999878,
            "type": "FP"
        },
        {
            "country_code": "BG",
            "city": "Sofia",
            "latitude": 42.6977082,
            "longitude": 23.3218675,
            "type": "FN"
        },
        {
            "country_code": "BG",
            "city": "Varna",
            "latitude": 43.2321014404,
            "longitude": 27.8250999451,
            "type": "FP"
        },
        {
            "country_code": "BG",
            "city": "Yambol",
            "latitude": 42.4548988342,
            "longitude": 26.3521995544,
            "type": "FP"
        },
        {
            "country_code": "BY",
            "city": "Minsk",
            "latitude": 53.8824996948,
            "longitude": 28.0307006836,
            "type": "TP"
        },
        {
            "country_code": "CZ",
            "city": "Brno",
            "latitude": 49.1512985229,
            "longitude": 16.6944007874,
            "type": "FP"
        },
        {
            "country_code": "CZ",
            "city": "Prague",
            "latitude": 50.0755381,
            "longitude": 14.4378005,
            "type": "FN"
        },
        {
            "country_code": "DE",
            "city": "Dortmund",
            "latitude": 51.5182991028,
            "longitude": 7.6122398377,
            "type": "TP"
        },
        {
            "country_code": "DE",
            "city": "Dusseldorf",
            "latitude": 51.2254018,
            "longitude": 6.7763137,
            "type": "FN"
        },
        {
            "country_code": "DE",
            "city": "Hamburg",
            "latitude": 53.5437641,
            "longitude": 10.0099133,
            "type": "FN"
        },
        {
            "country_code": "DE",
            "city": "Nuremberg",
            "latitude": 49.4986991882,
            "longitude": 11.0669002533,
            "type": "FP"
        },
        {
            "country_code": "EE",
            "city": "Tallinn",
            "latitude": 59.4132995605,
            "longitude": 24.8327999115,
            "type": "FP"
        },
        {
            "country_code": "ES",
            "city": "El Prat de Llobregat",
            "latitude": 41.3246333,
            "longitude": 2.0952568,
            "type": "FN"
        },
        {
            "country_code": "ES",
            "city": "Madrid",
            "latitude": 40.3707008362,
            "longitude": -3.7851400375,
            "type": "TP"
        },
        {
            "country_code": "ES",
            "city": "Madrid",
            "latitude": 40.4967002869,
            "longitude": -3.4458699226,
            "type": "FP"
        },
        {
            "country_code": "ES",
            "city": "Palma de Mallorca",
            "latitude": 39.551700592,
            "longitude": 2.7388100624,
            "type": "FP"
        },
        {
            "country_code": "FI",
            "city": "Helsinki-Vantaa",
            "latitude": 60.32135905,
            "longitude": 24.947206800038444,
            "type": "FN"
        },
        {
            "country_code": "FI",
            "city": "Kuusamo",
            "latitude": 65.9876022339,
            "longitude": 29.2394008636,
            "type": "FP"
        },
        {
            "country_code": "FI",
            "city": "Mikkeli",
            "latitude": 61.6865997314,
            "longitude": 27.2017993927,
            "type": "FP"
        },
        {
            "country_code": "FI",
            "city": "Tampere",
            "latitude": 61.4977524,
            "longitude": 23.7609535,
            "type": "FN"
        },
        {
            "country_code": "FR",
            "city": "Albi/Le S\u00e9questre",
            "latitude": 43.913898468,
            "longitude": 2.1130599976,
            "type": "FP"
        },
        {
            "country_code": "FR",
            "city": "Blois/Le Breuil",
            "latitude": 47.6785011292,
            "longitude": 1.2088400126,
            "type": "FP"
        },
        {
            "country_code": "FR",
            "city": "Chamb\u00e9ry/Aix-les-Bains",
            "latitude": 45.6380996704,
            "longitude": 5.88022995,
            "type": "TP"
        },
        {
            "country_code": "FR",
            "city": "Marseille",
            "latitude": 43.2961743,
            "longitude": 5.3699525,
            "type": "FN"
        },
        {
            "country_code": "FR",
            "city": "Paris",
            "latitude": 48.856614,
            "longitude": 2.3522219,
            "type": "FN"
        },
        {
            "country_code": "FR",
            "city": "Paris-Orly",
            "latitude": 48.73005725,
            "longitude": 2.3678372321914303,
            "type": "FN"
        },
        {
            "country_code": "GB",
            "city": "Dundee",
            "latitude": 56.4605938,
            "longitude": -2.97019,
            "type": "FN"
        },
        {
            "country_code": "GB",
            "city": "Leeds",
            "latitude": 53.8658981323,
            "longitude": -1.6605700254,
            "type": "TP"
        },
        {
            "country_code": "GR",
            "city": "Heraklion",
            "latitude": 35.3396987915,
            "longitude": 25.1802997589,
            "type": "TP"
        },
        {
            "country_code": "IQ",
            "city": "Arbil",
            "latitude": 36.2375984192,
            "longitude": 43.9631996155,
            "type": "TP"
        },
        {
            "country_code": "IT",
            "city": "Ancona",
            "latitude": 43.6162986755,
            "longitude": 13.3622999191,
            "type": "TP"
        },
        {
            "country_code": "IT",
            "city": "Florence",
            "latitude": 43.7698712,
            "longitude": 11.2555757,
            "type": "FN"
        },
        {
            "country_code": "IT",
            "city": "Grottaglie",
            "latitude": 40.5175018311,
            "longitude": 17.4032001495,
            "type": "FP"
        },
        {
            "country_code": "IT",
            "city": "Latina",
            "latitude": 41.45952605,
            "longitude": 13.012591212188894,
            "type": "FN"
        },
        {
            "country_code": "IT",
            "city": "Pescara",
            "latitude": 42.4317016602,
            "longitude": 14.1810998917,
            "type": "FP"
        },
        {
            "country_code": "JO",
            "city": "Amman",
            "latitude": 31.972700119,
            "longitude": 35.9916000366,
            "type": "TP"
        },
        {
            "country_code": "LB",
            "city": "Beirut",
            "latitude": 33.8886289,
            "longitude": 35.4954794,
            "type": "FN"
        },
        {
            "country_code": "MA",
            "city": "Rabat",
            "latitude": 34.0514984131,
            "longitude": -6.7515201569,
            "type": "TP"
        },
        {
            "country_code": "MK",
            "city": "Skopje",
            "latitude": 41.9616012573,
            "longitude": 21.6214008331,
            "type": "FP"
        },
        {
            "country_code": "PR",
            "city": "Carolina",
            "latitude": 50.0142635,
            "longitude": 14.4570023,
            "type": "FN"
        },
        {
            "country_code": "PS",
            "city": "Ramallah",
            "latitude": 31.9030543,
            "longitude": 35.1952255,
            "type": "FN"
        },
        {
            "country_code": "PT",
            "city": "Porto",
            "latitude": 41.1494512,
            "longitude": -8.6107884,
            "type": "FN"
        },
        {
            "country_code": "RE",
            "city": "St Denis",
            "latitude": 44.2316351,
            "longitude": 4.2530464,
            "type": "FN"
        },
        {
            "country_code": "RO",
            "city": "Baia Mare",
            "latitude": 47.6584014893,
            "longitude": 23.4699993134,
            "type": "FP"
        },
        {
            "country_code": "RO",
            "city": "Bucharest",
            "latitude": 44.5722007751,
            "longitude": 26.1021995544,
            "type": "TP"
        },
        {
            "country_code": "RS",
            "city": "Belgrade",
            "latitude": 44.8184013367,
            "longitude": 20.3090991974,
            "type": "TP"
        },
        {
            "country_code": "RU",
            "city": "Moscow",
            "latitude": 55.4087982178,
            "longitude": 37.9062995911,
            "type": "TP"
        },
        {
            "country_code": "RU",
            "city": "Rostov-on-Don",
            "latitude": 47.2213858,
            "longitude": 39.7114196,
            "type": "FN"
        },
        {
            "country_code": "RU",
            "city": "Saint Petersburg",
            "latitude": 59.9342802,
            "longitude": 30.3350986,
            "type": "FN"
        },
        {
            "country_code": "RU",
            "city": "Velikiye Luki",
            "latitude": 56.3810997009,
            "longitude": 30.6081008911,
            "type": "FP"
        },
        {
            "country_code": "RU",
            "city": "Yeysk",
            "latitude": 46.68,
            "longitude": 38.21,
            "type": "FP"
        },
        {
            "country_code": "SE",
            "city": "Lidk\u00f6ping",
            "latitude": 58.4654998779,
            "longitude": 13.1744003296,
            "type": "FP"
        },
        {
            "country_code": "SE",
            "city": "Skellefte\u00e5",
            "latitude": 64.6248016357,
            "longitude": 21.0769004822,
            "type": "FP"
        },
        {
            "country_code": "SE",
            "city": "Stockholm",
            "latitude": 59.6519012451,
            "longitude": 17.9186000824,
            "type": "TP"
        },
        {
            "country_code": "SE",
            "city": "Visby",
            "latitude": 57.6627998352,
            "longitude": 18.346200943,
            "type": "FP"
        },
        {
            "country_code": "SK",
            "city": "Bratislava",
            "latitude": 48.1458923,
            "longitude": 17.1071373,
            "type": "FN"
        },
        {
            "country_code": "TR",
            "city": "Ankara",
            "latitude": 39.7160439,
            "longitude": 32.7059948,
            "type": "FN"
        },
        {
            "country_code": "TR",
            "city": "Edremit",
            "latitude": 39.554599762,
            "longitude": 27.0137996674,
            "type": "FP"
        },
        {
            "country_code": "TR",
            "city": "Siirt",
            "latitude": 37.9789009094,
            "longitude": 41.8404006958,
            "type": "FP"
        },
        {
            "country_code": "UA",
            "city": "Kharkiv",
            "latitude": 49.9902794,
            "longitude": 36.2303893,
            "type": "FN"
        },
        {
            "country_code": "UA",
            "city": "Kiev",
            "latitude": 50.3450012207,
            "longitude": 30.8946990967,
            "type": "TP"
        },
        {
            "country_code": "UA",
            "city": "Kiev",
            "latitude": 50.4016990662,
            "longitude": 30.4496994019,
            "type": "FP"
        },
        {
            "country_code": "UA",
            "city": "Kryvyi Rih",
            "latitude": 48.0433006287,
            "longitude": 33.2099990845,
            "type": "FP"
        },
        {
            "country_code": "UA",
            "city": "Nikolayev",
            "latitude": 47.0578994751,
            "longitude": 31.9197998047,
            "type": "FP"
        },
        {
            "country_code": "UA",
            "city": "Odessa",
            "latitude": 46.4873195,
            "longitude": 30.7392776,
            "type": "FN"
        }
    ]
}