{
    "target": "199.7.83.42",
    "probes_filepath": "datasets/probes_section/North-Central-section_2.json",
    "alpha": 0.4,
    "threshold": -1,
    "noise": 0,
    "results_filepath": "datasets/results/campaigns/199.7.83.42_North-Central-section_20230425_alpha_light-factor_0.25/199.7.83.42_North-Central-section_2_52655401_0.4_-1_0.json",
    "gt_filepath": "datasets/ground-truth/root_servers/root_servers_L.json",
    "statistics": {
        "TP": 15,
        "FP": 14,
        "TN": 0,
        "FN": 26,
        "accuracy": 0.2727272727272727,
        "precision": 0.5172413793103449,
        "recall": 0.36585365853658536,
        "f1": 0.42857142857142855,
        "OT": 0,
        "OF": 0
    },
    "instances": [
        {
            "country_code": "AM",
            "city": "Yerevan",
            "latitude": 40.183333,
            "longitude": 44.516667,
            "type": "FN"
        },
        {
            "country_code": "BE",
            "city": "Brussels",
            "latitude": 50.8503396,
            "longitude": 4.3517103,
            "type": "FN"
        },
        {
            "country_code": "BG",
            "city": "Burgas",
            "latitude": 42.5695991516,
            "longitude": 27.5151996613,
            "type": "FP"
        },
        {
            "country_code": "BG",
            "city": "Sofia",
            "latitude": 42.6966934204,
            "longitude": 23.4114360809,
            "type": "TP"
        },
        {
            "country_code": "BY",
            "city": "Minsk",
            "latitude": 53.902334,
            "longitude": 27.5618791,
            "type": "FN"
        },
        {
            "country_code": "BY",
            "city": "Mogilev",
            "latitude": 53.9548988342,
            "longitude": 30.0951004028,
            "type": "FP"
        },
        {
            "country_code": "CH",
            "city": "Geneva",
            "latitude": 46.2043907,
            "longitude": 6.1431577,
            "type": "FN"
        },
        {
            "country_code": "DE",
            "city": "Dortmund",
            "latitude": 51.5142273,
            "longitude": 7.4652789,
            "type": "FN"
        },
        {
            "country_code": "DE",
            "city": "Dusseldorf",
            "latitude": 51.2254018,
            "longitude": 6.7763137,
            "type": "FN"
        },
        {
            "country_code": "DE",
            "city": "Hamburg",
            "latitude": 53.6304016113,
            "longitude": 9.9882297516,
            "type": "TP"
        },
        {
            "country_code": "EE",
            "city": "Tallinn",
            "latitude": 59.4132995605,
            "longitude": 24.8327999115,
            "type": "FP"
        },
        {
            "country_code": "ES",
            "city": "Barcelona",
            "latitude": 41.2971000671,
            "longitude": 2.0784599781,
            "type": "TP"
        },
        {
            "country_code": "ES",
            "city": "Madrid",
            "latitude": 40.4967002869,
            "longitude": -3.4458699226,
            "type": "TP"
        },
        {
            "country_code": "FI",
            "city": "Helsinki-Vantaa",
            "latitude": 60.32135905,
            "longitude": 24.947206800038444,
            "type": "FN"
        },
        {
            "country_code": "FI",
            "city": "Kuusamo",
            "latitude": 65.9876022339,
            "longitude": 29.2394008636,
            "type": "FP"
        },
        {
            "country_code": "FI",
            "city": "Tampere",
            "latitude": 61.4977524,
            "longitude": 23.7609535,
            "type": "FN"
        },
        {
            "country_code": "FR",
            "city": "Lyon",
            "latitude": 45.764043,
            "longitude": 4.835659,
            "type": "FN"
        },
        {
            "country_code": "FR",
            "city": "Marseille",
            "latitude": 43.2961743,
            "longitude": 5.3699525,
            "type": "FN"
        },
        {
            "country_code": "FR",
            "city": "Paris",
            "latitude": 49.0127983093,
            "longitude": 2.5499999523,
            "type": "TP"
        },
        {
            "country_code": "FR",
            "city": "Paris-Orly",
            "latitude": 48.73005725,
            "longitude": 2.3678372321914303,
            "type": "FN"
        },
        {
            "country_code": "FR",
            "city": "Strasbourg",
            "latitude": 48.5382995605,
            "longitude": 7.6282300949,
            "type": "FP"
        },
        {
            "country_code": "GB",
            "city": "Dundee",
            "latitude": 56.4605938,
            "longitude": -2.97019,
            "type": "FN"
        },
        {
            "country_code": "GB",
            "city": "Leeds",
            "latitude": 53.8658981323,
            "longitude": -1.6605700254,
            "type": "TP"
        },
        {
            "country_code": "GR",
            "city": "Heraklion",
            "latitude": 35.3400127,
            "longitude": 25.1343475,
            "type": "FN"
        },
        {
            "country_code": "HU",
            "city": "Budapest",
            "latitude": 47.4369010925,
            "longitude": 19.2555999756,
            "type": "FP"
        },
        {
            "country_code": "IQ",
            "city": "Arbil",
            "latitude": 36.2375984192,
            "longitude": 43.9631996155,
            "type": "TP"
        },
        {
            "country_code": "IT",
            "city": "Ancona",
            "latitude": 43.480120400000004,
            "longitude": 13.218790609151764,
            "type": "FN"
        },
        {
            "country_code": "IT",
            "city": "Firenze",
            "latitude": 43.8100013733,
            "longitude": 11.2051000595,
            "type": "TP"
        },
        {
            "country_code": "IT",
            "city": "Latina",
            "latitude": 41.45952605,
            "longitude": 13.012591212188894,
            "type": "FN"
        },
        {
            "country_code": "IT",
            "city": "Torino",
            "latitude": 45.2008018494,
            "longitude": 7.6496300697,
            "type": "FP"
        },
        {
            "country_code": "JO",
            "city": "Amman",
            "latitude": 31.9515694,
            "longitude": 35.9239625,
            "type": "FN"
        },
        {
            "country_code": "KS",
            "city": "Prishtina",
            "latitude": 42.5727996826,
            "longitude": 21.0358009338,
            "type": "FP"
        },
        {
            "country_code": "LB",
            "city": "Beirut",
            "latitude": 33.8886289,
            "longitude": 35.4954794,
            "type": "FN"
        },
        {
            "country_code": "MA",
            "city": "Casablanca",
            "latitude": 33.3675003052,
            "longitude": -7.5899701118,
            "type": "FP"
        },
        {
            "country_code": "MA",
            "city": "Rabat",
            "latitude": 34.022405,
            "longitude": -6.834543,
            "type": "FN"
        },
        {
            "country_code": "N/A",
            "city": "N/A",
            "latitude": 50.0715,
            "longitude": 14.5285,
            "type": "TP"
        },
        {
            "country_code": "PS",
            "city": "Ramallah",
            "latitude": 31.9030543,
            "longitude": 35.1952255,
            "type": "FN"
        },
        {
            "country_code": "PT",
            "city": "Porto",
            "latitude": 41.1494512,
            "longitude": -8.6107884,
            "type": "FN"
        },
        {
            "country_code": "RE",
            "city": "St Denis",
            "latitude": 44.2316351,
            "longitude": 4.2530464,
            "type": "FN"
        },
        {
            "country_code": "RO",
            "city": "Bucharest",
            "latitude": 44.5722007751,
            "longitude": 26.1021995544,
            "type": "TP"
        },
        {
            "country_code": "RS",
            "city": "Belgrade",
            "latitude": 44.8184013367,
            "longitude": 20.3090991974,
            "type": "TP"
        },
        {
            "country_code": "RU",
            "city": "Moscow",
            "latitude": 55.4087982178,
            "longitude": 37.9062995911,
            "type": "TP"
        },
        {
            "country_code": "RU",
            "city": "Rostov-on-Don",
            "latitude": 47.2213858,
            "longitude": 39.7114196,
            "type": "FN"
        },
        {
            "country_code": "RU",
            "city": "St Petersburg",
            "latitude": 59.8003005981,
            "longitude": 30.2625007629,
            "type": "TP"
        },
        {
            "country_code": "SE",
            "city": "Gothenburg",
            "latitude": 57.6627998352,
            "longitude": 12.279800415,
            "type": "FP"
        },
        {
            "country_code": "SE",
            "city": "Stockholm",
            "latitude": 59.6519012451,
            "longitude": 17.9186000824,
            "type": "TP"
        },
        {
            "country_code": "SE",
            "city": "Ume\u00e5",
            "latitude": 63.7918014526,
            "longitude": 20.2828006744,
            "type": "FP"
        },
        {
            "country_code": "SK",
            "city": "Bratislava",
            "latitude": 48.1458923,
            "longitude": 17.1071373,
            "type": "FN"
        },
        {
            "country_code": "TR",
            "city": "Ankara",
            "latitude": 39.7160439,
            "longitude": 32.7059948,
            "type": "FN"
        },
        {
            "country_code": "TR",
            "city": "Istanbul",
            "latitude": 40.898601532,
            "longitude": 29.3092002869,
            "type": "FP"
        },
        {
            "country_code": "TR",
            "city": "\u0130zmir",
            "latitude": 38.2924003601,
            "longitude": 27.156999588,
            "type": "FP"
        },
        {
            "country_code": "UA",
            "city": "Kharkiv",
            "latitude": 49.9248008728,
            "longitude": 36.2900009155,
            "type": "TP"
        },
        {
            "country_code": "UA",
            "city": "Kiev",
            "latitude": 50.4501,
            "longitude": 30.5234,
            "type": "FN"
        },
        {
            "country_code": "UA",
            "city": "Odessa",
            "latitude": 46.4873195,
            "longitude": 30.7392776,
            "type": "FN"
        },
        {
            "country_code": "UA",
            "city": "Rivne",
            "latitude": 50.6071014404,
            "longitude": 26.1415996552,
            "type": "FP"
        }
    ]
}