{
    "target": "192.33.4.12",
    "measurement_filepath": "datasets/measurements/campaigns/192.33.4.12_North-Central_20230410/192.33.4.12_North-Central_500_52069932.json",
    "probes_filepath": "datasets/probes_sets/North-Central_500.json",
    "alpha": 1,
    "threshold": 5.0,
    "noise": 0,
    "num_anycast_instances": 9,
    "anycast_instances": [
        {
            "marker": {
                "id": "LBG",
                "latitude": 48.9693984985,
                "longitude": 2.4413900375,
                "city": "Paris",
                "country_code": "FR"
            },
            "circle": {
                "id": "6363",
                "latitude": 48.9285,
                "longitude": 2.3505,
                "radius": 14.11991898349284
            }
        },
        {
            "marker": {
                "id": "BTS",
                "latitude": 48.1702003479,
                "longitude": 17.2126998901,
                "city": "Bratislava",
                "country_code": "SK"
            },
            "circle": {
                "id": "24449",
                "latitude": 48.1615,
                "longitude": 17.1495,
                "radius": 20.159687738589838
            }
        },
        {
            "marker": {
                "id": "DEX",
                "latitude": 50.121212,
                "longitude": 8.6365638,
                "city": "Frankfurt-am-Main",
                "country_code": "DE"
            },
            "circle": {
                "id": "7097",
                "latitude": 50.1405,
                "longitude": 8.7415,
                "radius": 24.22083526466058
            }
        },
        {
            "marker": {
                "id": "WIE",
                "latitude": 48.1102981567,
                "longitude": 16.5697002411,
                "city": "Vienna",
                "country_code": "AT"
            },
            "circle": {
                "id": "24480",
                "latitude": 48.1875,
                "longitude": 16.3515,
                "radius": 58.90899315265649
            }
        },
        {
            "marker": {
                "id": "ECV",
                "latitude": 40.3707008362,
                "longitude": -3.7851400375,
                "city": "Madrid",
                "country_code": "ES"
            },
            "circle": {
                "id": "22338",
                "latitude": 40.4815,
                "longitude": -3.6315,
                "radius": 74.98837662710939
            }
        },
        {
            "marker": {
                "id": "XMF",
                "latitude": 47.4869995117,
                "longitude": 6.7905402184,
                "city": "Montb\u00e9liard/Courcelles",
                "country_code": "FR"
            },
            "circle": {
                "id": "24596",
                "latitude": 47.2405,
                "longitude": 5.9815,
                "radius": 96.40272278375045
            }
        },
        {
            "marker": {
                "id": "NUE",
                "latitude": 49.4986991882,
                "longitude": 11.0669002533,
                "city": "Nuremberg",
                "country_code": "DE"
            },
            "circle": {
                "id": "1005292",
                "latitude": 49.4485,
                "longitude": 11.0815,
                "radius": 98.97120965728836
            }
        },
        {
            "marker": {
                "id": "ANE",
                "latitude": 47.5602989197,
                "longitude": -0.3122220039,
                "city": "Angers/Marc\u00e9",
                "country_code": "FR"
            },
            "circle": {
                "id": "1004013",
                "latitude": 47.4385,
                "longitude": 0.6975,
                "radius": 101.39553533154779
            }
        },
        {
            "marker": {
                "id": "MHG",
                "latitude": 49.4730567932,
                "longitude": 8.514166832,
                "city": "Mannheim",
                "country_code": "DE"
            },
            "circle": {
                "id": "1000170",
                "latitude": 49.0575,
                "longitude": 7.4005,
                "radius": 120.08050499621608
            }
        }
    ]
}