{
    "target": "192.5.5.241",
    "probes_filepath": "datasets/probes_sets/North-Central_500.json",
    "alpha": 0.7,
    "threshold": -1,
    "noise": 0,
    "results_filepath": "datasets/results/campaigns/192.5.5.241_North-Central_20230410_alpha_light-factor_0.18/192.5.5.241_North-Central_500_52071302_0.7_-1_0.json",
    "gt_filepath": "datasets/ground-truth/root_servers/root_servers_F.json",
    "statistics": {
        "TP": 36,
        "FP": 28,
        "TN": 0,
        "FN": 16,
        "accuracy": 0.45,
        "precision": 0.5625,
        "recall": 0.6923076923076923,
        "f1": 0.6206896551724138,
        "OT": 6,
        "OF": 7
    },
    "instances": [
        {
            "country_code": "AL",
            "city": "Tirana",
            "latitude": 41.4147,
            "longitude": 19.7206,
            "type": "FN"
        },
        {
            "country_code": "AM",
            "city": "Yerevan",
            "latitude": 40.1473007202,
            "longitude": 44.3959007263,
            "type": "OT"
        },
        {
            "country_code": "AT",
            "city": "Vienna",
            "latitude": 48.1102981567,
            "longitude": 16.5697002411,
            "type": "TP"
        },
        {
            "country_code": "BE",
            "city": "Brussels",
            "latitude": 50.9014015198,
            "longitude": 4.4844398499,
            "type": "TP"
        },
        {
            "country_code": "BE",
            "city": "Ostend",
            "latitude": 51.1988983154,
            "longitude": 2.8622200489,
            "type": "FP"
        },
        {
            "country_code": "BG",
            "city": "Sofia",
            "latitude": 42.6966934204,
            "longitude": 23.4114360809,
            "type": "TP"
        },
        {
            "country_code": "BY",
            "city": "Hrodna",
            "latitude": 53.6020011902,
            "longitude": 24.0538005829,
            "type": "FP"
        },
        {
            "country_code": "BY",
            "city": "Minsk",
            "latitude": 53.9006,
            "longitude": 27.599,
            "type": "FN"
        },
        {
            "country_code": "CH",
            "city": "Geneva",
            "latitude": 46.2380981445,
            "longitude": 6.1089501381,
            "type": "TP"
        },
        {
            "country_code": "CH",
            "city": "Zurich",
            "latitude": 47.4646987915,
            "longitude": 8.5491695404,
            "type": "TP"
        },
        {
            "country_code": "CZ",
            "city": "Prague",
            "latitude": 50.1007995605,
            "longitude": 14.2600002289,
            "type": "TP"
        },
        {
            "country_code": "DE",
            "city": "Berlin",
            "latitude": 52.3800010681,
            "longitude": 13.5225000381,
            "type": "TP"
        },
        {
            "country_code": "DE",
            "city": "Cologne",
            "latitude": 50.8658981323,
            "longitude": 7.1427397728,
            "type": "TP"
        },
        {
            "country_code": "DE",
            "city": "Dortmund",
            "latitude": 51.5182991028,
            "longitude": 7.6122398377,
            "type": "FP"
        },
        {
            "country_code": "DE",
            "city": "Frankfurt-am-Main",
            "latitude": 50.0264015198,
            "longitude": 8.543129921,
            "type": "TP"
        },
        {
            "country_code": "DE",
            "city": "Hamburg",
            "latitude": 53.5352783203,
            "longitude": 9.8355560303,
            "type": "TP"
        },
        {
            "country_code": "DE",
            "city": "Munich",
            "latitude": 48.3538017273,
            "longitude": 11.7861003876,
            "type": "TP"
        },
        {
            "country_code": "DE",
            "city": "Nuremberg",
            "latitude": 49.4986991882,
            "longitude": 11.0669002533,
            "type": "FP"
        },
        {
            "country_code": "DE",
            "city": "Stuttgart",
            "latitude": 48.6898994446,
            "longitude": 9.2219600677,
            "type": "TP"
        },
        {
            "country_code": "DK",
            "city": "Copenhagen",
            "latitude": 55.5856018066,
            "longitude": 12.1314001083,
            "type": "TP"
        },
        {
            "country_code": "DK",
            "city": "Odense",
            "latitude": 55.4766998291,
            "longitude": 10.3309001923,
            "type": "FP"
        },
        {
            "country_code": "EE",
            "city": "P\u00e4rnu",
            "latitude": 58.4189987183,
            "longitude": 24.4727993011,
            "type": "FP"
        },
        {
            "country_code": "EE",
            "city": "Tallinn",
            "latitude": 59.4133,
            "longitude": 24.8328,
            "type": "FN"
        },
        {
            "country_code": "ES",
            "city": "Barcelona",
            "latitude": 41.2971000671,
            "longitude": 2.0784599781,
            "type": "TP"
        },
        {
            "country_code": "ES",
            "city": "Madrid",
            "latitude": 40.4967002869,
            "longitude": -3.4458699226,
            "type": "TP"
        },
        {
            "country_code": "ES",
            "city": "Madrid",
            "latitude": 40.3707008362,
            "longitude": -3.7851400375,
            "type": "FP"
        },
        {
            "country_code": "ES",
            "city": "Valencia",
            "latitude": 39.4892997742,
            "longitude": -0.4816249907,
            "type": "FP"
        },
        {
            "country_code": "ES",
            "city": "Vigo",
            "latitude": 42.2318000793,
            "longitude": -8.6267700195,
            "type": "FP"
        },
        {
            "country_code": "ES",
            "city": "Zaragoza",
            "latitude": 41.6661987305,
            "longitude": -1.0415500402,
            "type": "FP"
        },
        {
            "country_code": "FI",
            "city": "Helsinki",
            "latitude": 60.317199707,
            "longitude": 24.963300705,
            "type": "TP"
        },
        {
            "country_code": "FI",
            "city": "Mikkeli",
            "latitude": 61.6865997314,
            "longitude": 27.2017993927,
            "type": "FP"
        },
        {
            "country_code": "FI",
            "city": "Turku",
            "latitude": 60.5140991211,
            "longitude": 22.2628002167,
            "type": "FP"
        },
        {
            "country_code": "FR",
            "city": "Marseille",
            "latitude": 43.439271922,
            "longitude": 5.2214241028,
            "type": "TP"
        },
        {
            "country_code": "FR",
            "city": "Nantes",
            "latitude": 47.1531982422,
            "longitude": -1.610730052,
            "type": "FP"
        },
        {
            "country_code": "FR",
            "city": "Paris",
            "latitude": 48.9693984985,
            "longitude": 2.4413900375,
            "type": "TP"
        },
        {
            "country_code": "GB",
            "city": "Birmingham",
            "latitude": 52.4538993835,
            "longitude": -1.7480299473,
            "type": "FP"
        },
        {
            "country_code": "GB",
            "city": "Bristol",
            "latitude": 51.5194015503,
            "longitude": -2.5908300877,
            "type": "FP"
        },
        {
            "country_code": "GB",
            "city": "Glasgow",
            "latitude": 55.5093994141,
            "longitude": -4.5866699219,
            "type": "TP"
        },
        {
            "country_code": "GB",
            "city": "London",
            "latitude": 51.3307991028,
            "longitude": 0.0324999988,
            "type": "TP"
        },
        {
            "country_code": "GB",
            "city": "London",
            "latitude": 51.8746986389,
            "longitude": -0.3683330119,
            "type": "FP"
        },
        {
            "country_code": "GB",
            "city": "London",
            "latitude": 51.5052986145,
            "longitude": 0.0552779995,
            "type": "FP"
        },
        {
            "country_code": "GB",
            "city": "London",
            "latitude": 51.5530014038,
            "longitude": -0.418166995,
            "type": "FP"
        },
        {
            "country_code": "GB",
            "city": "Manchester",
            "latitude": 53.353699,
            "longitude": -2.27495,
            "type": "FN"
        },
        {
            "country_code": "GR",
            "city": "Athens",
            "latitude": 37.9908372,
            "longitude": 23.7383394,
            "type": "TP"
        },
        {
            "country_code": "GR",
            "city": "Thessaloniki",
            "latitude": 40.519699,
            "longitude": 22.9709,
            "type": "FN"
        },
        {
            "country_code": "HU",
            "city": "Budapest",
            "latitude": 47.4369010925,
            "longitude": 19.2555999756,
            "type": "TP"
        },
        {
            "country_code": "IE",
            "city": "Cork",
            "latitude": 51.841301,
            "longitude": -8.49111,
            "type": "FN"
        },
        {
            "country_code": "IE",
            "city": "Dublin",
            "latitude": 53.4212989807,
            "longitude": -6.270070076,
            "type": "TP"
        },
        {
            "country_code": "IL",
            "city": "Tel Aviv",
            "latitude": 32.1147003174,
            "longitude": 34.7821998596,
            "type": "OT"
        },
        {
            "country_code": "IQ",
            "city": "Mosul",
            "latitude": 36.3058013916,
            "longitude": 43.1473999023,
            "type": "OT"
        },
        {
            "country_code": "IS",
            "city": "Reykjav\u00edk",
            "latitude": 63.9850006104,
            "longitude": -22.6056003571,
            "type": "TP"
        },
        {
            "country_code": "IT",
            "city": "Foggia",
            "latitude": 41.4328994751,
            "longitude": 15.5349998474,
            "type": "FP"
        },
        {
            "country_code": "IT",
            "city": "Milan",
            "latitude": 45.6305999756,
            "longitude": 8.7281103134,
            "type": "TP"
        },
        {
            "country_code": "IT",
            "city": "Palermo",
            "latitude": 38.16114,
            "longitude": 13.31546,
            "type": "FN"
        },
        {
            "country_code": "IT",
            "city": "Rome",
            "latitude": 41.8045005798,
            "longitude": 12.2508001328,
            "type": "TP"
        },
        {
            "country_code": "IT",
            "city": "Trieste",
            "latitude": 45.8274993896,
            "longitude": 13.4722003937,
            "type": "FP"
        },
        {
            "country_code": "IT",
            "city": "Turin",
            "latitude": 45.191456,
            "longitude": 7.643049,
            "type": "FN"
        },
        {
            "country_code": "KS",
            "city": "Prishtina",
            "latitude": 42.5727996826,
            "longitude": 21.0358009338,
            "type": "OF"
        },
        {
            "country_code": "LT",
            "city": "Kaunas",
            "latitude": 54.9639015198,
            "longitude": 24.0848007202,
            "type": "TP"
        },
        {
            "country_code": "LT",
            "city": "Vilnius",
            "latitude": 54.6341018677,
            "longitude": 25.2858009338,
            "type": "TP"
        },
        {
            "country_code": "LU",
            "city": "Luxembourg",
            "latitude": 49.6265983582,
            "longitude": 6.211520195,
            "type": "TP"
        },
        {
            "country_code": "LU",
            "city": "Luxembourg City",
            "latitude": 49.626598,
            "longitude": 6.21152,
            "type": "FN"
        },
        {
            "country_code": "LV",
            "city": "Riga",
            "latitude": 56.923599,
            "longitude": 23.9711,
            "type": "FN"
        },
        {
            "country_code": "MD",
            "city": "Chi\u015fin\u0103u",
            "latitude": 46.9277000427,
            "longitude": 28.9309997559,
            "type": "TP"
        },
        {
            "country_code": "N/A",
            "city": "N/A",
            "latitude": 44.4115,
            "longitude": 26.0395,
            "type": "OT"
        },
        {
            "country_code": "N/A",
            "city": "N/A",
            "latitude": 55.7985,
            "longitude": 37.4785,
            "type": "OT"
        },
        {
            "country_code": "N/A",
            "city": "N/A",
            "latitude": 59.8295,
            "longitude": 30.9295,
            "type": "OF"
        },
        {
            "country_code": "N/A",
            "city": "N/A",
            "latitude": 46.3085,
            "longitude": 16.3415,
            "type": "OF"
        },
        {
            "country_code": "N/A",
            "city": "N/A",
            "latitude": 44.8495,
            "longitude": 24.8705,
            "type": "OF"
        },
        {
            "country_code": "N/A",
            "city": "N/A",
            "latitude": 53.4095,
            "longitude": 21.9285,
            "type": "OF"
        },
        {
            "country_code": "NL",
            "city": "Amsterdam",
            "latitude": 52.3747158,
            "longitude": 4.8986167,
            "type": "TP"
        },
        {
            "country_code": "NL",
            "city": "Groningen",
            "latitude": 53.1197013855,
            "longitude": 6.5794401169,
            "type": "FP"
        },
        {
            "country_code": "NO",
            "city": "Oslo",
            "latitude": 60.193901062,
            "longitude": 11.100399971,
            "type": "TP"
        },
        {
            "country_code": "NO",
            "city": "Troms\u00f8",
            "latitude": 69.6832962036,
            "longitude": 18.9188995361,
            "type": "FP"
        },
        {
            "country_code": "PL",
            "city": "Warsaw",
            "latitude": 52.165699,
            "longitude": 20.9671,
            "type": "FN"
        },
        {
            "country_code": "PL",
            "city": "Wroc\u0142aw",
            "latitude": 51.1026992798,
            "longitude": 16.885799408,
            "type": "FP"
        },
        {
            "country_code": "PL",
            "city": "\u0141\u00f3d\u017a",
            "latitude": 51.7219009399,
            "longitude": 19.3980998993,
            "type": "FP"
        },
        {
            "country_code": "PT",
            "city": "Lisbon",
            "latitude": 38.7812995911,
            "longitude": -9.1359195709,
            "type": "TP"
        },
        {
            "country_code": "RO",
            "city": "Tulcea",
            "latitude": 45.0625,
            "longitude": 28.7143001556,
            "type": "FP"
        },
        {
            "country_code": "RS",
            "city": "Belgrade",
            "latitude": 44.8184013367,
            "longitude": 20.3090991974,
            "type": "FP"
        },
        {
            "country_code": "RU",
            "city": "Khabarovsk",
            "latitude": 48.528,
            "longitude": 135.188004,
            "type": "FN"
        },
        {
            "country_code": "RU",
            "city": "Krasnoyarsk",
            "latitude": 56.0153,
            "longitude": 92.8932,
            "type": "FN"
        },
        {
            "country_code": "RU",
            "city": "St Petersburg",
            "latitude": 59.8003005981,
            "longitude": 30.2625007629,
            "type": "TP"
        },
        {
            "country_code": "RU",
            "city": "Tver",
            "latitude": 56.8587,
            "longitude": 35.9176,
            "type": "FN"
        },
        {
            "country_code": "RU",
            "city": "Yekaterinburg",
            "latitude": 56.8431,
            "longitude": 60.6454,
            "type": "FN"
        },
        {
            "country_code": "SE",
            "city": "Gothenburg",
            "latitude": 57.6627998352,
            "longitude": 12.279800415,
            "type": "TP"
        },
        {
            "country_code": "SE",
            "city": "Link\u00f6ping",
            "latitude": 58.4062004089,
            "longitude": 15.6805000305,
            "type": "FP"
        },
        {
            "country_code": "SE",
            "city": "Stockholm",
            "latitude": 59.3544006348,
            "longitude": 17.9416999817,
            "type": "TP"
        },
        {
            "country_code": "SE",
            "city": "S\u00f6derhamn",
            "latitude": 61.2615013123,
            "longitude": 17.0991001129,
            "type": "FP"
        },
        {
            "country_code": "SK",
            "city": "Bratislava",
            "latitude": 48.1486,
            "longitude": 17.1077,
            "type": "FN"
        },
        {
            "country_code": "UA",
            "city": "Donetsk",
            "latitude": 48.073600769,
            "longitude": 37.7397003174,
            "type": "OF"
        },
        {
            "country_code": "UA",
            "city": "Kiev",
            "latitude": 50.4016990662,
            "longitude": 30.4496994019,
            "type": "OT"
        },
        {
            "country_code": "UA",
            "city": "Lviv",
            "latitude": 49.8125,
            "longitude": 23.9561004639,
            "type": "OF"
        }
    ]
}