{
    "target": "202.12.27.33",
    "probes_filepath": "datasets/probes_section/North-Central-section_1.5.json",
    "alpha": 0.0,
    "threshold": -1,
    "noise": 0,
    "results_filepath": "datasets/results/campaigns/202.12.27.33_North-Central-section_20230425_alpha_light-factor_0.35/202.12.27.33_North-Central-section_1.5_52655806_0.0_-1_0.json",
    "gt_filepath": "datasets/ground-truth/root_servers/root_servers_M.json",
    "statistics": {
        "TP": 1,
        "FP": 3,
        "TN": 0,
        "FN": 0,
        "accuracy": 0.25,
        "precision": 0.25,
        "recall": 1.0,
        "f1": 0.4,
        "OT": 0,
        "OF": 1
    },
    "instances": [
        {
            "country_code": "AE",
            "city": "Al Ain",
            "latitude": 24.2616996765,
            "longitude": 55.6091995239,
            "type": "OF"
        },
        {
            "country_code": "DE",
            "city": "Donaueschingen",
            "latitude": 47.9733314514,
            "longitude": 8.5222215653,
            "type": "FP"
        },
        {
            "country_code": "FR",
            "city": "\u00c9vreux/Fauville",
            "latitude": 49.0287017822,
            "longitude": 1.2198599577,
            "type": "TP"
        },
        {
            "country_code": "GB",
            "city": "London",
            "latitude": 51.1481018066,
            "longitude": -0.1902779937,
            "type": "FP"
        },
        {
            "country_code": "RU",
            "city": "Orel",
            "latitude": 52.9347000122,
            "longitude": 36.0022010803,
            "type": "FP"
        }
    ]
}