{
    "target": "192.33.4.12",
    "measurement_filepath": "datasets/measurements/campaigns/192.33.4.12_North-Central-section_20230425/192.33.4.12_North-Central-section_1.5_52641500.json",
    "probes_filepath": "datasets/probes_section/North-Central-section_1.5.json",
    "alpha": 0.0,
    "threshold": -1,
    "noise": 0,
    "num_anycast_instances": 15,
    "anycast_instances": [
        {
            "marker": {
                "id": "TOJ",
                "latitude": 40.4967002869,
                "longitude": -3.4458699226,
                "city": "Madrid",
                "country_code": "ES"
            },
            "circle": {
                "id": "7017",
                "latitude": 40.4405,
                "longitude": -3.6225,
                "radius": 31.6662678989034
            }
        },
        {
            "marker": {
                "id": "BTS",
                "latitude": 48.1702003479,
                "longitude": 17.2126998901,
                "city": "Bratislava",
                "country_code": "SK"
            },
            "circle": {
                "id": "16135",
                "latitude": 48.2295,
                "longitude": 16.4085,
                "radius": 104.16228994718401
            }
        },
        {
            "marker": {
                "id": "BSL",
                "latitude": 47.5895996094,
                "longitude": 7.5299100876,
                "city": "B\u00e2le/Mulhouse",
                "country_code": "FR"
            },
            "circle": {
                "id": "19810",
                "latitude": 48.7375,
                "longitude": 9.0975,
                "radius": 177.8486829188223
            }
        },
        {
            "marker": {
                "id": "LYN",
                "latitude": 45.7271995544,
                "longitude": 4.944270134,
                "city": "Lyon/Bron",
                "country_code": "FR"
            },
            "circle": {
                "id": "19856",
                "latitude": 47.0605,
                "longitude": 2.4095,
                "radius": 248.81882131437447
            }
        },
        {
            "marker": {
                "id": "DHR",
                "latitude": 52.9234008789,
                "longitude": 4.7806200981,
                "city": "Den Helder",
                "country_code": "NL"
            },
            "circle": {
                "id": "13430",
                "latitude": 51.1275,
                "longitude": 6.9585,
                "radius": 260.7878253453039
            }
        },
        {
            "marker": {
                "id": "MLN",
                "latitude": 35.279800415,
                "longitude": -2.9562599659,
                "city": "Melilla",
                "country_code": "ES"
            },
            "circle": {
                "id": "23581",
                "latitude": 37.5375,
                "longitude": -6.0585,
                "radius": 382.3199703920247
            }
        },
        {
            "marker": {
                "id": "CSF",
                "latitude": 49.2535018921,
                "longitude": 2.5191400051,
                "city": "Creil",
                "country_code": "FR"
            },
            "circle": {
                "id": "31533",
                "latitude": 46.6885,
                "longitude": -1.4515,
                "radius": 412.8347204701272
            }
        },
        {
            "marker": {
                "id": "AVN",
                "latitude": 43.9072990417,
                "longitude": 4.9018301964,
                "city": "Avignon/Caumont",
                "country_code": "FR"
            },
            "circle": {
                "id": "20136",
                "latitude": 39.6005,
                "longitude": 2.6785,
                "radius": 517.1458573727082
            }
        },
        {
            "marker": {
                "id": "LGW",
                "latitude": 51.1481018066,
                "longitude": -0.1902779937,
                "city": "London",
                "country_code": "GB"
            },
            "circle": {
                "id": "24889",
                "latitude": 55.5415,
                "longitude": -4.6585,
                "radius": 571.4836750842722
            }
        },
        {
            "marker": {
                "id": "SJJ",
                "latitude": 43.8246002197,
                "longitude": 18.3314990997,
                "city": "Sarajevo",
                "country_code": "BA"
            },
            "circle": {
                "id": "11518",
                "latitude": 42.1715,
                "longitude": 26.5675,
                "radius": 701.0421785986499
            }
        },
        {
            "marker": {
                "id": "KEL",
                "latitude": 54.3794441223,
                "longitude": 10.145277977,
                "city": "Kiel",
                "country_code": "DE"
            },
            "circle": {
                "id": "833",
                "latitude": 60.4285,
                "longitude": 24.2585,
                "radius": 1084.3989512274218
            }
        },
        {
            "marker": {
                "id": "FKB",
                "latitude": 48.7793998718,
                "longitude": 8.0804996491,
                "city": "Baden-Baden",
                "country_code": "DE"
            },
            "circle": {
                "id": "1000106",
                "latitude": 50.4805,
                "longitude": 12.3275,
                "radius": 363.72957025823257
            }
        },
        {
            "marker": {
                "id": "BEG",
                "latitude": 44.8184013367,
                "longitude": 20.3090991974,
                "city": "Belgrade",
                "country_code": "RS"
            },
            "circle": {
                "id": "55615",
                "latitude": 47.9995,
                "longitude": 33.4675,
                "radius": 1071.1996888865979
            }
        },
        {
            "marker": {
                "id": "KUT",
                "latitude": 42.176700592,
                "longitude": 42.4826011658,
                "city": "Kutaisi",
                "country_code": "GE"
            },
            "circle": {
                "id": "3963",
                "latitude": 50.9185,
                "longitude": 34.8305,
                "radius": 1135.063396961489
            }
        },
        {
            "marker": {
                "id": "HMA",
                "latitude": 61.0284996033,
                "longitude": 69.0860977173,
                "city": "Khanty-Mansiysk",
                "country_code": "RU"
            },
            "circle": {
                "id": "4842",
                "latitude": 78.2085,
                "longitude": 15.6195,
                "radius": 2641.528008212562
            }
        }
    ]
}