{
    "target": "192.33.4.12",
    "measurement_filepath": "datasets/measurements/campaigns/192.33.4.12_North-Central-section_20230425/192.33.4.12_North-Central-section_1.5_52641500.json",
    "probes_filepath": "datasets/probes_section/North-Central-section_1.5.json",
    "alpha": 0.7,
    "threshold": -1,
    "noise": 0,
    "num_anycast_instances": 25,
    "anycast_instances": [
        {
            "marker": {
                "id": "TOJ",
                "latitude": 40.4967002869,
                "longitude": -3.4458699226,
                "city": "Madrid",
                "country_code": "ES"
            },
            "circle": {
                "id": "7017",
                "latitude": 40.4405,
                "longitude": -3.6225,
                "radius": 18.99976073934204
            }
        },
        {
            "marker": {
                "id": "WIE",
                "latitude": 48.1102981567,
                "longitude": 16.5697002411,
                "city": "Vienna",
                "country_code": "AT"
            },
            "circle": {
                "id": "16135",
                "latitude": 48.2295,
                "longitude": 16.4085,
                "radius": 62.4973739683104
            }
        },
        {
            "marker": {
                "id": "STR",
                "latitude": 48.6898994446,
                "longitude": 9.2219600677,
                "city": "Stuttgart",
                "country_code": "DE"
            },
            "circle": {
                "id": "19810",
                "latitude": 48.7375,
                "longitude": 9.0975,
                "radius": 106.70920975129337
            }
        },
        {
            "marker": {
                "id": "BUD",
                "latitude": 47.4369010925,
                "longitude": 19.2555999756,
                "city": "Budapest",
                "country_code": "HU"
            },
            "circle": {
                "id": "18392",
                "latitude": 47.3885,
                "longitude": 18.9015,
                "radius": 142.3610325079828
            }
        },
        {
            "marker": {
                "id": "TUF",
                "latitude": 47.4322013855,
                "longitude": 0.7276059985,
                "city": "Tours/Val de Loire (Loire Valley)",
                "country_code": "FR"
            },
            "circle": {
                "id": "19856",
                "latitude": 47.0605,
                "longitude": 2.4095,
                "radius": 149.29129278862467
            }
        },
        {
            "marker": {
                "id": "CGN",
                "latitude": 50.8658981323,
                "longitude": 7.1427397728,
                "city": "Cologne",
                "country_code": "DE"
            },
            "circle": {
                "id": "13430",
                "latitude": 51.1275,
                "longitude": 6.9585,
                "radius": 156.47269520718234
            }
        },
        {
            "marker": {
                "id": "BNX",
                "latitude": 50.4592018127,
                "longitude": 4.4538202286,
                "city": "Brussels",
                "country_code": "BE"
            },
            "circle": {
                "id": "7005",
                "latitude": 50.8195,
                "longitude": 4.3675,
                "radius": 176.53651831147752
            }
        },
        {
            "marker": {
                "id": "PRG",
                "latitude": 50.1007995605,
                "longitude": 14.2600002289,
                "city": "Prague",
                "country_code": "CZ"
            },
            "circle": {
                "id": "1000106",
                "latitude": 50.4805,
                "longitude": 12.3275,
                "radius": 218.23774215493953
            }
        },
        {
            "marker": {
                "id": "TNG",
                "latitude": 35.7268981934,
                "longitude": -5.9168901444,
                "city": "Tangier",
                "country_code": "MA"
            },
            "circle": {
                "id": "23581",
                "latitude": 37.5375,
                "longitude": -6.0585,
                "radius": 229.39198223521478
            }
        },
        {
            "marker": {
                "id": "SXF",
                "latitude": 52.3800010681,
                "longitude": 13.5225000381,
                "city": "Berlin",
                "country_code": "DE"
            },
            "circle": {
                "id": "4615",
                "latitude": 53.6095,
                "longitude": 10.0175,
                "radius": 282.93352719493424
            }
        },
        {
            "marker": {
                "id": "BCN",
                "latitude": 41.2971000671,
                "longitude": 2.0784599781,
                "city": "Barcelona",
                "country_code": "ES"
            },
            "circle": {
                "id": "20136",
                "latitude": 39.6005,
                "longitude": 2.6785,
                "radius": 310.2875144236249
            }
        },
        {
            "marker": {
                "id": "MXP",
                "latitude": 45.6305999756,
                "longitude": 8.7281103134,
                "city": "Milan",
                "country_code": "IT"
            },
            "circle": {
                "id": "19303",
                "latitude": 45.4785,
                "longitude": 9.0975,
                "radius": 317.32265109984894
            }
        },
        {
            "marker": {
                "id": "DUB",
                "latitude": 53.4212989807,
                "longitude": -6.270070076,
                "city": "Dublin",
                "country_code": "IE"
            },
            "circle": {
                "id": "24889",
                "latitude": 55.5415,
                "longitude": -4.6585,
                "radius": 342.89020505056334
            }
        },
        {
            "marker": {
                "id": "SAW",
                "latitude": 40.898601532,
                "longitude": 29.3092002869,
                "city": "Istanbul",
                "country_code": "TR"
            },
            "circle": {
                "id": "11518",
                "latitude": 42.1715,
                "longitude": 26.5675,
                "radius": 420.62530715918996
            }
        },
        {
            "marker": {
                "id": "VLL",
                "latitude": 41.7061004639,
                "longitude": -4.851940155,
                "city": "Valladolid",
                "country_code": "ES"
            },
            "circle": {
                "id": "61758",
                "latitude": 43.3515,
                "longitude": -8.4205,
                "radius": 426.0617735718078
            }
        },
        {
            "marker": {
                "id": "OTP",
                "latitude": 44.5722007751,
                "longitude": 26.1021995544,
                "city": "Bucharest",
                "country_code": "RO"
            },
            "circle": {
                "id": "16565",
                "latitude": 42.6595,
                "longitude": 23.3505,
                "radius": 475.44476843585227
            }
        },
        {
            "marker": {
                "id": "MSQ",
                "latitude": 53.8824996948,
                "longitude": 28.0307006836,
                "city": "Minsk",
                "country_code": "BY"
            },
            "circle": {
                "id": "52282",
                "latitude": 53.1785,
                "longitude": 22.0715,
                "radius": 498.29330672194254
            }
        },
        {
            "marker": {
                "id": "GML",
                "latitude": 50.6035003662,
                "longitude": 30.1919002533,
                "city": "Kiev",
                "country_code": "UA"
            },
            "circle": {
                "id": "53175",
                "latitude": 48.2595,
                "longitude": 37.1905,
                "radius": 685.9720044631099
            }
        },
        {
            "marker": {
                "id": "ROM",
                "latitude": 41.799444,
                "longitude": 12.597222,
                "city": "Rome",
                "country_code": "IT"
            },
            "circle": {
                "id": "567",
                "latitude": 36.8205,
                "longitude": 10.1805,
                "radius": 712.4935100068788
            }
        },
        {
            "marker": {
                "id": "BEG",
                "latitude": 44.8184013367,
                "longitude": 20.3090991974,
                "city": "Belgrade",
                "country_code": "RS"
            },
            "circle": {
                "id": "51496",
                "latitude": 42.4405,
                "longitude": 19.2415,
                "radius": 410.33303934792997
            }
        },
        {
            "marker": {
                "id": "IKA",
                "latitude": 35.4160995483,
                "longitude": 51.1521987915,
                "city": "Tehran",
                "country_code": "IR"
            },
            "circle": {
                "id": "33775",
                "latitude": 42.1095,
                "longitude": 42.9205,
                "radius": 1077.5783880050867
            }
        },
        {
            "marker": {
                "id": "LED",
                "latitude": 59.8003005981,
                "longitude": 30.2625007629,
                "city": "St Petersburg",
                "country_code": "RU"
            },
            "circle": {
                "id": "50357",
                "latitude": 69.6805,
                "longitude": 18.9695,
                "radius": 1244.17506852308
            }
        },
        {
            "marker": {
                "id": "BMA",
                "latitude": 59.3544006348,
                "longitude": 17.9416999817,
                "city": "Stockholm",
                "country_code": "SE"
            },
            "circle": {
                "id": "22557",
                "latitude": 60.1305,
                "longitude": 18.6395,
                "radius": 545.8009108919485
            }
        },
        {
            "marker": {
                "id": "KEF",
                "latitude": 63.9850006104,
                "longitude": -22.6056003571,
                "city": "Reykjav\u00edk",
                "country_code": "IS"
            },
            "circle": {
                "id": "53663",
                "latitude": 64.1085,
                "longitude": -21.8595,
                "radius": 1194.187665082386
            }
        },
        {
            "marker": {
                "id": "MMK",
                "latitude": 68.7817001343,
                "longitude": 32.7508010864,
                "city": "Murmansk",
                "country_code": "RU"
            },
            "circle": {
                "id": "4842",
                "latitude": 78.2085,
                "longitude": 15.6195,
                "radius": 1584.916804927537
            }
        }
    ]
}