{
    "target": "199.7.83.42",
    "measurement_filepath": "datasets/measurements/campaigns/199.7.83.42_North-Central_20230410/199.7.83.42_North-Central_100_52100083.json",
    "probes_filepath": "datasets/probes_sets/North-Central_100.json",
    "alpha": 1,
    "threshold": 10.0,
    "noise": 0,
    "num_anycast_instances": 9,
    "anycast_instances": [
        {
            "marker": {
                "id": "CKL",
                "latitude": 55.8782997131,
                "longitude": 38.0616989136,
                "city": "Moscow",
                "country_code": "RU"
            },
            "circle": {
                "id": "55228",
                "latitude": 55.7915,
                "longitude": 37.4685,
                "radius": 55.165559677725
            }
        },
        {
            "marker": {
                "id": "PED",
                "latitude": 50.0134010315,
                "longitude": 15.7385997772,
                "city": "Pardubice",
                "country_code": "CZ"
            },
            "circle": {
                "id": "33280",
                "latitude": 50.0275,
                "longitude": 15.7815,
                "radius": 89.3767507629675
            }
        },
        {
            "marker": {
                "id": "BBU",
                "latitude": 44.503200531,
                "longitude": 26.1021003723,
                "city": "Bucharest",
                "country_code": "RO"
            },
            "circle": {
                "id": "61674",
                "latitude": 44.8495,
                "longitude": 24.8705,
                "radius": 135.37428233448
            }
        },
        {
            "marker": {
                "id": "OSB",
                "latitude": 36.3058013916,
                "longitude": 43.1473999023,
                "city": "Mosul",
                "country_code": "IQ"
            },
            "circle": {
                "id": "60131",
                "latitude": 36.8575,
                "longitude": 42.9885,
                "radius": 166.1598799087626
            }
        },
        {
            "marker": {
                "id": "PAR",
                "latitude": 49.0127983093,
                "longitude": 2.5499999523,
                "city": "Paris",
                "country_code": "FR"
            },
            "circle": {
                "id": "54074",
                "latitude": 48.5095,
                "longitude": 2.2705,
                "radius": 176.64895847077497
            }
        },
        {
            "marker": {
                "id": "BMA",
                "latitude": 59.3544006348,
                "longitude": 17.9416999817,
                "city": "Stockholm",
                "country_code": "SE"
            },
            "circle": {
                "id": "50989",
                "latitude": 58.4215,
                "longitude": 15.6215,
                "radius": 180.3776421567729
            }
        },
        {
            "marker": {
                "id": "MUC",
                "latitude": 48.3538017273,
                "longitude": 11.7861003876,
                "city": "Munich",
                "country_code": "DE"
            },
            "circle": {
                "id": "1001132",
                "latitude": 47.4185,
                "longitude": 8.5785,
                "radius": 302.3706731388
            }
        },
        {
            "marker": {
                "id": "MHP",
                "latitude": 53.8644981384,
                "longitude": 27.5396995544,
                "city": "Minsk",
                "country_code": "BY"
            },
            "circle": {
                "id": "1003500",
                "latitude": 53.6975,
                "longitude": 23.8475,
                "radius": 336.2935238379381
            }
        },
        {
            "marker": {
                "id": "LIN",
                "latitude": 45.445098877,
                "longitude": 9.2767400742,
                "city": "Milan",
                "country_code": "IT"
            },
            "circle": {
                "id": "22979",
                "latitude": 45.4715,
                "longitude": 9.0405,
                "radius": 374.27634387878703
            }
        }
    ]
}