{
    "target": "104.16.123.96",
    "measurement_filepath": "datasets/measurements/campaigns/104.16.123.96_Europe-countries_20230413/104.16.123.96_Europe_countries-5_52200263.json",
    "probes_filepath": "datasets/probes_sets/Europe_countries_5.json",
    "alpha": 1,
    "threshold": 30.0,
    "noise": 0,
    "num_anycast_instances": 23,
    "anycast_instances": [
        {
            "marker": {
                "id": "VNO",
                "latitude": 54.6341018677,
                "longitude": 25.2858009338,
                "city": "Vilnius",
                "country_code": "LT"
            },
            "circle": {
                "id": "16603",
                "latitude": 54.6885,
                "longitude": 25.2775,
                "radius": 26.278375359293047
            }
        },
        {
            "marker": {
                "id": "ZRH",
                "latitude": 47.4646987915,
                "longitude": 8.5491695404,
                "city": "Zurich",
                "country_code": "CH"
            },
            "circle": {
                "id": "1002086",
                "latitude": 47.3805,
                "longitude": 8.5415,
                "radius": 27.723067719583597
            }
        },
        {
            "marker": {
                "id": "RIX",
                "latitude": 56.9235992432,
                "longitude": 23.9710998535,
                "city": "Riga",
                "country_code": "LV"
            },
            "circle": {
                "id": "23076",
                "latitude": 56.9405,
                "longitude": 24.1205,
                "radius": 37.5602176024292
            }
        },
        {
            "marker": {
                "id": "BQH",
                "latitude": 51.3307991028,
                "longitude": 0.0324999988,
                "city": "London",
                "country_code": "GB"
            },
            "circle": {
                "id": "15634",
                "latitude": 51.5095,
                "longitude": -0.0015,
                "radius": 52.310958377083345
            }
        },
        {
            "marker": {
                "id": "BIX",
                "latitude": 47.4812134,
                "longitude": 19.1303031,
                "city": "Budapest",
                "country_code": "HU"
            },
            "circle": {
                "id": "22945",
                "latitude": 47.4695,
                "longitude": 19.0495,
                "radius": 55.886148324585236
            }
        },
        {
            "marker": {
                "id": "ARN",
                "latitude": 59.6519012451,
                "longitude": 17.9186000824,
                "city": "Stockholm",
                "country_code": "SE"
            },
            "circle": {
                "id": "51501",
                "latitude": 59.3275,
                "longitude": 18.0675,
                "radius": 67.0048285224549
            }
        },
        {
            "marker": {
                "id": "TLL",
                "latitude": 59.4132995605,
                "longitude": 24.8327999115,
                "city": "Tallinn",
                "country_code": "EE"
            },
            "circle": {
                "id": "705",
                "latitude": 59.4395,
                "longitude": 24.7075,
                "radius": 73.8151388427264
            }
        },
        {
            "marker": {
                "id": "ATH",
                "latitude": 37.9364013672,
                "longitude": 23.9444999695,
                "city": "Athens",
                "country_code": "GR"
            },
            "circle": {
                "id": "12993",
                "latitude": 38.0385,
                "longitude": 23.7515,
                "radius": 74.00264403558249
            }
        },
        {
            "marker": {
                "id": "SOF",
                "latitude": 42.6966934204,
                "longitude": 23.4114360809,
                "city": "Sofia",
                "country_code": "BG"
            },
            "circle": {
                "id": "1004017",
                "latitude": 42.7005,
                "longitude": 23.3175,
                "radius": 84.34202872850403
            }
        },
        {
            "marker": {
                "id": "CPH",
                "latitude": 55.6179008484,
                "longitude": 12.6560001373,
                "city": "Copenhagen",
                "country_code": "DK"
            },
            "circle": {
                "id": "11289",
                "latitude": 55.7115,
                "longitude": 12.5715,
                "radius": 85.76248286856529
            }
        },
        {
            "marker": {
                "id": "KEF",
                "latitude": 63.9850006104,
                "longitude": -22.6056003571,
                "city": "Reykjav\u00edk",
                "country_code": "IS"
            },
            "circle": {
                "id": "6740",
                "latitude": 64.1475,
                "longitude": -21.9105,
                "radius": 92.63170990164525
            }
        },
        {
            "marker": {
                "id": "ZAG",
                "latitude": 45.7429008484,
                "longitude": 16.0687999725,
                "city": "Zagreb",
                "country_code": "HR"
            },
            "circle": {
                "id": "13593",
                "latitude": 46.3085,
                "longitude": 16.3415,
                "radius": 106.95146154386715
            }
        },
        {
            "marker": {
                "id": "BNX",
                "latitude": 50.4592018127,
                "longitude": 4.4538202286,
                "city": "Brussels",
                "country_code": "BE"
            },
            "circle": {
                "id": "15817",
                "latitude": 50.8505,
                "longitude": 4.4575,
                "radius": 150.1016318025987
            }
        },
        {
            "marker": {
                "id": "NIX",
                "latitude": 60.193901062,
                "longitude": 11.100399971,
                "city": "Oslo",
                "country_code": "NO"
            },
            "circle": {
                "id": "54513",
                "latitude": 59.0485,
                "longitude": 10.1175,
                "radius": 186.3138476072538
            }
        },
        {
            "marker": {
                "id": "MUC",
                "latitude": 48.3538017273,
                "longitude": 11.7861003876,
                "city": "Munich",
                "country_code": "DE"
            },
            "circle": {
                "id": "1005088",
                "latitude": 49.4515,
                "longitude": 11.0815,
                "radius": 217.38567203081186
            }
        },
        {
            "marker": {
                "id": "CKL",
                "latitude": 55.8782997131,
                "longitude": 38.0616989136,
                "city": "Moscow",
                "country_code": "RU"
            },
            "circle": {
                "id": "1001634",
                "latitude": 56.0495,
                "longitude": 40.2785,
                "radius": 220.42929997103397
            }
        },
        {
            "marker": {
                "id": "LIN",
                "latitude": 45.445098877,
                "longitude": 9.2767400742,
                "city": "Milan",
                "country_code": "IT"
            },
            "circle": {
                "id": "1004676",
                "latitude": 45.3205,
                "longitude": 9.2105,
                "radius": 233.70004032865663
            }
        },
        {
            "marker": {
                "id": "BBU",
                "latitude": 44.503200531,
                "longitude": 26.1021003723,
                "city": "Bucharest",
                "country_code": "RO"
            },
            "circle": {
                "id": "29662",
                "latitude": 43.9585,
                "longitude": 28.6405,
                "radius": 254.9116833137833
            }
        },
        {
            "marker": {
                "id": "BCN",
                "latitude": 41.2971000671,
                "longitude": 2.0784599781,
                "city": "Barcelona",
                "country_code": "ES"
            },
            "circle": {
                "id": "1002246",
                "latitude": 42.5105,
                "longitude": 1.5395,
                "radius": 300.34260713967575
            }
        },
        {
            "marker": {
                "id": "WAW",
                "latitude": 52.1656990051,
                "longitude": 20.9671001434,
                "city": "Warsaw",
                "country_code": "PL"
            },
            "circle": {
                "id": "23884",
                "latitude": 53.1395,
                "longitude": 18.1315,
                "radius": 319.11169856805884
            }
        },
        {
            "marker": {
                "id": "WIE",
                "latitude": 48.1102981567,
                "longitude": 16.5697002411,
                "city": "Vienna",
                "country_code": "AT"
            },
            "circle": {
                "id": "1002478",
                "latitude": 49.5715,
                "longitude": 16.0905,
                "radius": 251.55458488466493
            }
        },
        {
            "marker": {
                "id": "MJI",
                "latitude": 32.8941001892,
                "longitude": 13.2760000229,
                "city": "Tripoli",
                "country_code": "LY"
            },
            "circle": {
                "id": "22897",
                "latitude": 35.9405,
                "longitude": 14.3815,
                "radius": 378.7533545088216
            }
        },
        {
            "marker": {
                "id": "SVQ",
                "latitude": 37.4179992676,
                "longitude": -5.8931097984,
                "city": "Sevilla",
                "country_code": "ES"
            },
            "circle": {
                "id": "1001920",
                "latitude": 38.7475,
                "longitude": -9.1015,
                "radius": 385.22721524829115
            }
        }
    ]
}