{
    "target": "198.41.0.4",
    "measurement_filepath": "datasets/measurements/campaigns/198.41.0.4_North-Central-section_20230425/198.41.0.4_North-Central-section_2_52639249.json",
    "probes_filepath": "datasets/probes_section/North-Central-section_2.json",
    "alpha": 0.0,
    "threshold": -1,
    "noise": 0,
    "num_anycast_instances": 24,
    "anycast_instances": [
        {
            "marker": {
                "id": "ORB",
                "latitude": 59.2237014771,
                "longitude": 15.0380001068,
                "city": "\u00d6rebro",
                "country_code": "SE"
            },
            "circle": {
                "id": "32268",
                "latitude": 59.2715,
                "longitude": 15.2105,
                "radius": 83.32814112828407
            }
        },
        {
            "marker": {
                "id": "RTM",
                "latitude": 51.9569015503,
                "longitude": 4.4372200966,
                "city": "Rotterdam",
                "country_code": "NL"
            },
            "circle": {
                "id": "1261",
                "latitude": 51.9875,
                "longitude": 5.9005,
                "radius": 114.86015896657048
            }
        },
        {
            "marker": {
                "id": "QAM",
                "latitude": 49.8730010986,
                "longitude": 2.3870699406,
                "city": "Amiens/Glisy",
                "country_code": "FR"
            },
            "circle": {
                "id": "55711",
                "latitude": 48.7175,
                "longitude": 1.8975,
                "radius": 144.54794953682747
            }
        },
        {
            "marker": {
                "id": "BOH",
                "latitude": 50.7799987793,
                "longitude": -1.8424999714,
                "city": "Bournemouth",
                "country_code": "GB"
            },
            "circle": {
                "id": "54309",
                "latitude": 51.4115,
                "longitude": 0.0075,
                "radius": 147.24044256269246
            }
        },
        {
            "marker": {
                "id": "VBY",
                "latitude": 57.6627998352,
                "longitude": 18.346200943,
                "city": "Visby",
                "country_code": "SE"
            },
            "circle": {
                "id": "29566",
                "latitude": 57.6305,
                "longitude": 18.2805,
                "radius": 151.0597834879896
            }
        },
        {
            "marker": {
                "id": "FNB",
                "latitude": 53.6021995544,
                "longitude": 13.3059997559,
                "city": "Neubrandenburg",
                "country_code": "DE"
            },
            "circle": {
                "id": "3407",
                "latitude": 53.5505,
                "longitude": 10.0375,
                "radius": 219.4423772034488
            }
        },
        {
            "marker": {
                "id": "MIK",
                "latitude": 61.6865997314,
                "longitude": 27.2017993927,
                "city": "Mikkeli",
                "country_code": "FI"
            },
            "circle": {
                "id": "115",
                "latitude": 60.2095,
                "longitude": 24.7175,
                "radius": 226.75714829279693
            }
        },
        {
            "marker": {
                "id": "QIE",
                "latitude": 43.5227012634,
                "longitude": 4.9238400459,
                "city": "Istres/Le Tub\u00e9",
                "country_code": "FR"
            },
            "circle": {
                "id": "50328",
                "latitude": 41.6715,
                "longitude": 2.7485,
                "radius": 273.8165657360175
            }
        },
        {
            "marker": {
                "id": "CFN",
                "latitude": 55.0442008972,
                "longitude": -8.3409996033,
                "city": "Donegal",
                "country_code": "IE"
            },
            "circle": {
                "id": "570",
                "latitude": 56.0475,
                "longitude": -3.3395,
                "radius": 342.3425381924398
            }
        },
        {
            "marker": {
                "id": "LKZ",
                "latitude": 52.4093017578,
                "longitude": 0.5609999895,
                "city": "Lakenheath",
                "country_code": "GB"
            },
            "circle": {
                "id": "6423",
                "latitude": 53.4685,
                "longitude": -2.2915,
                "radius": 226.64458222066708
            }
        },
        {
            "marker": {
                "id": "CAL",
                "latitude": 55.4371986389,
                "longitude": -5.6863899231,
                "city": "Campbeltown",
                "country_code": "GB"
            },
            "circle": {
                "id": "54794",
                "latitude": 54.9995,
                "longitude": -1.4685,
                "radius": 282.32693313126623
            }
        },
        {
            "marker": {
                "id": "SVG",
                "latitude": 58.876701355,
                "longitude": 5.6377801895,
                "city": "Stavanger",
                "country_code": "NO"
            },
            "circle": {
                "id": "11558",
                "latitude": 61.6315,
                "longitude": 7.2595,
                "radius": 343.633621394138
            }
        },
        {
            "marker": {
                "id": "KSD",
                "latitude": 59.4446983337,
                "longitude": 13.3374004364,
                "city": "Karlstad",
                "country_code": "SE"
            },
            "circle": {
                "id": "6868",
                "latitude": 59.9215,
                "longitude": 10.7405,
                "radius": 194.68890367658423
            }
        },
        {
            "marker": {
                "id": "MXP",
                "latitude": 45.6305999756,
                "longitude": 8.7281103134,
                "city": "Milan",
                "country_code": "IT"
            },
            "circle": {
                "id": "22145",
                "latitude": 43.9295,
                "longitude": 12.4795,
                "radius": 361.0524925605578
            }
        },
        {
            "marker": {
                "id": "OER",
                "latitude": 63.4082984924,
                "longitude": 18.9899997711,
                "city": "\u00d6rnsk\u00f6ldsvik",
                "country_code": "SE"
            },
            "circle": {
                "id": "12063",
                "latitude": 65.7385,
                "longitude": 24.5705,
                "radius": 427.07233197678164
            }
        },
        {
            "marker": {
                "id": "QSF",
                "latitude": 36.1781005859,
                "longitude": 5.3244900703,
                "city": "S\u00e9tif",
                "country_code": "DZ"
            },
            "circle": {
                "id": "567",
                "latitude": 36.8205,
                "longitude": 10.1805,
                "radius": 441.3506043345146
            }
        },
        {
            "marker": {
                "id": "EIB",
                "latitude": 50.9927787781,
                "longitude": 10.4727783203,
                "city": "Eisenach",
                "country_code": "DE"
            },
            "circle": {
                "id": "4164",
                "latitude": 49.2195,
                "longitude": 16.5905,
                "radius": 479.81002243339367
            }
        },
        {
            "marker": {
                "id": "EGO",
                "latitude": 50.6437988281,
                "longitude": 36.5900993347,
                "city": "Belgorod",
                "country_code": "RU"
            },
            "circle": {
                "id": "3834",
                "latitude": 55.9095,
                "longitude": 37.8785,
                "radius": 597.9441758607626
            }
        },
        {
            "marker": {
                "id": "TRS",
                "latitude": 45.8274993896,
                "longitude": 13.4722003937,
                "city": "Trieste",
                "country_code": "IT"
            },
            "circle": {
                "id": "52273",
                "latitude": 48.4385,
                "longitude": 22.7105,
                "radius": 762.3763338465236
            }
        },
        {
            "marker": {
                "id": "EGS",
                "latitude": 65.2833023071,
                "longitude": -14.4013996124,
                "city": "Egilssta\u00f0ir",
                "country_code": "IS"
            },
            "circle": {
                "id": "1000959",
                "latitude": 64.0715,
                "longitude": -22.0205,
                "radius": 968.9711502312512
            }
        },
        {
            "marker": {
                "id": "JED",
                "latitude": 21.679599762,
                "longitude": 39.15650177,
                "city": "Jeddah",
                "country_code": "SA"
            },
            "circle": {
                "id": "1003469",
                "latitude": 30.0615,
                "longitude": 31.2305,
                "radius": 1223.3841257932268
            }
        },
        {
            "marker": {
                "id": "LTK",
                "latitude": 35.4011001587,
                "longitude": 35.9486999512,
                "city": "Latakia",
                "country_code": "SY"
            },
            "circle": {
                "id": "50348",
                "latitude": 41.7715,
                "longitude": 26.2095,
                "radius": 1104.1048850932814
            }
        },
        {
            "marker": {
                "id": "MLN",
                "latitude": 35.279800415,
                "longitude": -2.9562599659,
                "city": "Melilla",
                "country_code": "ES"
            },
            "circle": {
                "id": "1001689",
                "latitude": 32.6715,
                "longitude": -16.9185,
                "radius": 1333.2438904607372
            }
        },
        {
            "marker": {
                "id": "PGX",
                "latitude": 45.1981010437,
                "longitude": 0.8155559897,
                "city": "P\u00e9rigueux/Bassillac",
                "country_code": "FR"
            },
            "circle": {
                "id": "1005069",
                "latitude": 42.6315,
                "longitude": -8.6195,
                "radius": 810.0984934828712
            }
        }
    ]
}