{
    "target": "198.97.190.53",
    "probes_filepath": "datasets/probes_section/North-Central-section_2.json",
    "alpha": 0.2,
    "threshold": -1,
    "noise": 0,
    "results_filepath": "datasets/results/campaigns/198.97.190.53_North-Central-section_20230425_alpha_light-factor_0.25/198.97.190.53_North-Central-section_2_52652506_0.2_-1_0.json",
    "gt_filepath": "datasets/ground-truth/root_servers/root_servers_H.json",
    "statistics": {
        "TP": 0,
        "FP": 15,
        "TN": 0,
        "FN": 2,
        "accuracy": 0.0,
        "precision": 0.0,
        "recall": 0.0,
        "f1": 0,
        "OT": 0,
        "OF": 1
    },
    "instances": [
        {
            "country_code": "AT",
            "city": "Vienna",
            "latitude": 48.1102981567,
            "longitude": 16.5697002411,
            "type": "FP"
        },
        {
            "country_code": "BE",
            "city": "Brussels",
            "latitude": 50.4592018127,
            "longitude": 4.4538202286,
            "type": "FP"
        },
        {
            "country_code": "DE",
            "city": "Berlin",
            "latitude": 52.5597000122,
            "longitude": 13.2876996994,
            "type": "FP"
        },
        {
            "country_code": "DE",
            "city": "Frankfurt",
            "latitude": 50.11944,
            "longitude": 8.735556,
            "type": "FN"
        },
        {
            "country_code": "DE",
            "city": "Hamburg",
            "latitude": 53.5352783203,
            "longitude": 9.8355560303,
            "type": "FP"
        },
        {
            "country_code": "DE",
            "city": "Nuremberg",
            "latitude": 49.4986991882,
            "longitude": 11.0669002533,
            "type": "FP"
        },
        {
            "country_code": "DK",
            "city": "Copenhagen",
            "latitude": 55.6179008484,
            "longitude": 12.6560001373,
            "type": "FP"
        },
        {
            "country_code": "ES",
            "city": "Madrid",
            "latitude": 40.3707008362,
            "longitude": -3.7851400375,
            "type": "FP"
        },
        {
            "country_code": "GB",
            "city": "Bristol",
            "latitude": 51.3827018738,
            "longitude": -2.7190899849,
            "type": "FP"
        },
        {
            "country_code": "GB",
            "city": "Glasgow",
            "latitude": 55.5093994141,
            "longitude": -4.5866699219,
            "type": "FP"
        },
        {
            "country_code": "GB",
            "city": "London",
            "latitude": 51.523551,
            "longitude": -0.100785,
            "type": "FN"
        },
        {
            "country_code": "IT",
            "city": "Milan",
            "latitude": 45.445098877,
            "longitude": 9.2767400742,
            "type": "FP"
        },
        {
            "country_code": "MA",
            "city": "Casablanca",
            "latitude": 33.3675003052,
            "longitude": -7.5899701118,
            "type": "FP"
        },
        {
            "country_code": "NO",
            "city": "Oslo",
            "latitude": 60.193901062,
            "longitude": 11.100399971,
            "type": "FP"
        },
        {
            "country_code": "PK",
            "city": "Karachi",
            "latitude": 24.9064998627,
            "longitude": 67.1607971191,
            "type": "OF"
        },
        {
            "country_code": "RU",
            "city": "Moscow",
            "latitude": 55.8782997131,
            "longitude": 38.0616989136,
            "type": "FP"
        },
        {
            "country_code": "RU",
            "city": "St Petersburg",
            "latitude": 59.8003005981,
            "longitude": 30.2625007629,
            "type": "FP"
        },
        {
            "country_code": "TR",
            "city": "Istanbul",
            "latitude": 40.9768981934,
            "longitude": 28.8145999908,
            "type": "FP"
        }
    ]
}