{
    "target": "192.203.230.10",
    "probes_filepath": "datasets/probes_sets/North-Central_300.json",
    "alpha": 1,
    "threshold": 5.0,
    "noise": 0,
    "results_filepath": "datasets/results/campaigns/192.203.230.10_North-Central_20230410_threshold_light-factor_0.18/192.203.230.10_North-Central_300_52070338_1_5.0_0.json",
    "gt_filepath": "datasets/ground-truth/root_servers/root_servers_E.json",
    "statistics": {
        "TP": 31,
        "FP": 5,
        "TN": 0,
        "FN": 18,
        "accuracy": 0.5740740740740741,
        "precision": 0.8611111111111112,
        "recall": 0.6326530612244898,
        "f1": 0.7294117647058823,
        "OT": 4,
        "OF": 2
    },
    "instances": [
        {
            "country_code": "AL",
            "city": "Tirana",
            "latitude": 41.4146995544,
            "longitude": 19.7206001282,
            "type": "TP"
        },
        {
            "country_code": "AT",
            "city": "Klagenfurt",
            "latitude": 46.6247222,
            "longitude": 14.3052778,
            "type": "FN"
        },
        {
            "country_code": "AT",
            "city": "Vienna",
            "latitude": 48.2,
            "longitude": 16.3666667,
            "type": "FN"
        },
        {
            "country_code": "BE",
            "city": "Brussels",
            "latitude": 50.4592018127,
            "longitude": 4.4538202286,
            "type": "TP"
        },
        {
            "country_code": "BG",
            "city": "Plovdiv",
            "latitude": 42.0677986145,
            "longitude": 24.8507995605,
            "type": "FP"
        },
        {
            "country_code": "BG",
            "city": "Sofia",
            "latitude": 42.6833333,
            "longitude": 23.3166667,
            "type": "FN"
        },
        {
            "country_code": "BY",
            "city": "Hrodna",
            "latitude": 53.6020011902,
            "longitude": 24.0538005829,
            "type": "FP"
        },
        {
            "country_code": "CH",
            "city": "Bern",
            "latitude": 46.914100647,
            "longitude": 7.4971499443,
            "type": "TP"
        },
        {
            "country_code": "CH",
            "city": "Geneva",
            "latitude": 46.238098,
            "longitude": 6.10895,
            "type": "FN"
        },
        {
            "country_code": "CH",
            "city": "Zurich",
            "latitude": 47.4646987915,
            "longitude": 8.5491695404,
            "type": "TP"
        },
        {
            "country_code": "CZ",
            "city": "Prague",
            "latitude": 50.1007995605,
            "longitude": 14.2600002289,
            "type": "TP"
        },
        {
            "country_code": "DE",
            "city": "Berlin",
            "latitude": 52.3800010681,
            "longitude": 13.5225000381,
            "type": "TP"
        },
        {
            "country_code": "DE",
            "city": "Cologne",
            "latitude": 50.8658981323,
            "longitude": 7.1427397728,
            "type": "TP"
        },
        {
            "country_code": "DE",
            "city": "Frankfurt-am-Main",
            "latitude": 50.121212,
            "longitude": 8.6365638,
            "type": "TP"
        },
        {
            "country_code": "DE",
            "city": "Hamburg",
            "latitude": 53.6304016113,
            "longitude": 9.9882297516,
            "type": "TP"
        },
        {
            "country_code": "DE",
            "city": "Munich",
            "latitude": 48.353802,
            "longitude": 11.7861,
            "type": "FN"
        },
        {
            "country_code": "DE",
            "city": "Stuttgart",
            "latitude": 48.7088294,
            "longitude": 9.1682655,
            "type": "FN"
        },
        {
            "country_code": "DK",
            "city": "Copenhagen",
            "latitude": 55.6179008484,
            "longitude": 12.6560001373,
            "type": "TP"
        },
        {
            "country_code": "EE",
            "city": "Tallinn",
            "latitude": 59.4132995605,
            "longitude": 24.8327999115,
            "type": "TP"
        },
        {
            "country_code": "ES",
            "city": "Barcelona",
            "latitude": 41.2971000671,
            "longitude": 2.0784599781,
            "type": "TP"
        },
        {
            "country_code": "ES",
            "city": "Madrid",
            "latitude": 40.3707008362,
            "longitude": -3.7851400375,
            "type": "TP"
        },
        {
            "country_code": "ES",
            "city": "Malaga",
            "latitude": 40.536766,
            "longitude": -3.6512564,
            "type": "FN"
        },
        {
            "country_code": "FI",
            "city": "Helsinki",
            "latitude": 60.3172,
            "longitude": 24.963301,
            "type": "FN"
        },
        {
            "country_code": "FI",
            "city": "Tampere/Pirkkala",
            "latitude": 61.414100647,
            "longitude": 23.6044006348,
            "type": "TP"
        },
        {
            "country_code": "FR",
            "city": "Lyon",
            "latitude": 45.75,
            "longitude": 4.85,
            "type": "FN"
        },
        {
            "country_code": "FR",
            "city": "Marseille",
            "latitude": 43.439271922,
            "longitude": 5.2214241028,
            "type": "TP"
        },
        {
            "country_code": "FR",
            "city": "Paris",
            "latitude": 49.0127983093,
            "longitude": 2.5499999523,
            "type": "TP"
        },
        {
            "country_code": "GB",
            "city": "Edinburgh",
            "latitude": 55.950001,
            "longitude": -3.3725,
            "type": "FN"
        },
        {
            "country_code": "GB",
            "city": "London",
            "latitude": 51.3307991028,
            "longitude": 0.0324999988,
            "type": "TP"
        },
        {
            "country_code": "GB",
            "city": "Southend",
            "latitude": 51.5713996887,
            "longitude": 0.695555985,
            "type": "FP"
        },
        {
            "country_code": "GR",
            "city": "Athens",
            "latitude": 37.9364013672,
            "longitude": 23.9444999695,
            "type": "TP"
        },
        {
            "country_code": "GR",
            "city": "Thessaloniki",
            "latitude": 40.519699,
            "longitude": 22.9709,
            "type": "FN"
        },
        {
            "country_code": "HR",
            "city": "Zagreb",
            "latitude": 45.7429008484,
            "longitude": 16.0687999725,
            "type": "TP"
        },
        {
            "country_code": "HU",
            "city": "Budapest",
            "latitude": 47.4812134,
            "longitude": 19.1303031,
            "type": "TP"
        },
        {
            "country_code": "IE",
            "city": "Cork",
            "latitude": 51.841301,
            "longitude": -8.49111,
            "type": "FN"
        },
        {
            "country_code": "IE",
            "city": "Dublin",
            "latitude": 53.4212989807,
            "longitude": -6.270070076,
            "type": "TP"
        },
        {
            "country_code": "IL",
            "city": "Tel Aviv",
            "latitude": 32.1147003174,
            "longitude": 34.7821998596,
            "type": "OT"
        },
        {
            "country_code": "IS",
            "city": "Reykjav\u00edk",
            "latitude": 63.9850006104,
            "longitude": -22.6056003571,
            "type": "TP"
        },
        {
            "country_code": "IT",
            "city": "Milan",
            "latitude": 45.445098877,
            "longitude": 9.2767400742,
            "type": "TP"
        },
        {
            "country_code": "IT",
            "city": "Rome",
            "latitude": 41.804501,
            "longitude": 12.2508,
            "type": "FN"
        },
        {
            "country_code": "IT",
            "city": "Turin",
            "latitude": 45.05,
            "longitude": 7.6666667,
            "type": "FN"
        },
        {
            "country_code": "LT",
            "city": "Vilnius",
            "latitude": 54.6341018677,
            "longitude": 25.2858009338,
            "type": "TP"
        },
        {
            "country_code": "LU",
            "city": "Luxembourg City",
            "latitude": 49.626598,
            "longitude": 6.21152,
            "type": "FN"
        },
        {
            "country_code": "LV",
            "city": "Riga",
            "latitude": 56.9235992432,
            "longitude": 23.9710998535,
            "type": "TP"
        },
        {
            "country_code": "MK",
            "city": "Skopje",
            "latitude": 41.9616012573,
            "longitude": 21.6214008331,
            "type": "TP"
        },
        {
            "country_code": "N/A",
            "city": "N/A",
            "latitude": 53.4795,
            "longitude": -2.2495,
            "type": "OT"
        },
        {
            "country_code": "N/A",
            "city": "N/A",
            "latitude": 59.9075,
            "longitude": 10.7485,
            "type": "OT"
        },
        {
            "country_code": "N/A",
            "city": "N/A",
            "latitude": 39.6715,
            "longitude": -8.3205,
            "type": "OF"
        },
        {
            "country_code": "N/A",
            "city": "N/A",
            "latitude": 54.6395,
            "longitude": 39.6495,
            "type": "OF"
        },
        {
            "country_code": "NL",
            "city": "Amsterdam",
            "latitude": 52.3086013794,
            "longitude": 4.7638897896,
            "type": "TP"
        },
        {
            "country_code": "NL",
            "city": "Amsterdam",
            "latitude": 52.3747158,
            "longitude": 4.8986167,
            "type": "FP"
        },
        {
            "country_code": "NL",
            "city": "Groningen",
            "latitude": 53.1197013855,
            "longitude": 6.5794401169,
            "type": "FP"
        },
        {
            "country_code": "PL",
            "city": "Warsaw",
            "latitude": 52.165699,
            "longitude": 20.9671,
            "type": "FN"
        },
        {
            "country_code": "PT",
            "city": "Lisbon",
            "latitude": 38.7813,
            "longitude": -9.13592,
            "type": "FN"
        },
        {
            "country_code": "RO",
            "city": "Bucharest",
            "latitude": 44.503200531,
            "longitude": 26.1021003723,
            "type": "TP"
        },
        {
            "country_code": "RS",
            "city": "Belgrade",
            "latitude": 44.8184013367,
            "longitude": 20.3090991974,
            "type": "TP"
        },
        {
            "country_code": "RU",
            "city": "Moscow",
            "latitude": 55.5914993286,
            "longitude": 37.2615013123,
            "type": "TP"
        },
        {
            "country_code": "SE",
            "city": "Gothenburg",
            "latitude": 57.6628,
            "longitude": 12.2798,
            "type": "FN"
        },
        {
            "country_code": "SE",
            "city": "Stockholm",
            "latitude": 59.3544006348,
            "longitude": 17.9416999817,
            "type": "TP"
        },
        {
            "country_code": "UA",
            "city": "Kiev",
            "latitude": 50.6035003662,
            "longitude": 30.1919002533,
            "type": "OT"
        }
    ]
}