{
    "target": "192.5.5.241",
    "measurement_filepath": "datasets/measurements/campaigns/192.5.5.241_North-Central-section_20230425/192.5.5.241_North-Central-section_1.5_52649771.json",
    "probes_filepath": "datasets/probes_section/North-Central-section_1.5.json",
    "alpha": 1,
    "threshold": 20.0,
    "noise": 0,
    "num_anycast_instances": 40,
    "anycast_instances": [
        {
            "marker": {
                "id": "KIV",
                "latitude": 46.9277000427,
                "longitude": 28.9309997559,
                "city": "Chi\u015fin\u0103u",
                "country_code": "MD"
            },
            "circle": {
                "id": "11874",
                "latitude": 47.0295,
                "longitude": 28.8405,
                "radius": 17.4820524269433
            }
        },
        {
            "marker": {
                "id": "CPH",
                "latitude": 55.6179008484,
                "longitude": 12.6560001373,
                "city": "Copenhagen",
                "country_code": "DK"
            },
            "circle": {
                "id": "6714",
                "latitude": 55.6595,
                "longitude": 12.2975,
                "radius": 25.0479446687351
            }
        },
        {
            "marker": {
                "id": "NLV",
                "latitude": 47.0578994751,
                "longitude": 31.9197998047,
                "city": "Nikolayev",
                "country_code": "UA"
            },
            "circle": {
                "id": "6414",
                "latitude": 46.9795,
                "longitude": 31.9875,
                "radius": 27.2898226489049
            }
        },
        {
            "marker": {
                "id": "BCN",
                "latitude": 41.2971000671,
                "longitude": 2.0784599781,
                "city": "Barcelona",
                "country_code": "ES"
            },
            "circle": {
                "id": "32626",
                "latitude": 41.3905,
                "longitude": 2.1085,
                "radius": 31.249728762946745
            }
        },
        {
            "marker": {
                "id": "VNO",
                "latitude": 54.6341018677,
                "longitude": 25.2858009338,
                "city": "Vilnius",
                "country_code": "LT"
            },
            "circle": {
                "id": "1002105",
                "latitude": 54.6395,
                "longitude": 25.3075,
                "radius": 35.0586444055169
            }
        },
        {
            "marker": {
                "id": "EBL",
                "latitude": 36.2375984192,
                "longitude": 43.9631996155,
                "city": "Arbil",
                "country_code": "IQ"
            },
            "circle": {
                "id": "7020",
                "latitude": 36.2375,
                "longitude": 44.0085,
                "radius": 40.7374180723132
            }
        },
        {
            "marker": {
                "id": "BIX",
                "latitude": 47.4812134,
                "longitude": 19.1303031,
                "city": "Budapest",
                "country_code": "HU"
            },
            "circle": {
                "id": "50644",
                "latitude": 47.5195,
                "longitude": 19.0595,
                "radius": 42.42344336129375
            }
        },
        {
            "marker": {
                "id": "LIN",
                "latitude": 45.445098877,
                "longitude": 9.2767400742,
                "city": "Milan",
                "country_code": "IT"
            },
            "circle": {
                "id": "13816",
                "latitude": 45.4805,
                "longitude": 9.0975,
                "radius": 44.29020602839105
            }
        },
        {
            "marker": {
                "id": "LED",
                "latitude": 59.8003005981,
                "longitude": 30.2625007629,
                "city": "St Petersburg",
                "country_code": "RU"
            },
            "circle": {
                "id": "10234",
                "latitude": 60.0195,
                "longitude": 30.2485,
                "radius": 60.52320315832315
            }
        },
        {
            "marker": {
                "id": "FICIX",
                "latitude": 60.1733244,
                "longitude": 24.9410248,
                "city": "Helsinki",
                "country_code": "FI"
            },
            "circle": {
                "id": "26271",
                "latitude": 60.1675,
                "longitude": 24.7205,
                "radius": 61.337911647372486
            }
        },
        {
            "marker": {
                "id": "ARN",
                "latitude": 59.6519012451,
                "longitude": 17.9186000824,
                "city": "Stockholm",
                "country_code": "SE"
            },
            "circle": {
                "id": "7109",
                "latitude": 59.3215,
                "longitude": 18.0775,
                "radius": 62.46918598244694
            }
        },
        {
            "marker": {
                "id": "GML",
                "latitude": 50.6035003662,
                "longitude": 30.1919002533,
                "city": "Kiev",
                "country_code": "UA"
            },
            "circle": {
                "id": "3907",
                "latitude": 50.4505,
                "longitude": 30.5175,
                "radius": 62.6139332759808
            }
        },
        {
            "marker": {
                "id": "EVN",
                "latitude": 40.1473007202,
                "longitude": 44.3959007263,
                "city": "Yerevan",
                "country_code": "AM"
            },
            "circle": {
                "id": "1004560",
                "latitude": 40.1675,
                "longitude": 44.5205,
                "radius": 63.46389735809095
            }
        },
        {
            "marker": {
                "id": "CERN",
                "latitude": 46.204705,
                "longitude": 6.1431301,
                "city": "Geneva",
                "country_code": "CH"
            },
            "circle": {
                "id": "50036",
                "latitude": 46.2005,
                "longitude": 6.1285,
                "radius": 74.1967596521375
            }
        },
        {
            "marker": {
                "id": "BEY",
                "latitude": 33.8208999634,
                "longitude": 35.4883995056,
                "city": "Beirut",
                "country_code": "LB"
            },
            "circle": {
                "id": "53950",
                "latitude": 33.8875,
                "longitude": 35.5195,
                "radius": 77.17842798610243
            }
        },
        {
            "marker": {
                "id": "SOF",
                "latitude": 42.6966934204,
                "longitude": 23.4114360809,
                "city": "Sofia",
                "country_code": "BG"
            },
            "circle": {
                "id": "2309",
                "latitude": 42.7015,
                "longitude": 23.3275,
                "radius": 82.88091523632654
            }
        },
        {
            "marker": {
                "id": "IST",
                "latitude": 40.9768981934,
                "longitude": 28.8145999908,
                "city": "Istanbul",
                "country_code": "TR"
            },
            "circle": {
                "id": "25265",
                "latitude": 41.0595,
                "longitude": 28.9905,
                "radius": 97.43507460145864
            }
        },
        {
            "marker": {
                "id": "ZAG",
                "latitude": 45.7429008484,
                "longitude": 16.0687999725,
                "city": "Zagreb",
                "country_code": "HR"
            },
            "circle": {
                "id": "13593",
                "latitude": 46.3085,
                "longitude": 16.3415,
                "radius": 99.77359068046474
            }
        },
        {
            "marker": {
                "id": "BEG",
                "latitude": 44.8184013367,
                "longitude": 20.3090991974,
                "city": "Belgrade",
                "country_code": "RS"
            },
            "circle": {
                "id": "50354",
                "latitude": 44.7895,
                "longitude": 20.4495,
                "radius": 100.53352708743749
            }
        },
        {
            "marker": {
                "id": "AMX",
                "latitude": 52.3086013794,
                "longitude": 4.7638897896,
                "city": "Amsterdam",
                "country_code": "NL"
            },
            "circle": {
                "id": "1002097",
                "latitude": 52.5405,
                "longitude": 5.7115,
                "radius": 107.21692776542614
            }
        },
        {
            "marker": {
                "id": "PRG",
                "latitude": 50.1007995605,
                "longitude": 14.2600002289,
                "city": "Prague",
                "country_code": "CZ"
            },
            "circle": {
                "id": "1275",
                "latitude": 50.0395,
                "longitude": 14.2605,
                "radius": 118.41850057793279
            }
        },
        {
            "marker": {
                "id": "ISU",
                "latitude": 35.5617485046,
                "longitude": 45.3167381287,
                "city": "Sulaymaniyah",
                "country_code": "IQ"
            },
            "circle": {
                "id": "4893",
                "latitude": 35.5585,
                "longitude": 45.4115,
                "radius": 124.62353742031374
            }
        },
        {
            "marker": {
                "id": "NIX",
                "latitude": 60.193901062,
                "longitude": 11.100399971,
                "city": "Oslo",
                "country_code": "NO"
            },
            "circle": {
                "id": "35478",
                "latitude": 59.4315,
                "longitude": 10.4605,
                "radius": 141.48599378468555
            }
        },
        {
            "marker": {
                "id": "BBU",
                "latitude": 44.503200531,
                "longitude": 26.1021003723,
                "city": "Bucharest",
                "country_code": "RO"
            },
            "circle": {
                "id": "19798",
                "latitude": 45.1415,
                "longitude": 26.0315,
                "radius": 144.91381325464607
            }
        },
        {
            "marker": {
                "id": "ECV",
                "latitude": 40.3707008362,
                "longitude": -3.7851400375,
                "city": "Madrid",
                "country_code": "ES"
            },
            "circle": {
                "id": "30039",
                "latitude": 40.6115,
                "longitude": -3.5415,
                "radius": 158.590360178229
            }
        },
        {
            "marker": {
                "id": "KEF",
                "latitude": 63.9850006104,
                "longitude": -22.6056003571,
                "city": "Reykjav\u00edk",
                "country_code": "IS"
            },
            "circle": {
                "id": "27746",
                "latitude": 64.0805,
                "longitude": -21.8205,
                "radius": 163.47362706291085
            }
        },
        {
            "marker": {
                "id": "CIA",
                "latitude": 41.7994003296,
                "longitude": 12.5949001312,
                "city": "Rome",
                "country_code": "IT"
            },
            "circle": {
                "id": "376",
                "latitude": 41.9105,
                "longitude": 12.5205,
                "radius": 165.68119379626253
            }
        },
        {
            "marker": {
                "id": "KGD",
                "latitude": 54.8899993896,
                "longitude": 20.5925998688,
                "city": "Kaliningrad",
                "country_code": "RU"
            },
            "circle": {
                "id": "18534",
                "latitude": 55.6795,
                "longitude": 21.1685,
                "radius": 178.71322440920267
            }
        },
        {
            "marker": {
                "id": "CKL",
                "latitude": 55.8782997131,
                "longitude": 38.0616989136,
                "city": "Moscow",
                "country_code": "RU"
            },
            "circle": {
                "id": "1000908",
                "latitude": 56.1415,
                "longitude": 40.3875,
                "radius": 194.94527719289206
            }
        },
        {
            "marker": {
                "id": "BQH",
                "latitude": 51.3307991028,
                "longitude": 0.0324999988,
                "city": "London",
                "country_code": "GB"
            },
            "circle": {
                "id": "50043",
                "latitude": 50.7685,
                "longitude": 0.2795,
                "radius": 207.20095026697254
            }
        },
        {
            "marker": {
                "id": "WAW",
                "latitude": 52.1656990051,
                "longitude": 20.9671001434,
                "city": "Warsaw",
                "country_code": "PL"
            },
            "circle": {
                "id": "53791",
                "latitude": 52.0975,
                "longitude": 20.8015,
                "radius": 219.84469718312252
            }
        },
        {
            "marker": {
                "id": "MUC",
                "latitude": 48.3538017273,
                "longitude": 11.7861003876,
                "city": "Munich",
                "country_code": "DE"
            },
            "circle": {
                "id": "6081",
                "latitude": 49.4275,
                "longitude": 11.0215,
                "radius": 225.1462045259602
            }
        },
        {
            "marker": {
                "id": "AAL",
                "latitude": 57.0927589138,
                "longitude": 9.8492431641,
                "city": "Aalborg",
                "country_code": "DK"
            },
            "circle": {
                "id": "21552",
                "latitude": 58.1585,
                "longitude": 8.0195,
                "radius": 229.43138545693208
            }
        },
        {
            "marker": {
                "id": "DUB",
                "latitude": 53.4212989807,
                "longitude": -6.270070076,
                "city": "Dublin",
                "country_code": "IE"
            },
            "circle": {
                "id": "10612",
                "latitude": 53.8585,
                "longitude": -9.2825,
                "radius": 266.76448778799187
            }
        },
        {
            "marker": {
                "id": "LIS",
                "latitude": 38.7812995911,
                "longitude": -9.1359195709,
                "city": "Lisbon",
                "country_code": "PT"
            },
            "circle": {
                "id": "24",
                "latitude": 38.7295,
                "longitude": -9.1515,
                "radius": 279.70785478147855
            }
        },
        {
            "marker": {
                "id": "SXF",
                "latitude": 52.3800010681,
                "longitude": 13.5225000381,
                "city": "Berlin",
                "country_code": "DE"
            },
            "circle": {
                "id": "60721",
                "latitude": 52.6075,
                "longitude": 11.8685,
                "radius": 296.85949095083714
            }
        },
        {
            "marker": {
                "id": "ZAZ",
                "latitude": 41.6661987305,
                "longitude": -1.0415500402,
                "city": "Zaragoza",
                "country_code": "ES"
            },
            "circle": {
                "id": "6320",
                "latitude": 44.8575,
                "longitude": -0.5615,
                "radius": 441.00628520169016
            }
        },
        {
            "marker": {
                "id": "PAR",
                "latitude": 49.0127983093,
                "longitude": 2.5499999523,
                "city": "Paris",
                "country_code": "FR"
            },
            "circle": {
                "id": "62575",
                "latitude": 48.0195,
                "longitude": 3.1705,
                "radius": 282.9728269882535
            }
        },
        {
            "marker": {
                "id": "ADB",
                "latitude": 38.2924003601,
                "longitude": 27.156999588,
                "city": "\u0130zmir",
                "country_code": "TR"
            },
            "circle": {
                "id": "33920",
                "latitude": 35.3275,
                "longitude": 25.2785,
                "radius": 566.6628324841574
            }
        },
        {
            "marker": {
                "id": "LPA",
                "latitude": 27.9319000244,
                "longitude": -15.3865995407,
                "city": "Las Palmas de Gran Canaria",
                "country_code": "ES"
            },
            "circle": {
                "id": "1004118",
                "latitude": 32.6515,
                "longitude": -16.9325,
                "radius": 732.4537278356136
            }
        }
    ]
}