{
    "target": "192.58.128.30",
    "measurement_filepath": "datasets/measurements/campaigns/192.58.128.30_North-Central_20230410/192.58.128.30_North-Central_500_52096939.json",
    "probes_filepath": "datasets/probes_sets/North-Central_500.json",
    "alpha": 1,
    "threshold": 5.0,
    "noise": 0,
    "num_anycast_instances": 24,
    "anycast_instances": [
        {
            "marker": {
                "id": "LIS",
                "latitude": 38.7812995911,
                "longitude": -9.1359195709,
                "city": "Lisbon",
                "country_code": "PT"
            },
            "circle": {
                "id": "1004057",
                "latitude": 38.7305,
                "longitude": -9.1405,
                "radius": 13.93993708237025
            }
        },
        {
            "marker": {
                "id": "VNO",
                "latitude": 54.6341018677,
                "longitude": 25.2858009338,
                "city": "Vilnius",
                "country_code": "LT"
            },
            "circle": {
                "id": "1002006",
                "latitude": 54.6405,
                "longitude": 25.3075,
                "radius": 14.73603595458925
            }
        },
        {
            "marker": {
                "id": "KLU",
                "latitude": 46.6425018311,
                "longitude": 14.3376998901,
                "city": "Klagenfurt am W\u00f6rthersee",
                "country_code": "AT"
            },
            "circle": {
                "id": "6827",
                "latitude": 46.6205,
                "longitude": 14.2685,
                "radius": 20.96339984027975
            }
        },
        {
            "marker": {
                "id": "SOF",
                "latitude": 42.6966934204,
                "longitude": 23.4114360809,
                "city": "Sofia",
                "country_code": "BG"
            },
            "circle": {
                "id": "6897",
                "latitude": 42.6605,
                "longitude": 23.3715,
                "radius": 22.306170259661748
            }
        },
        {
            "marker": {
                "id": "FICIX",
                "latitude": 60.1733244,
                "longitude": 24.9410248,
                "city": "Helsinki",
                "country_code": "FI"
            },
            "circle": {
                "id": "6330",
                "latitude": 60.2075,
                "longitude": 24.8985,
                "radius": 23.34120372090675
            }
        },
        {
            "marker": {
                "id": "LED",
                "latitude": 59.8003005981,
                "longitude": 30.2625007629,
                "city": "St Petersburg",
                "country_code": "RU"
            },
            "circle": {
                "id": "15943",
                "latitude": 59.9485,
                "longitude": 30.2795,
                "radius": 26.650837509112247
            }
        },
        {
            "marker": {
                "id": "DEX",
                "latitude": 50.121212,
                "longitude": 8.6365638,
                "city": "Frankfurt-am-Main",
                "country_code": "DE"
            },
            "circle": {
                "id": "1004810",
                "latitude": 50.0975,
                "longitude": 8.6275,
                "radius": 34.1450868482535
            }
        },
        {
            "marker": {
                "id": "WIE",
                "latitude": 48.1102981567,
                "longitude": 16.5697002411,
                "city": "Vienna",
                "country_code": "AT"
            },
            "circle": {
                "id": "11226",
                "latitude": 48.2105,
                "longitude": 16.3685,
                "radius": 34.957599357548
            }
        },
        {
            "marker": {
                "id": "SXF",
                "latitude": 52.3800010681,
                "longitude": 13.5225000381,
                "city": "Berlin",
                "country_code": "DE"
            },
            "circle": {
                "id": "1001869",
                "latitude": 52.4715,
                "longitude": 13.3705,
                "radius": 35.933723600796
            }
        },
        {
            "marker": {
                "id": "GML",
                "latitude": 50.6035003662,
                "longitude": 30.1919002533,
                "city": "Kiev",
                "country_code": "UA"
            },
            "circle": {
                "id": "12629",
                "latitude": 50.4615,
                "longitude": 30.3885,
                "radius": 37.681813423394
            }
        },
        {
            "marker": {
                "id": "WAW",
                "latitude": 52.1656990051,
                "longitude": 20.9671001434,
                "city": "Warsaw",
                "country_code": "PL"
            },
            "circle": {
                "id": "1004056",
                "latitude": 52.2305,
                "longitude": 21.0095,
                "radius": 37.82162913099375
            }
        },
        {
            "marker": {
                "id": "LUX",
                "latitude": 49.6265983582,
                "longitude": 6.211520195,
                "city": "Luxembourg",
                "country_code": "LU"
            },
            "circle": {
                "id": "7033",
                "latitude": 49.5785,
                "longitude": 6.2285,
                "radius": 39.05594962869426
            }
        },
        {
            "marker": {
                "id": "CKL",
                "latitude": 55.8782997131,
                "longitude": 38.0616989136,
                "city": "Moscow",
                "country_code": "RU"
            },
            "circle": {
                "id": "23082",
                "latitude": 55.7385,
                "longitude": 37.7215,
                "radius": 40.05826823795999
            }
        },
        {
            "marker": {
                "id": "PAR",
                "latitude": 49.0127983093,
                "longitude": 2.5499999523,
                "city": "Paris",
                "country_code": "FR"
            },
            "circle": {
                "id": "52786",
                "latitude": 48.9305,
                "longitude": 2.3615,
                "radius": 52.256036398777745
            }
        },
        {
            "marker": {
                "id": "CUF",
                "latitude": 44.547000885,
                "longitude": 7.6232199669,
                "city": "Cuneo",
                "country_code": "IT"
            },
            "circle": {
                "id": "11880",
                "latitude": 44.3775,
                "longitude": 7.5415,
                "radius": 58.2260659333325
            }
        },
        {
            "marker": {
                "id": "LIN",
                "latitude": 45.445098877,
                "longitude": 9.2767400742,
                "city": "Milan",
                "country_code": "IT"
            },
            "circle": {
                "id": "33333",
                "latitude": 45.6185,
                "longitude": 9.9285,
                "radius": 67.77707890463999
            }
        },
        {
            "marker": {
                "id": "AMX",
                "latitude": 52.3086013794,
                "longitude": 4.7638897896,
                "city": "Amsterdam",
                "country_code": "NL"
            },
            "circle": {
                "id": "1005019",
                "latitude": 52.3915,
                "longitude": 4.6575,
                "radius": 67.9486351387305
            }
        },
        {
            "marker": {
                "id": "BQH",
                "latitude": 51.3307991028,
                "longitude": 0.0324999988,
                "city": "London",
                "country_code": "GB"
            },
            "circle": {
                "id": "1005027",
                "latitude": 51.5405,
                "longitude": -0.6715,
                "radius": 75.87083821166675
            }
        },
        {
            "marker": {
                "id": "PRG",
                "latitude": 50.1007995605,
                "longitude": 14.2600002289,
                "city": "Prague",
                "country_code": "CZ"
            },
            "circle": {
                "id": "62760",
                "latitude": 49.9875,
                "longitude": 14.7505,
                "radius": 86.0784341400515
            }
        },
        {
            "marker": {
                "id": "ARN",
                "latitude": 59.6519012451,
                "longitude": 17.9186000824,
                "city": "Stockholm",
                "country_code": "SE"
            },
            "circle": {
                "id": "14012",
                "latitude": 59.4385,
                "longitude": 18.0675,
                "radius": 91.063907768477
            }
        },
        {
            "marker": {
                "id": "HFA",
                "latitude": 32.8093986511,
                "longitude": 35.0430984497,
                "city": "Haifa",
                "country_code": "IL"
            },
            "circle": {
                "id": "52266",
                "latitude": 32.1805,
                "longitude": 34.9105,
                "radius": 98.859710846309
            }
        },
        {
            "marker": {
                "id": "ZRH",
                "latitude": 47.4646987915,
                "longitude": 8.5491695404,
                "city": "Zurich",
                "country_code": "CH"
            },
            "circle": {
                "id": "13492",
                "latitude": 47.4185,
                "longitude": 9.3415,
                "radius": 109.78441033422975
            }
        },
        {
            "marker": {
                "id": "LBA",
                "latitude": 53.8658981323,
                "longitude": -1.6605700254,
                "city": "Leeds",
                "country_code": "GB"
            },
            "circle": {
                "id": "61934",
                "latitude": 53.7595,
                "longitude": -0.3115,
                "radius": 168.59214858419676
            }
        },
        {
            "marker": {
                "id": "MIK",
                "latitude": 61.6865997314,
                "longitude": 27.2017993927,
                "city": "Mikkeli",
                "country_code": "FI"
            },
            "circle": {
                "id": "22068",
                "latitude": 62.2415,
                "longitude": 25.7605,
                "radius": 176.00646575922372
            }
        }
    ]
}