{
    "target": "192.36.148.17",
    "measurement_filepath": "datasets/measurements/campaigns/192.36.148.17_North-Central-section_20230425/192.36.148.17_North-Central-section_1_52653005.json",
    "probes_filepath": "datasets/probes_section/North-Central-section_1.json",
    "alpha": 1,
    "threshold": 5.0,
    "noise": 0,
    "num_anycast_instances": 19,
    "anycast_instances": [
        {
            "marker": {
                "id": "WIE",
                "latitude": 48.1102981567,
                "longitude": 16.5697002411,
                "city": "Vienna",
                "country_code": "AT"
            },
            "circle": {
                "id": "6042",
                "latitude": 48.2085,
                "longitude": 16.3695,
                "radius": 19.9672119867801
            }
        },
        {
            "marker": {
                "id": "LIN",
                "latitude": 45.445098877,
                "longitude": 9.2767400742,
                "city": "Milan",
                "country_code": "IT"
            },
            "circle": {
                "id": "33227",
                "latitude": 45.4405,
                "longitude": 9.2185,
                "radius": 29.232237942778504
            }
        },
        {
            "marker": {
                "id": "JAM",
                "latitude": 42.4548988342,
                "longitude": 26.3521995544,
                "city": "Yambol",
                "country_code": "BG"
            },
            "circle": {
                "id": "11518",
                "latitude": 42.1715,
                "longitude": 26.5675,
                "radius": 53.3849723526798
            }
        },
        {
            "marker": {
                "id": "RIX",
                "latitude": 56.9235992432,
                "longitude": 23.9710998535,
                "city": "Riga",
                "country_code": "LV"
            },
            "circle": {
                "id": "33536",
                "latitude": 56.9205,
                "longitude": 24.1385,
                "radius": 60.55076158002479
            }
        },
        {
            "marker": {
                "id": "ANK",
                "latitude": 39.949798584,
                "longitude": 32.6885986328,
                "city": "Ankara",
                "country_code": "TR"
            },
            "circle": {
                "id": "32508",
                "latitude": 39.8915,
                "longitude": 32.7775,
                "radius": 64.128754587009
            }
        },
        {
            "marker": {
                "id": "LJU",
                "latitude": 46.2237014771,
                "longitude": 14.4575996399,
                "city": "Ljubljana",
                "country_code": "SI"
            },
            "circle": {
                "id": "22305",
                "latitude": 46.0695,
                "longitude": 14.4875,
                "radius": 74.5274007540657
            }
        },
        {
            "marker": {
                "id": "ARN",
                "latitude": 59.6519012451,
                "longitude": 17.9186000824,
                "city": "Stockholm",
                "country_code": "SE"
            },
            "circle": {
                "id": "10748",
                "latitude": 59.2015,
                "longitude": 18.1295,
                "radius": 79.1210606295081
            }
        },
        {
            "marker": {
                "id": "EVN",
                "latitude": 40.1473007202,
                "longitude": 44.3959007263,
                "city": "Yerevan",
                "country_code": "AM"
            },
            "circle": {
                "id": "1004560",
                "latitude": 40.1675,
                "longitude": 44.5205,
                "radius": 86.5801368185145
            }
        },
        {
            "marker": {
                "id": "CPH",
                "latitude": 55.6179008484,
                "longitude": 12.6560001373,
                "city": "Copenhagen",
                "country_code": "DK"
            },
            "circle": {
                "id": "50708",
                "latitude": 55.5915,
                "longitude": 13.0075,
                "radius": 88.2382739140896
            }
        },
        {
            "marker": {
                "id": "NIX",
                "latitude": 60.193901062,
                "longitude": 11.100399971,
                "city": "Oslo",
                "country_code": "NO"
            },
            "circle": {
                "id": "27765",
                "latitude": 59.9295,
                "longitude": 10.7505,
                "radius": 93.55530301144019
            }
        },
        {
            "marker": {
                "id": "KEF",
                "latitude": 63.9850006104,
                "longitude": -22.6056003571,
                "city": "Reykjav\u00edk",
                "country_code": "IS"
            },
            "circle": {
                "id": "1000959",
                "latitude": 64.0715,
                "longitude": -22.0205,
                "radius": 108.3033381591609
            }
        },
        {
            "marker": {
                "id": "PAR",
                "latitude": 49.0127983093,
                "longitude": 2.5499999523,
                "city": "Paris",
                "country_code": "FR"
            },
            "circle": {
                "id": "31833",
                "latitude": 48.7885,
                "longitude": 1.9785,
                "radius": 117.44060755918261
            }
        },
        {
            "marker": {
                "id": "DEX",
                "latitude": 50.121212,
                "longitude": 8.6365638,
                "city": "Frankfurt-am-Main",
                "country_code": "DE"
            },
            "circle": {
                "id": "6250",
                "latitude": 48.9975,
                "longitude": 8.3895,
                "radius": 128.9341107724782
            }
        },
        {
            "marker": {
                "id": "FICIX",
                "latitude": 60.1733244,
                "longitude": 24.9410248,
                "city": "Helsinki",
                "country_code": "FI"
            },
            "circle": {
                "id": "20413",
                "latitude": 60.8685,
                "longitude": 26.6975,
                "radius": 151.3149368489934
            }
        },
        {
            "marker": {
                "id": "SXF",
                "latitude": 52.3800010681,
                "longitude": 13.5225000381,
                "city": "Berlin",
                "country_code": "DE"
            },
            "circle": {
                "id": "54477",
                "latitude": 52.1405,
                "longitude": 11.6405,
                "radius": 153.66051304038538
            }
        },
        {
            "marker": {
                "id": "BBU",
                "latitude": 44.503200531,
                "longitude": 26.1021003723,
                "city": "Bucharest",
                "country_code": "RO"
            },
            "circle": {
                "id": "61012",
                "latitude": 44.3785,
                "longitude": 26.1275,
                "radius": 156.8982715867854
            }
        },
        {
            "marker": {
                "id": "SOF",
                "latitude": 42.6966934204,
                "longitude": 23.4114360809,
                "city": "Sofia",
                "country_code": "BG"
            },
            "circle": {
                "id": "12835",
                "latitude": 43.3195,
                "longitude": 21.8885,
                "radius": 187.49553953895239
            }
        },
        {
            "marker": {
                "id": "AAL",
                "latitude": 57.0927589138,
                "longitude": 9.8492431641,
                "city": "Aalborg",
                "country_code": "DK"
            },
            "circle": {
                "id": "21552",
                "latitude": 58.1585,
                "longitude": 8.0195,
                "radius": 201.33286515776066
            }
        },
        {
            "marker": {
                "id": "BNX",
                "latitude": 50.4592018127,
                "longitude": 4.4538202286,
                "city": "Brussels",
                "country_code": "BE"
            },
            "circle": {
                "id": "15189",
                "latitude": 52.0415,
                "longitude": 5.6515,
                "radius": 203.14812348057362
            }
        }
    ]
}