{
    "target": "104.16.123.96",
    "measurement_filepath": "datasets/measurements/campaigns/104.16.123.96_North-Central_20230418/104.16.123.96_North-Central_1000_52452489.json",
    "probes_filepath": "datasets/probes_sets/North-Central_1000.json",
    "alpha": 1,
    "threshold": 30.0,
    "noise": 0,
    "num_anycast_instances": 39,
    "anycast_instances": [
        {
            "marker": {
                "id": "PAR",
                "latitude": 49.0127983093,
                "longitude": 2.5499999523,
                "city": "Paris",
                "country_code": "FR"
            },
            "circle": {
                "id": "6363",
                "latitude": 48.9285,
                "longitude": 2.3505,
                "radius": 30.854265036787503
            }
        },
        {
            "marker": {
                "id": "BBU",
                "latitude": 44.503200531,
                "longitude": 26.1021003723,
                "city": "Bucharest",
                "country_code": "RO"
            },
            "circle": {
                "id": "13315",
                "latitude": 44.4595,
                "longitude": 26.1275,
                "radius": 35.56978344605921
            }
        },
        {
            "marker": {
                "id": "TLL",
                "latitude": 59.4132995605,
                "longitude": 24.8327999115,
                "city": "Tallinn",
                "country_code": "EE"
            },
            "circle": {
                "id": "6815",
                "latitude": 59.4595,
                "longitude": 24.6875,
                "radius": 45.605927673249994
            }
        },
        {
            "marker": {
                "id": "LUX",
                "latitude": 49.6265983582,
                "longitude": 6.211520195,
                "city": "Luxembourg",
                "country_code": "LU"
            },
            "circle": {
                "id": "19307",
                "latitude": 49.5805,
                "longitude": 6.1075,
                "radius": 50.08743045658947
            }
        },
        {
            "marker": {
                "id": "MUC",
                "latitude": 48.3538017273,
                "longitude": 11.7861003876,
                "city": "Munich",
                "country_code": "DE"
            },
            "circle": {
                "id": "6750",
                "latitude": 48.1875,
                "longitude": 11.5895,
                "radius": 63.51320177798289
            }
        },
        {
            "marker": {
                "id": "SDV",
                "latitude": 32.1147003174,
                "longitude": 34.7821998596,
                "city": "Tel Aviv",
                "country_code": "IL"
            },
            "circle": {
                "id": "27091",
                "latitude": 32.0775,
                "longitude": 34.8915,
                "radius": 66.75105894032302
            }
        },
        {
            "marker": {
                "id": "LPL",
                "latitude": 53.3335990906,
                "longitude": -2.8497200012,
                "city": "Liverpool",
                "country_code": "GB"
            },
            "circle": {
                "id": "6892",
                "latitude": 53.4685,
                "longitude": -2.3085,
                "radius": 69.43844192484869
            }
        },
        {
            "marker": {
                "id": "ECN",
                "latitude": 35.1547012329,
                "longitude": 33.4961013794,
                "city": "Nicosia",
                "country_code": "CY"
            },
            "circle": {
                "id": "18864",
                "latitude": 35.1495,
                "longitude": 33.3505,
                "radius": 69.9281686835421
            }
        },
        {
            "marker": {
                "id": "ECV",
                "latitude": 40.3707008362,
                "longitude": -3.7851400375,
                "city": "Madrid",
                "country_code": "ES"
            },
            "circle": {
                "id": "1005513",
                "latitude": 40.4385,
                "longitude": -3.6225,
                "radius": 72.5738371253921
            }
        },
        {
            "marker": {
                "id": "ZRH",
                "latitude": 47.4646987915,
                "longitude": 8.5491695404,
                "city": "Zurich",
                "country_code": "CH"
            },
            "circle": {
                "id": "20731",
                "latitude": 46.9675,
                "longitude": 8.3485,
                "radius": 76.20891929458224
            }
        },
        {
            "marker": {
                "id": "HAM",
                "latitude": 53.6304016113,
                "longitude": 9.9882297516,
                "city": "Hamburg",
                "country_code": "DE"
            },
            "circle": {
                "id": "50025",
                "latitude": 53.5495,
                "longitude": 10.0485,
                "radius": 80.81576293782895
            }
        },
        {
            "marker": {
                "id": "DEX",
                "latitude": 50.121212,
                "longitude": 8.6365638,
                "city": "Frankfurt-am-Main",
                "country_code": "DE"
            },
            "circle": {
                "id": "1002728",
                "latitude": 50.1015,
                "longitude": 8.6285,
                "radius": 80.86911416144014
            }
        },
        {
            "marker": {
                "id": "LIN",
                "latitude": 45.445098877,
                "longitude": 9.2767400742,
                "city": "Milan",
                "country_code": "IT"
            },
            "circle": {
                "id": "6763",
                "latitude": 45.4785,
                "longitude": 9.1005,
                "radius": 81.98337566898684
            }
        },
        {
            "marker": {
                "id": "VNO",
                "latitude": 54.6341018677,
                "longitude": 25.2858009338,
                "city": "Vilnius",
                "country_code": "LT"
            },
            "circle": {
                "id": "1002006",
                "latitude": 54.6405,
                "longitude": 25.3075,
                "radius": 92.05433132304408
            }
        },
        {
            "marker": {
                "id": "WIE",
                "latitude": 48.1102981567,
                "longitude": 16.5697002411,
                "city": "Vienna",
                "country_code": "AT"
            },
            "circle": {
                "id": "7040",
                "latitude": 48.1875,
                "longitude": 16.3895,
                "radius": 96.6378029884796
            }
        },
        {
            "marker": {
                "id": "WAW",
                "latitude": 52.1656990051,
                "longitude": 20.9671001434,
                "city": "Warsaw",
                "country_code": "PL"
            },
            "circle": {
                "id": "15798",
                "latitude": 52.1815,
                "longitude": 20.9915,
                "radius": 96.80742240550592
            }
        },
        {
            "marker": {
                "id": "BIX",
                "latitude": 47.4812134,
                "longitude": 19.1303031,
                "city": "Budapest",
                "country_code": "HU"
            },
            "circle": {
                "id": "22945",
                "latitude": 47.4695,
                "longitude": 19.0495,
                "radius": 99.34569808855264
            }
        },
        {
            "marker": {
                "id": "GML",
                "latitude": 50.6035003662,
                "longitude": 30.1919002533,
                "city": "Kiev",
                "country_code": "UA"
            },
            "circle": {
                "id": "51266",
                "latitude": 50.3605,
                "longitude": 30.4605,
                "radius": 102.94271450485198
            }
        },
        {
            "marker": {
                "id": "ZAG",
                "latitude": 45.7429008484,
                "longitude": 16.0687999725,
                "city": "Zagreb",
                "country_code": "HR"
            },
            "circle": {
                "id": "24282",
                "latitude": 46.3085,
                "longitude": 16.3515,
                "radius": 103.88775105913288
            }
        },
        {
            "marker": {
                "id": "AMX",
                "latitude": 52.3086013794,
                "longitude": 4.7638897896,
                "city": "Amsterdam",
                "country_code": "NL"
            },
            "circle": {
                "id": "1005311",
                "latitude": 52.3775,
                "longitude": 4.8975,
                "radius": 104.56918720544209
            }
        },
        {
            "marker": {
                "id": "BRI",
                "latitude": 41.1389007568,
                "longitude": 16.7605991364,
                "city": "Bari",
                "country_code": "IT"
            },
            "circle": {
                "id": "6621",
                "latitude": 40.9475,
                "longitude": 17.2785,
                "radius": 105.45968914483026
            }
        },
        {
            "marker": {
                "id": "LED",
                "latitude": 59.8003005981,
                "longitude": 30.2625007629,
                "city": "St Petersburg",
                "country_code": "RU"
            },
            "circle": {
                "id": "17285",
                "latitude": 59.9295,
                "longitude": 30.4515,
                "radius": 108.1514112307217
            }
        },
        {
            "marker": {
                "id": "BCN",
                "latitude": 41.2971000671,
                "longitude": 2.0784599781,
                "city": "Barcelona",
                "country_code": "ES"
            },
            "circle": {
                "id": "1004167",
                "latitude": 41.4005,
                "longitude": 2.1905,
                "radius": 108.73738714698355
            }
        },
        {
            "marker": {
                "id": "BQH",
                "latitude": 51.3307991028,
                "longitude": 0.0324999988,
                "city": "London",
                "country_code": "GB"
            },
            "circle": {
                "id": "25137",
                "latitude": 51.5105,
                "longitude": -0.0015,
                "radius": 110.69333570355327
            }
        },
        {
            "marker": {
                "id": "BNX",
                "latitude": 50.4592018127,
                "longitude": 4.4538202286,
                "city": "Brussels",
                "country_code": "BE"
            },
            "circle": {
                "id": "61658",
                "latitude": 50.8715,
                "longitude": 4.4795,
                "radius": 118.85202966251907
            }
        },
        {
            "marker": {
                "id": "SXF",
                "latitude": 52.3800010681,
                "longitude": 13.5225000381,
                "city": "Berlin",
                "country_code": "DE"
            },
            "circle": {
                "id": "29560",
                "latitude": 52.4875,
                "longitude": 13.3805,
                "radius": 121.49237284360198
            }
        },
        {
            "marker": {
                "id": "CGN",
                "latitude": 50.8658981323,
                "longitude": 7.1427397728,
                "city": "Cologne",
                "country_code": "DE"
            },
            "circle": {
                "id": "6816",
                "latitude": 51.2705,
                "longitude": 6.8175,
                "radius": 133.1784603651342
            }
        },
        {
            "marker": {
                "id": "RIX",
                "latitude": 56.9235992432,
                "longitude": 23.9710998535,
                "city": "Riga",
                "country_code": "LV"
            },
            "circle": {
                "id": "52806",
                "latitude": 56.9805,
                "longitude": 24.1675,
                "radius": 155.4680296174342
            }
        },
        {
            "marker": {
                "id": "PRG",
                "latitude": 50.1007995605,
                "longitude": 14.2600002289,
                "city": "Prague",
                "country_code": "CZ"
            },
            "circle": {
                "id": "62603",
                "latitude": 50.0685,
                "longitude": 14.4075,
                "radius": 156.06495190305068
            }
        },
        {
            "marker": {
                "id": "ATH",
                "latitude": 37.9364013672,
                "longitude": 23.9444999695,
                "city": "Athens",
                "country_code": "GR"
            },
            "circle": {
                "id": "13427",
                "latitude": 37.9005,
                "longitude": 23.8685,
                "radius": 156.8773500178546
            }
        },
        {
            "marker": {
                "id": "SOF",
                "latitude": 42.6966934204,
                "longitude": 23.4114360809,
                "city": "Sofia",
                "country_code": "BG"
            },
            "circle": {
                "id": "27804",
                "latitude": 42.6595,
                "longitude": 23.3875,
                "radius": 158.92284184806383
            }
        },
        {
            "marker": {
                "id": "CKL",
                "latitude": 55.8782997131,
                "longitude": 38.0616989136,
                "city": "Moscow",
                "country_code": "RU"
            },
            "circle": {
                "id": "10734",
                "latitude": 55.8195,
                "longitude": 37.3685,
                "radius": 167.71317090357238
            }
        },
        {
            "marker": {
                "id": "MRS",
                "latitude": 43.439271922,
                "longitude": 5.2214241028,
                "city": "Marseille",
                "country_code": "FR"
            },
            "circle": {
                "id": "53789",
                "latitude": 43.4015,
                "longitude": 5.3315,
                "radius": 195.83893010879936
            }
        },
        {
            "marker": {
                "id": "ARN",
                "latitude": 59.6519012451,
                "longitude": 17.9186000824,
                "city": "Stockholm",
                "country_code": "SE"
            },
            "circle": {
                "id": "16108",
                "latitude": 59.3915,
                "longitude": 17.8175,
                "radius": 210.97460321613417
            }
        },
        {
            "marker": {
                "id": "CPH",
                "latitude": 55.6179008484,
                "longitude": 12.6560001373,
                "city": "Copenhagen",
                "country_code": "DK"
            },
            "circle": {
                "id": "55469",
                "latitude": 55.6115,
                "longitude": 13.0105,
                "radius": 216.40035362623357
            }
        },
        {
            "marker": {
                "id": "IST",
                "latitude": 40.9768981934,
                "longitude": 28.8145999908,
                "city": "Istanbul",
                "country_code": "TR"
            },
            "circle": {
                "id": "6429",
                "latitude": 40.9815,
                "longitude": 29.0985,
                "radius": 253.649172068973
            }
        },
        {
            "marker": {
                "id": "NIX",
                "latitude": 60.193901062,
                "longitude": 11.100399971,
                "city": "Oslo",
                "country_code": "NO"
            },
            "circle": {
                "id": "6291",
                "latitude": 59.9375,
                "longitude": 10.8315,
                "radius": 289.31865623050527
            }
        },
        {
            "marker": {
                "id": "KEF",
                "latitude": 63.9850006104,
                "longitude": -22.6056003571,
                "city": "Reykjav\u00edk",
                "country_code": "IS"
            },
            "circle": {
                "id": "4371",
                "latitude": 64.1175,
                "longitude": -21.9295,
                "radius": 319.61041594478223
            }
        },
        {
            "marker": {
                "id": "TBZ",
                "latitude": 38.1338996887,
                "longitude": 46.2350006104,
                "city": "Tabriz",
                "country_code": "IR"
            },
            "circle": {
                "id": "33630",
                "latitude": 40.1775,
                "longitude": 44.4985,
                "radius": 351.1297468818171
            }
        }
    ]
}