{
    "target": "199.7.91.13",
    "measurement_filepath": "datasets/measurements/campaigns/199.7.91.13_North-Central_20230410/199.7.91.13_North-Central_1000_52070235.json",
    "probes_filepath": "datasets/probes_sets/North-Central_1000.json",
    "alpha": 0.1,
    "threshold": -1,
    "noise": 0,
    "num_anycast_instances": 31,
    "anycast_instances": [
        {
            "marker": {
                "id": "WAW",
                "latitude": 52.1656990051,
                "longitude": 20.9671001434,
                "city": "Warsaw",
                "country_code": "PL"
            },
            "circle": {
                "id": "1004056",
                "latitude": 52.2305,
                "longitude": 21.0095,
                "radius": 32.775402166490785
            }
        },
        {
            "marker": {
                "id": "CSF",
                "latitude": 49.2535018921,
                "longitude": 2.5191400051,
                "city": "Creil",
                "country_code": "FR"
            },
            "circle": {
                "id": "6363",
                "latitude": 48.9285,
                "longitude": 2.3505,
                "radius": 47.532094215899996
            }
        },
        {
            "marker": {
                "id": "PRG",
                "latitude": 50.1007995605,
                "longitude": 14.2600002289,
                "city": "Prague",
                "country_code": "CZ"
            },
            "circle": {
                "id": "7129",
                "latitude": 50.0715,
                "longitude": 14.5285,
                "radius": 52.23005898782829
            }
        },
        {
            "marker": {
                "id": "ARN",
                "latitude": 59.6519012451,
                "longitude": 17.9186000824,
                "city": "Stockholm",
                "country_code": "SE"
            },
            "circle": {
                "id": "32528",
                "latitude": 59.2915,
                "longitude": 18.0085,
                "radius": 54.60492805807698
            }
        },
        {
            "marker": {
                "id": "MZM",
                "latitude": 49.0717010498,
                "longitude": 6.1316699982,
                "city": "Metz/Frescaty",
                "country_code": "FR"
            },
            "circle": {
                "id": "19307",
                "latitude": 49.5805,
                "longitude": 6.1075,
                "radius": 57.03945977210527
            }
        },
        {
            "marker": {
                "id": "LIS",
                "latitude": 38.7812995911,
                "longitude": -9.1359195709,
                "city": "Lisbon",
                "country_code": "PT"
            },
            "circle": {
                "id": "6260",
                "latitude": 38.7175,
                "longitude": -9.1395,
                "radius": 57.428203808103945
            }
        },
        {
            "marker": {
                "id": "VAR",
                "latitude": 43.2321014404,
                "longitude": 27.8250999451,
                "city": "Varna",
                "country_code": "BG"
            },
            "circle": {
                "id": "1003038",
                "latitude": 43.2215,
                "longitude": 27.9285,
                "radius": 59.34204335823749
            }
        },
        {
            "marker": {
                "id": "QMZ",
                "latitude": 49.9674987793,
                "longitude": 8.1472215652,
                "city": "Mainz",
                "country_code": "DE"
            },
            "circle": {
                "id": "1002727",
                "latitude": 50.1105,
                "longitude": 8.6685,
                "radius": 63.485293466925654
            }
        },
        {
            "marker": {
                "id": "LBC",
                "latitude": 53.8054008484,
                "longitude": 10.7192001343,
                "city": "L\u00fcbeck",
                "country_code": "DE"
            },
            "circle": {
                "id": "1004480",
                "latitude": 53.6375,
                "longitude": 10.0215,
                "radius": 64.45370199901777
            }
        },
        {
            "marker": {
                "id": "RIX",
                "latitude": 56.9235992432,
                "longitude": 23.9710998535,
                "city": "Riga",
                "country_code": "LV"
            },
            "circle": {
                "id": "17816",
                "latitude": 56.9505,
                "longitude": 24.1075,
                "radius": 65.13947724669278
            }
        },
        {
            "marker": {
                "id": "QFO",
                "latitude": 52.090801239,
                "longitude": 0.1319440007,
                "city": "Duxford",
                "country_code": "GB"
            },
            "circle": {
                "id": "25318",
                "latitude": 51.5015,
                "longitude": -0.0125,
                "radius": 68.13621843541118
            }
        },
        {
            "marker": {
                "id": "LBA",
                "latitude": 53.8658981323,
                "longitude": -1.6605700254,
                "city": "Leeds",
                "country_code": "GB"
            },
            "circle": {
                "id": "6892",
                "latitude": 53.4685,
                "longitude": -2.3085,
                "radius": 69.47976200376381
            }
        },
        {
            "marker": {
                "id": "BTS",
                "latitude": 48.1702003479,
                "longitude": 17.2126998901,
                "city": "Bratislava",
                "country_code": "SK"
            },
            "circle": {
                "id": "11226",
                "latitude": 48.2105,
                "longitude": 16.3685,
                "radius": 78.71297524640329
            }
        },
        {
            "marker": {
                "id": "BEG",
                "latitude": 44.8184013367,
                "longitude": 20.3090991974,
                "city": "Belgrade",
                "country_code": "RS"
            },
            "circle": {
                "id": "1004741",
                "latitude": 44.7275,
                "longitude": 20.3795,
                "radius": 82.09816462330001
            }
        },
        {
            "marker": {
                "id": "RYG",
                "latitude": 59.3788986206,
                "longitude": 10.7855997086,
                "city": "Rygge",
                "country_code": "NO"
            },
            "circle": {
                "id": "28320",
                "latitude": 59.9075,
                "longitude": 10.7485,
                "radius": 83.09497454615
            }
        },
        {
            "marker": {
                "id": "OTP",
                "latitude": 44.5722007751,
                "longitude": 26.1021995544,
                "city": "Bucharest",
                "country_code": "RO"
            },
            "circle": {
                "id": "13315",
                "latitude": 44.4595,
                "longitude": 26.1275,
                "radius": 86.43243380802303
            }
        },
        {
            "marker": {
                "id": "SOF",
                "latitude": 42.6966934204,
                "longitude": 23.4114360809,
                "city": "Sofia",
                "country_code": "BG"
            },
            "circle": {
                "id": "6896",
                "latitude": 42.6905,
                "longitude": 23.3215,
                "radius": 100.81389220523158
            }
        },
        {
            "marker": {
                "id": "UDE",
                "latitude": 51.6563987732,
                "longitude": 5.7086100578,
                "city": "Uden",
                "country_code": "NL"
            },
            "circle": {
                "id": "62725",
                "latitude": 52.3595,
                "longitude": 4.9485,
                "radius": 104.08468709157566
            }
        },
        {
            "marker": {
                "id": "GRZ",
                "latitude": 46.9911003113,
                "longitude": 15.4395999908,
                "city": "Graz",
                "country_code": "AT"
            },
            "circle": {
                "id": "24282",
                "latitude": 46.3085,
                "longitude": 16.3515,
                "radius": 110.2025241695184
            }
        },
        {
            "marker": {
                "id": "ATH",
                "latitude": 37.9364013672,
                "longitude": 23.9444999695,
                "city": "Athens",
                "country_code": "GR"
            },
            "circle": {
                "id": "6741",
                "latitude": 38.0775,
                "longitude": 23.6995,
                "radius": 120.12476698585725
            }
        },
        {
            "marker": {
                "id": "ZAG",
                "latitude": 45.7429008484,
                "longitude": 16.0687999725,
                "city": "Zagreb",
                "country_code": "HR"
            },
            "circle": {
                "id": "53811",
                "latitude": 45.8175,
                "longitude": 15.9975,
                "radius": 126.44614736423156
            }
        },
        {
            "marker": {
                "id": "LIN",
                "latitude": 45.445098877,
                "longitude": 9.2767400742,
                "city": "Milan",
                "country_code": "IT"
            },
            "circle": {
                "id": "54408",
                "latitude": 45.0915,
                "longitude": 7.6575,
                "radius": 133.59175977022568
            }
        },
        {
            "marker": {
                "id": "XMF",
                "latitude": 47.4869995117,
                "longitude": 6.7905402184,
                "city": "Montb\u00e9liard/Courcelles",
                "country_code": "FR"
            },
            "circle": {
                "id": "33852",
                "latitude": 47.3785,
                "longitude": 8.5395,
                "radius": 142.71856641346315
            }
        },
        {
            "marker": {
                "id": "CKC",
                "latitude": 49.415599823,
                "longitude": 31.995300293,
                "city": "Cherkasy",
                "country_code": "UA"
            },
            "circle": {
                "id": "1004069",
                "latitude": 50.4615,
                "longitude": 30.5305,
                "radius": 161.05846864755327
            }
        },
        {
            "marker": {
                "id": "SLM",
                "latitude": 40.9520988464,
                "longitude": -5.5019898415,
                "city": "Salamanca",
                "country_code": "ES"
            },
            "circle": {
                "id": "1003694",
                "latitude": 40.3395,
                "longitude": -3.7685,
                "radius": 176.62154323941843
            }
        },
        {
            "marker": {
                "id": "PEG",
                "latitude": 43.0959014893,
                "longitude": 12.5131998062,
                "city": "Perugia",
                "country_code": "IT"
            },
            "circle": {
                "id": "26231",
                "latitude": 41.4775,
                "longitude": 12.8785,
                "radius": 182.67606888379672
            }
        },
        {
            "marker": {
                "id": "AOC",
                "latitude": 50.9819450378,
                "longitude": 12.5063886642,
                "city": "Altenburg",
                "country_code": "DE"
            },
            "circle": {
                "id": "20121",
                "latitude": 52.5275,
                "longitude": 13.3185,
                "radius": 186.98578269942698
            }
        },
        {
            "marker": {
                "id": "FICIX",
                "latitude": 60.1733244,
                "longitude": 24.9410248,
                "city": "Helsinki",
                "country_code": "FI"
            },
            "circle": {
                "id": "14572",
                "latitude": 61.4685,
                "longitude": 23.4605,
                "radius": 194.07173246164143
            }
        },
        {
            "marker": {
                "id": "TBS",
                "latitude": 41.6692008972,
                "longitude": 44.95470047,
                "city": "Tbilisi",
                "country_code": "GE"
            },
            "circle": {
                "id": "12503",
                "latitude": 40.1785,
                "longitude": 44.5175,
                "radius": 213.5222474134934
            }
        },
        {
            "marker": {
                "id": "IFJ",
                "latitude": 66.0580978394,
                "longitude": -23.1352996826,
                "city": "\u00cdsafj\u00f6r\u00f0ur",
                "country_code": "IS"
            },
            "circle": {
                "id": "54607",
                "latitude": 64.0505,
                "longitude": -21.9925,
                "radius": 237.24529797154602
            }
        },
        {
            "marker": {
                "id": "MRS",
                "latitude": 43.439271922,
                "longitude": 5.2214241028,
                "city": "Marseille",
                "country_code": "FR"
            },
            "circle": {
                "id": "1001603",
                "latitude": 41.4885,
                "longitude": 2.1875,
                "radius": 338.2124393477421
            }
        }
    ]
}