{
    "target": "202.12.27.33",
    "probes_filepath": "datasets/probes_sets/North-Central_500.json",
    "alpha": 0.0,
    "threshold": -1,
    "noise": 0,
    "results_filepath": "datasets/results/campaigns/202.12.27.33_North-Central_20230410_alpha_light-factor_0.18/202.12.27.33_North-Central_500_52101224_0.0_-1_0.json",
    "gt_filepath": "datasets/ground-truth/root_servers/root_servers_M.json",
    "statistics": {
        "TP": 1,
        "FP": 14,
        "TN": 0,
        "FN": 0,
        "accuracy": 0.06666666666666667,
        "precision": 0.06666666666666667,
        "recall": 1.0,
        "f1": 0.125,
        "OT": 0,
        "OF": 0
    },
    "instances": [
        {
            "country_code": "BG",
            "city": "Burgas",
            "latitude": 42.5695991516,
            "longitude": 27.5151996613,
            "type": "FP"
        },
        {
            "country_code": "DE",
            "city": "Bayreuth",
            "latitude": 49.9850006104,
            "longitude": 11.6400003433,
            "type": "FP"
        },
        {
            "country_code": "DE",
            "city": "Friedrichshafen",
            "latitude": 47.6712989807,
            "longitude": 9.5114898682,
            "type": "FP"
        },
        {
            "country_code": "DE",
            "city": "Memmingen",
            "latitude": 47.9888000488,
            "longitude": 10.2395000458,
            "type": "FP"
        },
        {
            "country_code": "ES",
            "city": "Culleredo",
            "latitude": 43.3021011353,
            "longitude": -8.3772602081,
            "type": "FP"
        },
        {
            "country_code": "FR",
            "city": "Deauville",
            "latitude": 49.3652992249,
            "longitude": 0.1543059945,
            "type": "FP"
        },
        {
            "country_code": "FR",
            "city": "Le Havre/Octeville",
            "latitude": 49.5339012146,
            "longitude": 0.0880559981,
            "type": "FP"
        },
        {
            "country_code": "FR",
            "city": "Mende/Br\u00e9noux",
            "latitude": 44.5021018982,
            "longitude": 3.5328199863,
            "type": "FP"
        },
        {
            "country_code": "FR",
            "city": "Nice",
            "latitude": 43.6584014893,
            "longitude": 7.2158699036,
            "type": "FP"
        },
        {
            "country_code": "FR",
            "city": "Paris",
            "latitude": 48.7252998352,
            "longitude": 2.3594400883,
            "type": "TP"
        },
        {
            "country_code": "FR",
            "city": "Reims/Champagne",
            "latitude": 49.3100013733,
            "longitude": 4.0500001907,
            "type": "FP"
        },
        {
            "country_code": "GB",
            "city": "Duxford",
            "latitude": 52.090801239,
            "longitude": 0.1319440007,
            "type": "FP"
        },
        {
            "country_code": "GR",
            "city": "Nea Anchialos",
            "latitude": 39.2196006775,
            "longitude": 22.7943000793,
            "type": "FP"
        },
        {
            "country_code": "NL",
            "city": "Maastricht",
            "latitude": 50.9117012024,
            "longitude": 5.7701401711,
            "type": "FP"
        },
        {
            "country_code": "SE",
            "city": "Stockholm",
            "latitude": 59.3544006348,
            "longitude": 17.9416999817,
            "type": "FP"
        }
    ]
}