{
    "target": "202.12.27.33",
    "probes_filepath": "datasets/probes_sets/North-Central_100.json",
    "alpha": 0.1,
    "threshold": -1,
    "noise": 0,
    "results_filepath": "datasets/results/campaigns/202.12.27.33_North-Central_20230410_alpha_light-factor_0.18/202.12.27.33_North-Central_100_52101175_0.1_-1_0.json",
    "gt_filepath": "datasets/ground-truth/root_servers/root_servers_M.json",
    "statistics": {
        "TP": 0,
        "FP": 7,
        "TN": 0,
        "FN": 1,
        "accuracy": 0.0,
        "precision": 0.0,
        "recall": 0.0,
        "f1": 0,
        "OT": 0,
        "OF": 2
    },
    "instances": [
        {
            "country_code": "CH",
            "city": "Bern",
            "latitude": 46.914100647,
            "longitude": 7.4971499443,
            "type": "FP"
        },
        {
            "country_code": "DE",
            "city": "Bremen",
            "latitude": 53.0475006104,
            "longitude": 8.7866697311,
            "type": "FP"
        },
        {
            "country_code": "ES",
            "city": "Bilbao",
            "latitude": 43.3011016846,
            "longitude": -2.9106099606,
            "type": "FP"
        },
        {
            "country_code": "FR",
            "city": "Amiens/Glisy",
            "latitude": 49.8730010986,
            "longitude": 2.3870699406,
            "type": "FP"
        },
        {
            "country_code": "FR",
            "city": "Le Havre/Octeville",
            "latitude": 49.5339012146,
            "longitude": 0.0880559981,
            "type": "FP"
        },
        {
            "country_code": "FR",
            "city": "Paris",
            "latitude": 48.856614,
            "longitude": 2.3522219,
            "type": "FN"
        },
        {
            "country_code": "FR",
            "city": "Rouen/Vall\u00e9e de Seine",
            "latitude": 49.3842010498,
            "longitude": 1.1748000383,
            "type": "FP"
        },
        {
            "country_code": "MA",
            "city": "Casablanca",
            "latitude": 33.3675003052,
            "longitude": -7.5899701118,
            "type": "OF"
        },
        {
            "country_code": "RU",
            "city": "Moscow",
            "latitude": 55.4087982178,
            "longitude": 37.9062995911,
            "type": "FP"
        },
        {
            "country_code": "TR",
            "city": "Istanbul",
            "latitude": 40.898601532,
            "longitude": 29.3092002869,
            "type": "OF"
        }
    ]
}