{
    "target": "202.12.27.33",
    "probes_filepath": "datasets/probes_sets/North-Central_100.json",
    "alpha": 0.3,
    "threshold": -1,
    "noise": 0,
    "results_filepath": "datasets/results/campaigns/202.12.27.33_North-Central_20230410_alpha_light-factor_0.18/202.12.27.33_North-Central_100_52101175_0.3_-1_0.json",
    "gt_filepath": "datasets/ground-truth/root_servers/root_servers_M.json",
    "statistics": {
        "TP": 0,
        "FP": 7,
        "TN": 0,
        "FN": 1,
        "accuracy": 0.0,
        "precision": 0.0,
        "recall": 0.0,
        "f1": 0,
        "OT": 0,
        "OF": 2
    },
    "instances": [
        {
            "country_code": "DE",
            "city": "Berlin",
            "latitude": 52.3800010681,
            "longitude": 13.5225000381,
            "type": "FP"
        },
        {
            "country_code": "DE",
            "city": "Cologne",
            "latitude": 50.8658981323,
            "longitude": 7.1427397728,
            "type": "FP"
        },
        {
            "country_code": "ES",
            "city": "Barcelona",
            "latitude": 41.2971000671,
            "longitude": 2.0784599781,
            "type": "FP"
        },
        {
            "country_code": "FR",
            "city": "Lyon",
            "latitude": 45.726398468,
            "longitude": 5.0908298492,
            "type": "FP"
        },
        {
            "country_code": "FR",
            "city": "Paris",
            "latitude": 48.856614,
            "longitude": 2.3522219,
            "type": "FN"
        },
        {
            "country_code": "FR",
            "city": "Rouen/Vall\u00e9e de Seine",
            "latitude": 49.3842010498,
            "longitude": 1.1748000383,
            "type": "FP"
        },
        {
            "country_code": "GB",
            "city": "Southend",
            "latitude": 51.5713996887,
            "longitude": 0.695555985,
            "type": "FP"
        },
        {
            "country_code": "MA",
            "city": "Casablanca",
            "latitude": 33.3675003052,
            "longitude": -7.5899701118,
            "type": "OF"
        },
        {
            "country_code": "RU",
            "city": "Moscow",
            "latitude": 55.4087982178,
            "longitude": 37.9062995911,
            "type": "FP"
        },
        {
            "country_code": "TR",
            "city": "Istanbul",
            "latitude": 40.898601532,
            "longitude": 29.3092002869,
            "type": "OF"
        }
    ]
}