{
    "target": "198.97.190.53",
    "probes_filepath": "datasets/probes_section/North-Central-section_1.5.json",
    "alpha": 0.3,
    "threshold": -1,
    "noise": 0,
    "results_filepath": "datasets/results/campaigns/198.97.190.53_North-Central-section_20230425_alpha_light-factor_0.25/198.97.190.53_North-Central-section_1.5_52652246_0.3_-1_0.json",
    "gt_filepath": "datasets/ground-truth/root_servers/root_servers_H.json",
    "statistics": {
        "TP": 2,
        "FP": 13,
        "TN": 0,
        "FN": 0,
        "accuracy": 0.13333333333333333,
        "precision": 0.13333333333333333,
        "recall": 1.0,
        "f1": 0.23529411764705882,
        "OT": 0,
        "OF": 0
    },
    "instances": [
        {
            "country_code": "AT",
            "city": "Vienna",
            "latitude": 48.1102981567,
            "longitude": 16.5697002411,
            "type": "FP"
        },
        {
            "country_code": "CZ",
            "city": "Prague",
            "latitude": 50.1007995605,
            "longitude": 14.2600002289,
            "type": "FP"
        },
        {
            "country_code": "DE",
            "city": "Hamburg",
            "latitude": 53.5352783203,
            "longitude": 9.8355560303,
            "type": "FP"
        },
        {
            "country_code": "DE",
            "city": "Mannheim",
            "latitude": 49.4730567932,
            "longitude": 8.514166832,
            "type": "TP"
        },
        {
            "country_code": "DE",
            "city": "Munich",
            "latitude": 48.3538017273,
            "longitude": 11.7861003876,
            "type": "FP"
        },
        {
            "country_code": "ES",
            "city": "Madrid",
            "latitude": 40.4967002869,
            "longitude": -3.4458699226,
            "type": "FP"
        },
        {
            "country_code": "FR",
            "city": "Paris",
            "latitude": 49.0127983093,
            "longitude": 2.5499999523,
            "type": "FP"
        },
        {
            "country_code": "GB",
            "city": "Glasgow",
            "latitude": 55.8718986511,
            "longitude": -4.4330601692,
            "type": "FP"
        },
        {
            "country_code": "GB",
            "city": "London",
            "latitude": 51.5286416,
            "longitude": -0.1015987,
            "type": "FP"
        },
        {
            "country_code": "GB",
            "city": "Southend",
            "latitude": 51.5713996887,
            "longitude": 0.695555985,
            "type": "TP"
        },
        {
            "country_code": "IT",
            "city": "Milan",
            "latitude": 45.6305999756,
            "longitude": 8.7281103134,
            "type": "FP"
        },
        {
            "country_code": "IT",
            "city": "Rome",
            "latitude": 41.799444,
            "longitude": 12.597222,
            "type": "FP"
        },
        {
            "country_code": "RU",
            "city": "Archangelsk",
            "latitude": 64.6003036499,
            "longitude": 40.7167015076,
            "type": "FP"
        },
        {
            "country_code": "RU",
            "city": "St Petersburg",
            "latitude": 59.8003005981,
            "longitude": 30.2625007629,
            "type": "FP"
        },
        {
            "country_code": "TR",
            "city": "Istanbul",
            "latitude": 40.898601532,
            "longitude": 29.3092002869,
            "type": "FP"
        }
    ]
}