{
    "target": "198.97.190.53",
    "probes_filepath": "datasets/probes_section/North-Central-section_1.5.json",
    "alpha": 0.0,
    "threshold": -1,
    "noise": 0,
    "results_filepath": "datasets/results/campaigns/198.97.190.53_North-Central-section_20230425_alpha_light-factor_0.25/198.97.190.53_North-Central-section_1.5_52652246_0.0_-1_0.json",
    "gt_filepath": "datasets/ground-truth/root_servers/root_servers_H.json",
    "statistics": {
        "TP": 2,
        "FP": 14,
        "TN": 0,
        "FN": 0,
        "accuracy": 0.125,
        "precision": 0.125,
        "recall": 1.0,
        "f1": 0.2222222222222222,
        "OT": 0,
        "OF": 2
    },
    "instances": [
        {
            "country_code": "DE",
            "city": "Magdeburg",
            "latitude": 52.0736122131,
            "longitude": 11.6263885498,
            "type": "FP"
        },
        {
            "country_code": "DE",
            "city": "Mannheim",
            "latitude": 49.4730567932,
            "longitude": 8.514166832,
            "type": "TP"
        },
        {
            "country_code": "DK",
            "city": "Esbjerg",
            "latitude": 55.5259017944,
            "longitude": 8.5534000397,
            "type": "FP"
        },
        {
            "country_code": "FR",
            "city": "Amiens/Glisy",
            "latitude": 49.8730010986,
            "longitude": 2.3870699406,
            "type": "FP"
        },
        {
            "country_code": "FR",
            "city": "Biarritz/Anglet/Bayonne",
            "latitude": 43.4683990479,
            "longitude": -1.5233199596,
            "type": "FP"
        },
        {
            "country_code": "FR",
            "city": "Chamb\u00e9ry/Aix-les-Bains",
            "latitude": 45.6380996704,
            "longitude": 5.88022995,
            "type": "FP"
        },
        {
            "country_code": "GB",
            "city": "Campbeltown",
            "latitude": 55.4371986389,
            "longitude": -5.6863899231,
            "type": "FP"
        },
        {
            "country_code": "GB",
            "city": "London",
            "latitude": 51.8849983215,
            "longitude": 0.2349999994,
            "type": "TP"
        },
        {
            "country_code": "GB",
            "city": "Manchester",
            "latitude": 53.3536987305,
            "longitude": -2.2749500275,
            "type": "FP"
        },
        {
            "country_code": "HU",
            "city": "Gy\u0151r",
            "latitude": 47.6244010925,
            "longitude": 17.8136005402,
            "type": "FP"
        },
        {
            "country_code": "IR",
            "city": "Iranshahr",
            "latitude": 27.2360992432,
            "longitude": 60.7200012207,
            "type": "OF"
        },
        {
            "country_code": "IS",
            "city": "Siglufjordur",
            "latitude": 66.1333007813,
            "longitude": -18.9167003632,
            "type": "FP"
        },
        {
            "country_code": "IT",
            "city": "Treviso",
            "latitude": 45.648399353,
            "longitude": 12.1943998337,
            "type": "FP"
        },
        {
            "country_code": "IT",
            "city": "Trieste",
            "latitude": 45.8274993896,
            "longitude": 13.4722003937,
            "type": "FP"
        },
        {
            "country_code": "IT",
            "city": "Vicenza",
            "latitude": 45.5733985901,
            "longitude": 11.5295000076,
            "type": "FP"
        },
        {
            "country_code": "LT",
            "city": "Kaunas",
            "latitude": 54.9639015198,
            "longitude": 24.0848007202,
            "type": "FP"
        },
        {
            "country_code": "RU",
            "city": "Pechora",
            "latitude": 65.1211013794,
            "longitude": 57.1307983398,
            "type": "OF"
        },
        {
            "country_code": "SI",
            "city": "Portoroz",
            "latitude": 45.473400116,
            "longitude": 13.6149997711,
            "type": "FP"
        }
    ]
}