{
    "target": "192.5.5.241",
    "measurement_filepath": "datasets/measurements/campaigns/192.5.5.241_North-Central_20230410/192.5.5.241_North-Central_100_52071271.json",
    "probes_filepath": "datasets/probes_sets/North-Central_100.json",
    "alpha": 0.1,
    "threshold": -1,
    "noise": 0,
    "num_anycast_instances": 23,
    "anycast_instances": [
        {
            "marker": {
                "id": "VNO",
                "latitude": 54.6341018677,
                "longitude": 25.2858009338,
                "city": "Vilnius",
                "country_code": "LT"
            },
            "circle": {
                "id": "60813",
                "latitude": 54.6985,
                "longitude": 25.2575,
                "radius": 46.31504176378029
            }
        },
        {
            "marker": {
                "id": "HEL",
                "latitude": 60.317199707,
                "longitude": 24.963300705,
                "city": "Helsinki",
                "country_code": "FI"
            },
            "circle": {
                "id": "28294",
                "latitude": 60.1595,
                "longitude": 24.9315,
                "radius": 59.398434319587295
            }
        },
        {
            "marker": {
                "id": "ARN",
                "latitude": 59.6519012451,
                "longitude": 17.9186000824,
                "city": "Stockholm",
                "country_code": "SE"
            },
            "circle": {
                "id": "1004763",
                "latitude": 59.2985,
                "longitude": 18.0805,
                "radius": 60.00806228293029
            }
        },
        {
            "marker": {
                "id": "KBP",
                "latitude": 50.3450012207,
                "longitude": 30.8946990967,
                "city": "Kiev",
                "country_code": "UA"
            },
            "circle": {
                "id": "52720",
                "latitude": 50.5575,
                "longitude": 30.3485,
                "radius": 73.0316462433663
            }
        },
        {
            "marker": {
                "id": "DME",
                "latitude": 55.4087982178,
                "longitude": 37.9062995911,
                "city": "Moscow",
                "country_code": "RU"
            },
            "circle": {
                "id": "1000888",
                "latitude": 55.8915,
                "longitude": 37.5115,
                "radius": 80.90366405883334
            }
        },
        {
            "marker": {
                "id": "SOF",
                "latitude": 42.6966934204,
                "longitude": 23.4114360809,
                "city": "Sofia",
                "country_code": "BG"
            },
            "circle": {
                "id": "1004017",
                "latitude": 42.7005,
                "longitude": 23.3175,
                "radius": 87.98337537667508
            }
        },
        {
            "marker": {
                "id": "BEY",
                "latitude": 33.8208999634,
                "longitude": 35.4883995056,
                "city": "Beirut",
                "country_code": "LB"
            },
            "circle": {
                "id": "53950",
                "latitude": 33.8875,
                "longitude": 35.5195,
                "radius": 89.88995797700625
            }
        },
        {
            "marker": {
                "id": "ZAG",
                "latitude": 45.7429008484,
                "longitude": 16.0687999725,
                "city": "Zagreb",
                "country_code": "HR"
            },
            "circle": {
                "id": "13593",
                "latitude": 46.3085,
                "longitude": 16.3415,
                "radius": 93.11878270815784
            }
        },
        {
            "marker": {
                "id": "LED",
                "latitude": 59.8003005981,
                "longitude": 30.2625007629,
                "city": "St Petersburg",
                "country_code": "RU"
            },
            "circle": {
                "id": "1002954",
                "latitude": 59.8995,
                "longitude": 30.3195,
                "radius": 100.13879035798888
            }
        },
        {
            "marker": {
                "id": "OTP",
                "latitude": 44.5722007751,
                "longitude": 26.1021995544,
                "city": "Bucharest",
                "country_code": "RO"
            },
            "circle": {
                "id": "61841",
                "latitude": 44.4475,
                "longitude": 26.2295,
                "radius": 100.73162994368388
            }
        },
        {
            "marker": {
                "id": "QAM",
                "latitude": 49.8730010986,
                "longitude": 2.3870699406,
                "city": "Amiens/Glisy",
                "country_code": "FR"
            },
            "circle": {
                "id": "1003845",
                "latitude": 48.8995,
                "longitude": 2.2995,
                "radius": 118.0666791388469
            }
        },
        {
            "marker": {
                "id": "SPM",
                "latitude": 49.9726982117,
                "longitude": 6.6925001144,
                "city": "Trier",
                "country_code": "DE"
            },
            "circle": {
                "id": "62401",
                "latitude": 50.0175,
                "longitude": 8.4175,
                "radius": 123.42280117272068
            }
        },
        {
            "marker": {
                "id": "SLM",
                "latitude": 40.9520988464,
                "longitude": -5.5019898415,
                "city": "Salamanca",
                "country_code": "ES"
            },
            "circle": {
                "id": "22309",
                "latitude": 40.4015,
                "longitude": -3.7225,
                "radius": 168.4585160960432
            }
        },
        {
            "marker": {
                "id": "OSR",
                "latitude": 49.6963005066,
                "longitude": 18.1110992432,
                "city": "Ostrava",
                "country_code": "CZ"
            },
            "circle": {
                "id": "1000088",
                "latitude": 50.0115,
                "longitude": 15.9715,
                "radius": 181.41363495388347
            }
        },
        {
            "marker": {
                "id": "PGF",
                "latitude": 42.740398407,
                "longitude": 2.8706700802,
                "city": "Perpignan/Rivesaltes",
                "country_code": "FR"
            },
            "circle": {
                "id": "60555",
                "latitude": 41.3895,
                "longitude": 2.1695,
                "radius": 194.0125778871854
            }
        },
        {
            "marker": {
                "id": "LEH",
                "latitude": 49.5339012146,
                "longitude": 0.0880559981,
                "city": "Le Havre/Octeville",
                "country_code": "FR"
            },
            "circle": {
                "id": "61153",
                "latitude": 51.4285,
                "longitude": 0.0295,
                "radius": 214.0552776148899
            }
        },
        {
            "marker": {
                "id": "BNX",
                "latitude": 50.4592018127,
                "longitude": 4.4538202286,
                "city": "Brussels",
                "country_code": "BE"
            },
            "circle": {
                "id": "61935",
                "latitude": 52.0495,
                "longitude": 5.2385,
                "radius": 220.12354164311975
            }
        },
        {
            "marker": {
                "id": "LBA",
                "latitude": 53.8658981323,
                "longitude": -1.6605700254,
                "city": "Leeds",
                "country_code": "GB"
            },
            "circle": {
                "id": "1002711",
                "latitude": 55.3775,
                "longitude": -3.4425,
                "radius": 228.19785940924524
            }
        },
        {
            "marker": {
                "id": "MUC",
                "latitude": 48.3538017273,
                "longitude": 11.7861003876,
                "city": "Munich",
                "country_code": "DE"
            },
            "circle": {
                "id": "1004942",
                "latitude": 45.1085,
                "longitude": 9.3595,
                "radius": 421.9827449245796
            }
        },
        {
            "marker": {
                "id": "BCN",
                "latitude": 41.2971000671,
                "longitude": 2.0784599781,
                "city": "Barcelona",
                "country_code": "ES"
            },
            "circle": {
                "id": "62255",
                "latitude": 37.9795,
                "longitude": -1.1105,
                "radius": 476.9412829204327
            }
        },
        {
            "marker": {
                "id": "XFW",
                "latitude": 53.5352783203,
                "longitude": 9.8355560303,
                "city": "Hamburg",
                "country_code": "DE"
            },
            "circle": {
                "id": "53882",
                "latitude": 54.4585,
                "longitude": 17.0515,
                "radius": 508.7665382546249
            }
        },
        {
            "marker": {
                "id": "GOT",
                "latitude": 57.6627998352,
                "longitude": 12.279800415,
                "city": "Gothenburg",
                "country_code": "SE"
            },
            "circle": {
                "id": "53503",
                "latitude": 58.9285,
                "longitude": 5.8575,
                "radius": 468.1071861383749
            }
        },
        {
            "marker": {
                "id": "IST",
                "latitude": 40.9768981934,
                "longitude": 28.8145999908,
                "city": "Istanbul",
                "country_code": "TR"
            },
            "circle": {
                "id": "62733",
                "latitude": 39.8985,
                "longitude": 32.7785,
                "radius": 692.0666622193421
            }
        }
    ]
}