{
    "target": "192.36.148.17",
    "measurement_filepath": "datasets/measurements/campaigns/192.36.148.17_North-Central-section_20230425/192.36.148.17_North-Central-section_1_52653005.json",
    "probes_filepath": "datasets/probes_section/North-Central-section_1.json",
    "alpha": 0.2,
    "threshold": -1,
    "noise": 0,
    "num_anycast_instances": 16,
    "anycast_instances": [
        {
            "marker": {
                "id": "WIE",
                "latitude": 48.1102981567,
                "longitude": 16.5697002411,
                "city": "Vienna",
                "country_code": "AT"
            },
            "circle": {
                "id": "6042",
                "latitude": 48.2085,
                "longitude": 16.3695,
                "radius": 43.78774558504408
            }
        },
        {
            "marker": {
                "id": "MXP",
                "latitude": 45.6305999756,
                "longitude": 8.7281103134,
                "city": "Milan",
                "country_code": "IT"
            },
            "circle": {
                "id": "33227",
                "latitude": 45.4405,
                "longitude": 9.2185,
                "radius": 64.10578496223356
            }
        },
        {
            "marker": {
                "id": "BOJ",
                "latitude": 42.5695991516,
                "longitude": 27.5151996613,
                "city": "Burgas",
                "country_code": "BG"
            },
            "circle": {
                "id": "11518",
                "latitude": 42.1715,
                "longitude": 26.5675,
                "radius": 117.07230779096449
            }
        },
        {
            "marker": {
                "id": "SQQ",
                "latitude": 55.893901825,
                "longitude": 23.3950004578,
                "city": "\u0160iauliai",
                "country_code": "LT"
            },
            "circle": {
                "id": "33536",
                "latitude": 56.9205,
                "longitude": 24.1385,
                "radius": 132.78675785093156
            }
        },
        {
            "marker": {
                "id": "ESB",
                "latitude": 40.1281013489,
                "longitude": 32.995098114,
                "city": "Ankara",
                "country_code": "TR"
            },
            "circle": {
                "id": "32508",
                "latitude": 39.8915,
                "longitude": 32.7775,
                "radius": 140.63323374344077
            }
        },
        {
            "marker": {
                "id": "ZAG",
                "latitude": 45.7429008484,
                "longitude": 16.0687999725,
                "city": "Zagreb",
                "country_code": "HR"
            },
            "circle": {
                "id": "22305",
                "latitude": 46.0695,
                "longitude": 14.4875,
                "radius": 163.43728235540723
            }
        },
        {
            "marker": {
                "id": "VBY",
                "latitude": 57.6627998352,
                "longitude": 18.346200943,
                "city": "Visby",
                "country_code": "SE"
            },
            "circle": {
                "id": "10748",
                "latitude": 59.2015,
                "longitude": 18.1295,
                "radius": 173.51109787172828
            }
        },
        {
            "marker": {
                "id": "TBS",
                "latitude": 41.6692008972,
                "longitude": 44.95470047,
                "city": "Tbilisi",
                "country_code": "GE"
            },
            "circle": {
                "id": "1004560",
                "latitude": 40.1675,
                "longitude": 44.5205,
                "radius": 189.86872109323355
            }
        },
        {
            "marker": {
                "id": "RLG",
                "latitude": 53.9182014465,
                "longitude": 12.2783002853,
                "city": "Rostock",
                "country_code": "DE"
            },
            "circle": {
                "id": "50708",
                "latitude": 55.5915,
                "longitude": 13.0075,
                "radius": 193.50498665370526
            }
        },
        {
            "marker": {
                "id": "THN",
                "latitude": 58.3180999756,
                "longitude": 12.345000267,
                "city": "Trollh\u00e4ttan",
                "country_code": "SE"
            },
            "circle": {
                "id": "27765",
                "latitude": 59.9295,
                "longitude": 10.7505,
                "radius": 205.16513818298284
            }
        },
        {
            "marker": {
                "id": "IFJ",
                "latitude": 66.0580978394,
                "longitude": -23.1352996826,
                "city": "\u00cdsafj\u00f6r\u00f0ur",
                "country_code": "IS"
            },
            "circle": {
                "id": "1000959",
                "latitude": 64.0715,
                "longitude": -22.0205,
                "radius": 237.50732052447566
            }
        },
        {
            "marker": {
                "id": "BNX",
                "latitude": 50.4592018127,
                "longitude": 4.4538202286,
                "city": "Brussels",
                "country_code": "BE"
            },
            "circle": {
                "id": "31833",
                "latitude": 48.7885,
                "longitude": 1.9785,
                "radius": 257.5451920157513
            }
        },
        {
            "marker": {
                "id": "MUC",
                "latitude": 48.3538017273,
                "longitude": 11.7861003876,
                "city": "Munich",
                "country_code": "DE"
            },
            "circle": {
                "id": "6250",
                "latitude": 48.9975,
                "longitude": 8.3895,
                "radius": 282.7502429221013
            }
        },
        {
            "marker": {
                "id": "LED",
                "latitude": 59.8003005981,
                "longitude": 30.2625007629,
                "city": "St Petersburg",
                "country_code": "RU"
            },
            "circle": {
                "id": "20413",
                "latitude": 60.8685,
                "longitude": 26.6975,
                "radius": 331.83100186182764
            }
        },
        {
            "marker": {
                "id": "OTP",
                "latitude": 44.5722007751,
                "longitude": 26.1021995544,
                "city": "Bucharest",
                "country_code": "RO"
            },
            "circle": {
                "id": "12835",
                "latitude": 43.3195,
                "longitude": 21.8885,
                "radius": 411.17442881349206
            }
        },
        {
            "marker": {
                "id": "TOJ",
                "latitude": 40.4967002869,
                "longitude": -3.4458699226,
                "city": "Madrid",
                "country_code": "ES"
            },
            "circle": {
                "id": "32925",
                "latitude": 30.4095,
                "longitude": -9.5615,
                "radius": 1499.4066534262329
            }
        }
    ]
}