{
    "target": "192.5.5.241",
    "probes_filepath": "datasets/probes_sets/WW_10.json",
    "alpha": 1,
    "threshold": -1,
    "noise": 0,
    "num_anycast_instances": 7,
    "anycast_instances": [
        {
            "marker": {
                "id": "AVV",
                "latitude": -38.0393981934,
                "longitude": 144.468994141,
                "city": "Melbourne",
                "country_code": "AU"
            },
            "circle": {
                "id": "1004379",
                "latitude": -37.8185,
                "longitude": 144.9705,
                "radius": 144.04938852553883
            }
        },
        {
            "marker": {
                "id": "CHI",
                "latitude": 41.7859992981,
                "longitude": -87.7524032593,
                "city": "Chicago",
                "country_code": "US"
            },
            "circle": {
                "id": "1003486",
                "latitude": 42.0005,
                "longitude": -87.9985,
                "radius": 204.36141827091055
            }
        },
        {
            "marker": {
                "id": "BQH",
                "latitude": 51.3307991028,
                "longitude": 0.0324999988,
                "city": "London",
                "country_code": "GB"
            },
            "circle": {
                "id": "61983",
                "latitude": 49.8585,
                "longitude": 2.3815,
                "radius": 493.09962107780126
            }
        },
        {
            "marker": {
                "id": "LAX",
                "latitude": 33.94250107,
                "longitude": -118.4079971,
                "city": "Los Angeles",
                "country_code": "US"
            },
            "circle": {
                "id": "52423",
                "latitude": 37.7385,
                "longitude": -121.4315,
                "radius": 1293.9315653434164
            }
        },
        {
            "marker": {
                "id": "PVG",
                "latitude": 31.1434001923,
                "longitude": 121.8050003052,
                "city": "Shanghai",
                "country_code": "CN"
            },
            "circle": {
                "id": "14015",
                "latitude": 55.0395,
                "longitude": 82.9375,
                "radius": 4398.9428988844775
            }
        },
        {
            "marker": {
                "id": "IST",
                "latitude": 40.9768981934,
                "longitude": 28.8145999908,
                "city": "Istanbul",
                "country_code": "TR"
            },
            "circle": {
                "id": "60562",
                "latitude": 46.1785,
                "longitude": 21.3205,
                "radius": 986.1808995907381
            }
        },
        {
            "marker": {
                "id": "SXF",
                "latitude": 52.3800010681,
                "longitude": 13.5225000381,
                "city": "Berlin",
                "country_code": "DE"
            },
            "circle": {
                "id": "1004101",
                "latitude": 45.7775,
                "longitude": 16.0375,
                "radius": 1064.3338349131343
            }
        }
    ]
}