{
    "target": "192.5.5.241",
    "probes_filename": "datasets/probes_sets/WW_10.json",
    "alpha": 1,
    "threshold": -1,
    "noise": 0,
    "num_anycast_instances": 6,
    "anycast_intances": [
        {
            "marker": {
                "id": "CGK",
                "latitude": -6.1255698204,
                "longitude": 106.65599823,
                "city": "Jakarta",
                "code_country": "ID"
            },
            "circle": {
                "id": "1004290",
                "latitude": -6.2125,
                "longitude": 106.8415,
                "radius": 51.83510214760132
            }
        },
        {
            "marker": {
                "id": "CPH",
                "latitude": 55.6179008484,
                "longitude": 12.6560001373,
                "city": "Copenhagen",
                "code_country": "DK"
            },
            "circle": {
                "id": "62426",
                "latitude": 55.6705,
                "longitude": 12.5685,
                "radius": 162.31710389145263
            }
        },
        {
            "marker": {
                "id": "BEI",
                "latitude": 39.7827987671,
                "longitude": 116.3880004883,
                "city": "Beijing",
                "code_country": "CN"
            },
            "circle": {
                "id": "1002087",
                "latitude": 39.9005,
                "longitude": 116.4115,
                "radius": 247.75312224038618
            }
        },
        {
            "marker": {
                "id": "YKZ",
                "latitude": 43.8622016907,
                "longitude": -79.3700027466,
                "city": "Toronto",
                "code_country": "CA"
            },
            "circle": {
                "id": "62861",
                "latitude": 43.8775,
                "longitude": -78.9295,
                "radius": 408.1813364145586
            }
        },
        {
            "marker": {
                "id": "SXF",
                "latitude": 52.3800010681,
                "longitude": 13.5225000381,
                "city": "Berlin",
                "code_country": "DE"
            },
            "circle": {
                "id": "1003399",
                "latitude": 48.2115,
                "longitude": 16.3415,
                "radius": 786.1239684906309
            }
        },
        {
            "marker": {
                "id": "CGH",
                "latitude": -23.6261100769,
                "longitude": -46.6563873291,
                "city": "S\u00e3o Paulo",
                "code_country": "BR"
            },
            "circle": {
                "id": "1004992",
                "latitude": -23.4615,
                "longitude": -46.8685,
                "radius": 942.1864549951783
            }
        }
    ]
}