{
    "target": "199.7.91.13",
    "measurement_filepath": "datasets/measurements/campaigns/199.7.91.13_North-Central_20230410/199.7.91.13_North-Central_300_52070177.json",
    "probes_filepath": "datasets/probes_sets/North-Central_300.json",
    "alpha": 0.8,
    "threshold": -1,
    "noise": 0,
    "num_anycast_instances": 25,
    "anycast_instances": [
        {
            "marker": {
                "id": "MAN",
                "latitude": 53.3536987305,
                "longitude": -2.2749500275,
                "city": "Manchester",
                "country_code": "GB"
            },
            "circle": {
                "id": "12174",
                "latitude": 53.4795,
                "longitude": -2.2495,
                "radius": 27.0562693345
            }
        },
        {
            "marker": {
                "id": "PAR",
                "latitude": 49.0127983093,
                "longitude": 2.5499999523,
                "city": "Paris",
                "country_code": "FR"
            },
            "circle": {
                "id": "24392",
                "latitude": 48.7885,
                "longitude": 2.4115,
                "radius": 43.596718619734
            }
        },
        {
            "marker": {
                "id": "BEG",
                "latitude": 44.8184013367,
                "longitude": 20.3090991974,
                "city": "Belgrade",
                "country_code": "RS"
            },
            "circle": {
                "id": "1004741",
                "latitude": 44.7275,
                "longitude": 20.3795,
                "radius": 43.9875280679828
            }
        },
        {
            "marker": {
                "id": "FRA",
                "latitude": 50.0264015198,
                "longitude": 8.543129921,
                "city": "Frankfurt-am-Main",
                "country_code": "DE"
            },
            "circle": {
                "id": "1000518",
                "latitude": 50.1215,
                "longitude": 8.7375,
                "radius": 48.4775197114488
            }
        },
        {
            "marker": {
                "id": "WIE",
                "latitude": 48.1102981567,
                "longitude": 16.5697002411,
                "city": "Vienna",
                "country_code": "AT"
            },
            "circle": {
                "id": "52992",
                "latitude": 48.1985,
                "longitude": 16.3715,
                "radius": 79.0402815517
            }
        },
        {
            "marker": {
                "id": "NIX",
                "latitude": 60.193901062,
                "longitude": 11.100399971,
                "city": "Oslo",
                "country_code": "NO"
            },
            "circle": {
                "id": "60959",
                "latitude": 59.9415,
                "longitude": 10.7795,
                "radius": 106.34831659242839
            }
        },
        {
            "marker": {
                "id": "MUC",
                "latitude": 48.3538017273,
                "longitude": 11.7861003876,
                "city": "Munich",
                "country_code": "DE"
            },
            "circle": {
                "id": "27992",
                "latitude": 48.0285,
                "longitude": 12.5615,
                "radius": 106.5148812820932
            }
        },
        {
            "marker": {
                "id": "AMX",
                "latitude": 52.3086013794,
                "longitude": 4.7638897896,
                "city": "Amsterdam",
                "country_code": "NL"
            },
            "circle": {
                "id": "53434",
                "latitude": 52.4095,
                "longitude": 4.8885,
                "radius": 107.23078567179721
            }
        },
        {
            "marker": {
                "id": "SOF",
                "latitude": 42.6966934204,
                "longitude": 23.4114360809,
                "city": "Sofia",
                "country_code": "BG"
            },
            "circle": {
                "id": "16245",
                "latitude": 42.6895,
                "longitude": 23.3195,
                "radius": 108.20978792264201
            }
        },
        {
            "marker": {
                "id": "ZRH",
                "latitude": 47.4646987915,
                "longitude": 8.5491695404,
                "city": "Zurich",
                "country_code": "CH"
            },
            "circle": {
                "id": "19531",
                "latitude": 47.2675,
                "longitude": 9.6085,
                "radius": 120.43730299010483
            }
        },
        {
            "marker": {
                "id": "PRG",
                "latitude": 50.1007995605,
                "longitude": 14.2600002289,
                "city": "Prague",
                "country_code": "CZ"
            },
            "circle": {
                "id": "33280",
                "latitude": 50.0275,
                "longitude": 15.7815,
                "radius": 121.214185165766
            }
        },
        {
            "marker": {
                "id": "ZAG",
                "latitude": 45.7429008484,
                "longitude": 16.0687999725,
                "city": "Zagreb",
                "country_code": "HR"
            },
            "circle": {
                "id": "13593",
                "latitude": 46.3085,
                "longitude": 16.3415,
                "radius": 123.12841996858761
            }
        },
        {
            "marker": {
                "id": "STN",
                "latitude": 51.8849983215,
                "longitude": 0.2349999994,
                "city": "London",
                "country_code": "GB"
            },
            "circle": {
                "id": "6559",
                "latitude": 51.5215,
                "longitude": -0.6405,
                "radius": 124.17253714130999
            }
        },
        {
            "marker": {
                "id": "ECV",
                "latitude": 40.3707008362,
                "longitude": -3.7851400375,
                "city": "Madrid",
                "country_code": "ES"
            },
            "circle": {
                "id": "14814",
                "latitude": 40.5995,
                "longitude": -3.7125,
                "radius": 131.6668689233772
            }
        },
        {
            "marker": {
                "id": "KBP",
                "latitude": 50.3450012207,
                "longitude": 30.8946990967,
                "city": "Kiev",
                "country_code": "UA"
            },
            "circle": {
                "id": "52720",
                "latitude": 50.5575,
                "longitude": 30.3485,
                "radius": 146.80836668260002
            }
        },
        {
            "marker": {
                "id": "WMI",
                "latitude": 52.4510993958,
                "longitude": 20.6518001556,
                "city": "Warsaw",
                "country_code": "PL"
            },
            "circle": {
                "id": "32362",
                "latitude": 52.2885,
                "longitude": 20.8005,
                "radius": 148.6049029664108
            }
        },
        {
            "marker": {
                "id": "SXF",
                "latitude": 52.3800010681,
                "longitude": 13.5225000381,
                "city": "Berlin",
                "country_code": "DE"
            },
            "circle": {
                "id": "20121",
                "latitude": 52.5275,
                "longitude": 13.3185,
                "radius": 150.00319494901441
            }
        },
        {
            "marker": {
                "id": "TIA",
                "latitude": 41.4146995544,
                "longitude": 19.7206001282,
                "city": "Tirana",
                "country_code": "AL"
            },
            "circle": {
                "id": "62311",
                "latitude": 41.3275,
                "longitude": 19.8175,
                "radius": 153.29347713405602
            }
        },
        {
            "marker": {
                "id": "BMA",
                "latitude": 59.3544006348,
                "longitude": 17.9416999817,
                "city": "Stockholm",
                "country_code": "SE"
            },
            "circle": {
                "id": "14699",
                "latitude": 60.6215,
                "longitude": 16.7815,
                "radius": 182.05388671681118
            }
        },
        {
            "marker": {
                "id": "LYS",
                "latitude": 45.726398468,
                "longitude": 5.0908298492,
                "city": "Lyon",
                "country_code": "FR"
            },
            "circle": {
                "id": "61398",
                "latitude": 45.7815,
                "longitude": 4.8115,
                "radius": 187.77404673243439
            }
        },
        {
            "marker": {
                "id": "ATH",
                "latitude": 37.9364013672,
                "longitude": 23.9444999695,
                "city": "Athens",
                "country_code": "GR"
            },
            "circle": {
                "id": "62748",
                "latitude": 37.9815,
                "longitude": 23.7595,
                "radius": 237.242560393048
            }
        },
        {
            "marker": {
                "id": "MSQ",
                "latitude": 53.8824996948,
                "longitude": 28.0307006836,
                "city": "Minsk",
                "country_code": "BY"
            },
            "circle": {
                "id": "19789",
                "latitude": 54.7215,
                "longitude": 25.2915,
                "radius": 293.3878118442712
            }
        },
        {
            "marker": {
                "id": "FCO",
                "latitude": 41.8045005798,
                "longitude": 12.2508001328,
                "city": "Rome",
                "country_code": "IT"
            },
            "circle": {
                "id": "11803",
                "latitude": 40.5885,
                "longitude": 14.9775,
                "radius": 335.0355197360556
            }
        },
        {
            "marker": {
                "id": "LED",
                "latitude": 59.8003005981,
                "longitude": 30.2625007629,
                "city": "St Petersburg",
                "country_code": "RU"
            },
            "circle": {
                "id": "1000102",
                "latitude": 60.3385,
                "longitude": 25.0275,
                "radius": 400.67735683783644
            }
        },
        {
            "marker": {
                "id": "TNG",
                "latitude": 35.7268981934,
                "longitude": -5.9168901444,
                "city": "Tangier",
                "country_code": "MA"
            },
            "circle": {
                "id": "1001843",
                "latitude": 38.7985,
                "longitude": -9.3405,
                "radius": 488.4573680006272
            }
        }
    ]
}