{
    "target": "199.7.91.13",
    "measurement_filepath": "datasets/measurements/campaigns/199.7.91.13_North-Central_20230410/199.7.91.13_North-Central_100_52070169.json",
    "probes_filepath": "datasets/probes_sets/North-Central_100.json",
    "alpha": 0.2,
    "threshold": -1,
    "noise": 0,
    "num_anycast_instances": 14,
    "anycast_instances": [
        {
            "marker": {
                "id": "BEG",
                "latitude": 44.8184013367,
                "longitude": 20.3090991974,
                "city": "Belgrade",
                "country_code": "RS"
            },
            "circle": {
                "id": "61257",
                "latitude": 44.8105,
                "longitude": 20.3895,
                "radius": 72.11333697564359
            }
        },
        {
            "marker": {
                "id": "RTM",
                "latitude": 51.9569015503,
                "longitude": 4.4372200966,
                "city": "Rotterdam",
                "country_code": "NL"
            },
            "circle": {
                "id": "32321",
                "latitude": 52.3975,
                "longitude": 4.8385,
                "radius": 75.752457664814
            }
        },
        {
            "marker": {
                "id": "GML",
                "latitude": 50.6035003662,
                "longitude": 30.1919002533,
                "city": "Kiev",
                "country_code": "UA"
            },
            "circle": {
                "id": "1004113",
                "latitude": 50.4485,
                "longitude": 30.5275,
                "radius": 76.2037052725956
            }
        },
        {
            "marker": {
                "id": "EKT",
                "latitude": 59.3511009216,
                "longitude": 16.7084007263,
                "city": "Eskilstuna",
                "country_code": "SE"
            },
            "circle": {
                "id": "55388",
                "latitude": 59.3615,
                "longitude": 18.0015,
                "radius": 99.2163139751
            }
        },
        {
            "marker": {
                "id": "OHD",
                "latitude": 41.1800003052,
                "longitude": 20.7423000336,
                "city": "Ohrid",
                "country_code": "MK"
            },
            "circle": {
                "id": "63089",
                "latitude": 41.3215,
                "longitude": 19.7915,
                "radius": 100.94137973692361
            }
        },
        {
            "marker": {
                "id": "TRN",
                "latitude": 45.2008018494,
                "longitude": 7.6496300697,
                "city": "Torino",
                "country_code": "IT"
            },
            "circle": {
                "id": "11880",
                "latitude": 44.3775,
                "longitude": 7.5415,
                "radius": 105.49198941539721
            }
        },
        {
            "marker": {
                "id": "VEY",
                "latitude": 63.4243011475,
                "longitude": -20.2789001465,
                "city": "Vestmannaeyjar",
                "country_code": "IS"
            },
            "circle": {
                "id": "1000959",
                "latitude": 64.0715,
                "longitude": -22.0205,
                "radius": 117.3861952280556
            }
        },
        {
            "marker": {
                "id": "ZAG",
                "latitude": 45.7429008484,
                "longitude": 16.0687999725,
                "city": "Zagreb",
                "country_code": "HR"
            },
            "circle": {
                "id": "13593",
                "latitude": 46.3085,
                "longitude": 16.3415,
                "radius": 136.53040196951122
            }
        },
        {
            "marker": {
                "id": "PDV",
                "latitude": 42.0677986145,
                "longitude": 24.8507995605,
                "city": "Plovdiv",
                "country_code": "BG"
            },
            "circle": {
                "id": "1000801",
                "latitude": 42.6975,
                "longitude": 23.3175,
                "radius": 144.8934123778792
            }
        },
        {
            "marker": {
                "id": "XCB",
                "latitude": 50.2218017578,
                "longitude": 3.154239893,
                "city": "Cambrai/\u00c9pinoy",
                "country_code": "FR"
            },
            "circle": {
                "id": "1003539",
                "latitude": 48.8015,
                "longitude": 2.5085,
                "radius": 165.97116055645162
            }
        },
        {
            "marker": {
                "id": "PEG",
                "latitude": 43.0959014893,
                "longitude": 12.5131998062,
                "city": "Perugia",
                "country_code": "IT"
            },
            "circle": {
                "id": "55632",
                "latitude": 41.8085,
                "longitude": 12.7685,
                "radius": 170.0173394450944
            }
        },
        {
            "marker": {
                "id": "ZRH",
                "latitude": 47.4646987915,
                "longitude": 8.5491695404,
                "city": "Zurich",
                "country_code": "CH"
            },
            "circle": {
                "id": "50126",
                "latitude": 49.0105,
                "longitude": 8.3985,
                "radius": 182.97580848365283
            }
        },
        {
            "marker": {
                "id": "GSE",
                "latitude": 57.7747001648,
                "longitude": 11.8704004288,
                "city": "Gothenburg",
                "country_code": "SE"
            },
            "circle": {
                "id": "33561",
                "latitude": 59.9275,
                "longitude": 10.5505,
                "radius": 268.0826302569492
            }
        },
        {
            "marker": {
                "id": "ECV",
                "latitude": 40.3707008362,
                "longitude": -3.7851400375,
                "city": "Madrid",
                "country_code": "ES"
            },
            "circle": {
                "id": "62255",
                "latitude": 37.9795,
                "longitude": -1.1105,
                "radius": 545.8434004770209
            }
        }
    ]
}