{
    "target": "202.12.27.33",
    "measurement_filepath": "datasets/measurements/campaigns/202.12.27.33_North-Central-section_20230425/202.12.27.33_North-Central-section_2_52655917.json",
    "probes_filepath": "datasets/probes_section/North-Central-section_2.json",
    "alpha": 1.0,
    "threshold": -1,
    "noise": 0,
    "num_anycast_instances": 16,
    "anycast_instances": [
        {
            "marker": {
                "id": "ANE",
                "latitude": 47.5602989197,
                "longitude": -0.3122220039,
                "city": "Angers/Marc\u00e9",
                "country_code": "FR"
            },
            "circle": {
                "id": "31466",
                "latitude": 47.4405,
                "longitude": 0.7005,
                "radius": 127.41232828057522
            }
        },
        {
            "marker": {
                "id": "LYS",
                "latitude": 45.726398468,
                "longitude": 5.0908298492,
                "city": "Lyon",
                "country_code": "FR"
            },
            "circle": {
                "id": "12015",
                "latitude": 45.7195,
                "longitude": 4.8575,
                "radius": 170.97116212739178
            }
        },
        {
            "marker": {
                "id": "MHG",
                "latitude": 49.4730567932,
                "longitude": 8.514166832,
                "city": "Mannheim",
                "country_code": "DE"
            },
            "circle": {
                "id": "12829",
                "latitude": 49.2015,
                "longitude": 6.2085,
                "radius": 171.99782838113398
            }
        },
        {
            "marker": {
                "id": "BQH",
                "latitude": 51.3307991028,
                "longitude": 0.0324999988,
                "city": "London",
                "country_code": "GB"
            },
            "circle": {
                "id": "52262",
                "latitude": 53.0885,
                "longitude": -4.2495,
                "radius": 498.04934161547123
            }
        },
        {
            "marker": {
                "id": "PAR",
                "latitude": 49.0127983093,
                "longitude": 2.5499999523,
                "city": "Paris",
                "country_code": "FR"
            },
            "circle": {
                "id": "18289",
                "latitude": 50.1015,
                "longitude": 3.6515,
                "radius": 187.86405941794888
            }
        },
        {
            "marker": {
                "id": "XFW",
                "latitude": 53.5352783203,
                "longitude": 9.8355560303,
                "city": "Hamburg",
                "country_code": "DE"
            },
            "circle": {
                "id": "6866",
                "latitude": 52.2505,
                "longitude": 6.0005,
                "radius": 297.0358813383129
            }
        },
        {
            "marker": {
                "id": "ECV",
                "latitude": 40.3707008362,
                "longitude": -3.7851400375,
                "city": "Madrid",
                "country_code": "ES"
            },
            "circle": {
                "id": "12884",
                "latitude": 41.6395,
                "longitude": -4.7385,
                "radius": 560.7089542682775
            }
        },
        {
            "marker": {
                "id": "BIO",
                "latitude": 43.3011016846,
                "longitude": -2.9106099606,
                "city": "Bilbao",
                "country_code": "ES"
            },
            "circle": {
                "id": "54423",
                "latitude": 44.8285,
                "longitude": -0.6015,
                "radius": 250.76890529932373
            }
        },
        {
            "marker": {
                "id": "BCN",
                "latitude": 41.2971000671,
                "longitude": 2.0784599781,
                "city": "Barcelona",
                "country_code": "ES"
            },
            "circle": {
                "id": "50761",
                "latitude": 43.5975,
                "longitude": 1.4405,
                "radius": 303.6579070053375
            }
        },
        {
            "marker": {
                "id": "LED",
                "latitude": 59.8003005981,
                "longitude": 30.2625007629,
                "city": "St Petersburg",
                "country_code": "RU"
            },
            "circle": {
                "id": "20290",
                "latitude": 60.1275,
                "longitude": 18.6415,
                "radius": 730.142396936699
            }
        },
        {
            "marker": {
                "id": "SXF",
                "latitude": 52.3800010681,
                "longitude": 13.5225000381,
                "city": "Berlin",
                "country_code": "DE"
            },
            "circle": {
                "id": "21234",
                "latitude": 53.1395,
                "longitude": 23.1785,
                "radius": 849.4430877870146
            }
        },
        {
            "marker": {
                "id": "CIA",
                "latitude": 41.7994003296,
                "longitude": 12.5949001312,
                "city": "Rome",
                "country_code": "IT"
            },
            "circle": {
                "id": "1000401",
                "latitude": 37.5075,
                "longitude": 15.0775,
                "radius": 937.2769476711114
            }
        },
        {
            "marker": {
                "id": "IST",
                "latitude": 40.9768981934,
                "longitude": 28.8145999908,
                "city": "Istanbul",
                "country_code": "TR"
            },
            "circle": {
                "id": "50348",
                "latitude": 41.7715,
                "longitude": 26.2095,
                "radius": 1054.512110456751
            }
        },
        {
            "marker": {
                "id": "KEF",
                "latitude": 63.9850006104,
                "longitude": -22.6056003571,
                "city": "Reykjav\u00edk",
                "country_code": "IS"
            },
            "circle": {
                "id": "1000959",
                "latitude": 64.0715,
                "longitude": -22.0205,
                "radius": 1209.5047722697318
            }
        },
        {
            "marker": {
                "id": "CPH",
                "latitude": 55.6179008484,
                "longitude": 12.6560001373,
                "city": "Copenhagen",
                "country_code": "DK"
            },
            "circle": {
                "id": "15928",
                "latitude": 59.0115,
                "longitude": 6.0685,
                "radius": 623.9065474848892
            }
        },
        {
            "marker": {
                "id": "CMN",
                "latitude": 33.3675003052,
                "longitude": -7.5899701118,
                "city": "Casablanca",
                "country_code": "MA"
            },
            "circle": {
                "id": "32925",
                "latitude": 30.4095,
                "longitude": -9.5615,
                "radius": 1219.022811068584
            }
        }
    ]
}