{
    "target": "192.33.4.12",
    "measurement_filepath": "datasets/measurements/campaigns/192.33.4.12_North-Central_20230410/192.33.4.12_North-Central_300_52069826.json",
    "probes_filepath": "datasets/probes_sets/North-Central_300.json",
    "alpha": 0.1,
    "threshold": -1,
    "noise": 0,
    "num_anycast_instances": 6,
    "anycast_instances": [
        {
            "marker": {
                "id": "QEF",
                "latitude": 49.9599990845,
                "longitude": 8.6458330154,
                "city": "Egelsbach",
                "country_code": "DE"
            },
            "circle": {
                "id": "1004810",
                "latitude": 50.0975,
                "longitude": 8.6275,
                "radius": 31.988312452098448
            }
        },
        {
            "marker": {
                "id": "CSF",
                "latitude": 49.2535018921,
                "longitude": 2.5191400051,
                "city": "Creil",
                "country_code": "FR"
            },
            "circle": {
                "id": "6593",
                "latitude": 48.8585,
                "longitude": 2.3815,
                "radius": 52.421919060600594
            }
        },
        {
            "marker": {
                "id": "GRZ",
                "latitude": 46.9911003113,
                "longitude": 15.4395999908,
                "city": "Graz",
                "country_code": "AT"
            },
            "circle": {
                "id": "50818",
                "latitude": 48.2715,
                "longitude": 16.4075,
                "radius": 162.72486541981004
            }
        },
        {
            "marker": {
                "id": "SOB",
                "latitude": 46.6864013672,
                "longitude": 17.1590995789,
                "city": "S\u00e1rmell\u00e9k",
                "country_code": "HU"
            },
            "circle": {
                "id": "14899",
                "latitude": 47.5215,
                "longitude": 19.0615,
                "radius": 171.49338260168028
            }
        },
        {
            "marker": {
                "id": "TOJ",
                "latitude": 40.4967002869,
                "longitude": -3.4458699226,
                "city": "Madrid",
                "country_code": "ES"
            },
            "circle": {
                "id": "52897",
                "latitude": 37.3905,
                "longitude": -5.9785,
                "radius": 419.98487552078745
            }
        },
        {
            "marker": {
                "id": "CKL",
                "latitude": 55.8782997131,
                "longitude": 38.0616989136,
                "city": "Moscow",
                "country_code": "RU"
            },
            "circle": {
                "id": "52776",
                "latitude": 49.8005,
                "longitude": 30.1305,
                "radius": 966.8859512844436
            }
        }
    ]
}