{
    "target": "192.203.230.10",
    "measurement_filepath": "datasets/measurements/campaigns/192.203.230.10_North-Central-section_20230425/192.203.230.10_North-Central-section_2_52648921.json",
    "probes_filepath": "datasets/probes_section/North-Central-section_2.json",
    "alpha": 1,
    "threshold": 1.0,
    "noise": 0,
    "num_anycast_instances": 6,
    "anycast_instances": [
        {
            "marker": {
                "id": "DUB",
                "latitude": 53.4212989807,
                "longitude": -6.270070076,
                "city": "Dublin",
                "country_code": "IE"
            },
            "circle": {
                "id": "6965",
                "latitude": 53.3295,
                "longitude": -6.3695,
                "radius": 26.4563096779275
            }
        },
        {
            "marker": {
                "id": "RIX",
                "latitude": 56.9235992432,
                "longitude": 23.9710998535,
                "city": "Riga",
                "country_code": "LV"
            },
            "circle": {
                "id": "17816",
                "latitude": 56.9505,
                "longitude": 24.1075,
                "radius": 27.191190930222895
            }
        },
        {
            "marker": {
                "id": "BMA",
                "latitude": 59.3544006348,
                "longitude": 17.9416999817,
                "city": "Stockholm",
                "country_code": "SE"
            },
            "circle": {
                "id": "30735",
                "latitude": 59.3495,
                "longitude": 18.0685,
                "radius": 28.0826537833317
            }
        },
        {
            "marker": {
                "id": "EBL",
                "latitude": 36.2375984192,
                "longitude": 43.9631996155,
                "city": "Arbil",
                "country_code": "IQ"
            },
            "circle": {
                "id": "7020",
                "latitude": 36.2375,
                "longitude": 44.0085,
                "radius": 33.516826783645804
            }
        },
        {
            "marker": {
                "id": "ZAG",
                "latitude": 45.7429008484,
                "longitude": 16.0687999725,
                "city": "Zagreb",
                "country_code": "HR"
            },
            "circle": {
                "id": "11440",
                "latitude": 45.7975,
                "longitude": 15.9395,
                "radius": 34.441521630723905
            }
        },
        {
            "marker": {
                "id": "SDV",
                "latitude": 32.1147003174,
                "longitude": 34.7821998596,
                "city": "Tel Aviv",
                "country_code": "IL"
            },
            "circle": {
                "id": "27091",
                "latitude": 32.0775,
                "longitude": 34.8915,
                "radius": 42.643213717442094
            }
        }
    ]
}