{
    "target": "104.16.123.96",
    "probes_filepath": "datasets/probes_sets/North-Central_300.json",
    "alpha": 0.6,
    "threshold": -1,
    "noise": 0,
    "results_filepath": "datasets/results/campaigns/104.16.123.96_North-Central_20230418_alpha_light-factor_0.18/104.16.123.96_North-Central_300_52452380_0.6_-1_0.json",
    "gt_filepath": "datasets/ground-truth/cloudfare/cloudfare_servers_europe.json",
    "statistics": {
        "TP": 32,
        "FP": 16,
        "TN": 0,
        "FN": 18,
        "accuracy": 0.48484848484848486,
        "precision": 0.6666666666666666,
        "recall": 0.64,
        "f1": 0.6530612244897959,
        "OT": 4,
        "OF": 9
    },
    "instances": [
        {
            "country_code": "AL",
            "city": "Tirana",
            "latitude": 41.4146995544,
            "longitude": 19.7206001282,
            "type": "FN"
        },
        {
            "country_code": "AT",
            "city": "Vienna",
            "latitude": 48.1102981567,
            "longitude": 16.5697002411,
            "type": "TP"
        },
        {
            "country_code": "BE",
            "city": "Brussels",
            "latitude": 50.9014015198,
            "longitude": 4.4844398499,
            "type": "TP"
        },
        {
            "country_code": "BG",
            "city": "Sofia",
            "latitude": 42.6966934204,
            "longitude": 23.4114360809,
            "type": "TP"
        },
        {
            "country_code": "BY",
            "city": "Minsk",
            "latitude": 53.8824996948,
            "longitude": 28.0307006836,
            "type": "FN"
        },
        {
            "country_code": "CY",
            "city": "Nicosia",
            "latitude": 35.1547012329,
            "longitude": 33.4961013794,
            "type": "OT"
        },
        {
            "country_code": "CZ",
            "city": "Pardubice",
            "latitude": 50.0134010315,
            "longitude": 15.7385997772,
            "type": "FP"
        },
        {
            "country_code": "CZ",
            "city": "Prague",
            "latitude": 50.1007995605,
            "longitude": 14.2600002289,
            "type": "TP"
        },
        {
            "country_code": "DE",
            "city": "Berlin",
            "latitude": 52.3800010681,
            "longitude": 13.5225000381,
            "type": "TP"
        },
        {
            "country_code": "DE",
            "city": "Cologne",
            "latitude": 50.8658981323,
            "longitude": 7.1427397728,
            "type": "TP"
        },
        {
            "country_code": "DE",
            "city": "D\u00fcsseldorf",
            "latitude": 51.2895011902,
            "longitude": 6.7667798996,
            "type": "FP"
        },
        {
            "country_code": "DE",
            "city": "Frankfurt-am-Main",
            "latitude": 50.0264015198,
            "longitude": 8.543129921,
            "type": "TP"
        },
        {
            "country_code": "DE",
            "city": "Friedrichshafen",
            "latitude": 47.6712989807,
            "longitude": 9.5114898682,
            "type": "TP"
        },
        {
            "country_code": "DE",
            "city": "Hamburg",
            "latitude": 53.5352783203,
            "longitude": 9.8355560303,
            "type": "TP"
        },
        {
            "country_code": "DE",
            "city": "Munich",
            "latitude": 48.3538017273,
            "longitude": 11.7861003876,
            "type": "TP"
        },
        {
            "country_code": "DE",
            "city": "Nuremberg",
            "latitude": 49.4986991882,
            "longitude": 11.0669002533,
            "type": "FP"
        },
        {
            "country_code": "DE",
            "city": "Stuttgart",
            "latitude": 48.6898994446,
            "longitude": 9.2219600677,
            "type": "FN"
        },
        {
            "country_code": "DK",
            "city": "Copenhagen",
            "latitude": 55.5856018066,
            "longitude": 12.1314001083,
            "type": "TP"
        },
        {
            "country_code": "EE",
            "city": "Tallinn",
            "latitude": 59.4132995605,
            "longitude": 24.8327999115,
            "type": "FN"
        },
        {
            "country_code": "ES",
            "city": "Barcelona",
            "latitude": 41.2971000671,
            "longitude": 2.0784599781,
            "type": "TP"
        },
        {
            "country_code": "ES",
            "city": "Madrid",
            "latitude": 40.4967002869,
            "longitude": -3.4458699226,
            "type": "TP"
        },
        {
            "country_code": "ES",
            "city": "Valencia",
            "latitude": 39.4892997742,
            "longitude": -0.4816249907,
            "type": "FP"
        },
        {
            "country_code": "ES",
            "city": "Valladolid",
            "latitude": 41.7061004639,
            "longitude": -4.851940155,
            "type": "FP"
        },
        {
            "country_code": "FI",
            "city": "Helsinki",
            "latitude": 60.1733244,
            "longitude": 24.9410248,
            "type": "TP"
        },
        {
            "country_code": "FR",
            "city": "Angers/Marc\u00e9",
            "latitude": 47.5602989197,
            "longitude": -0.3122220039,
            "type": "FP"
        },
        {
            "country_code": "FR",
            "city": "Lyon",
            "latitude": 45.726398468,
            "longitude": 5.0908298492,
            "type": "TP"
        },
        {
            "country_code": "FR",
            "city": "Marseille",
            "latitude": 43.439271922,
            "longitude": 5.2214241028,
            "type": "FN"
        },
        {
            "country_code": "FR",
            "city": "Paris",
            "latitude": 49.0127983093,
            "longitude": 2.5499999523,
            "type": "TP"
        },
        {
            "country_code": "GB",
            "city": "Birmingham",
            "latitude": 52.4538993835,
            "longitude": -1.7480299473,
            "type": "FP"
        },
        {
            "country_code": "GB",
            "city": "Edinburgh",
            "latitude": 55.9500007629,
            "longitude": -3.3724999428,
            "type": "FN"
        },
        {
            "country_code": "GB",
            "city": "London",
            "latitude": 51.8746986389,
            "longitude": -0.3683330119,
            "type": "TP"
        },
        {
            "country_code": "GB",
            "city": "London",
            "latitude": 51.5530014038,
            "longitude": -0.418166995,
            "type": "FP"
        },
        {
            "country_code": "GB",
            "city": "Manchester",
            "latitude": 53.3536987305,
            "longitude": -2.2749500275,
            "type": "FN"
        },
        {
            "country_code": "GR",
            "city": "Athens",
            "latitude": 37.9908372,
            "longitude": 23.7383394,
            "type": "TP"
        },
        {
            "country_code": "GR",
            "city": "Thessaloniki",
            "latitude": 40.5196990967,
            "longitude": 22.9708995819,
            "type": "FN"
        },
        {
            "country_code": "HU",
            "city": "Budapest",
            "latitude": 47.4369010925,
            "longitude": 19.2555999756,
            "type": "TP"
        },
        {
            "country_code": "IE",
            "city": "Cork",
            "latitude": 51.8413009644,
            "longitude": -8.491109848,
            "type": "TP"
        },
        {
            "country_code": "IE",
            "city": "Dublin",
            "latitude": 53.4212989807,
            "longitude": -6.270070076,
            "type": "TP"
        },
        {
            "country_code": "IQ",
            "city": "Mosul",
            "latitude": 36.3058013916,
            "longitude": 43.1473999023,
            "type": "OF"
        },
        {
            "country_code": "IS",
            "city": "Reykjav\u00edk",
            "latitude": 63.9850006104,
            "longitude": -22.6056003571,
            "type": "FN"
        },
        {
            "country_code": "IT",
            "city": "Bologna",
            "latitude": 44.5354003906,
            "longitude": 11.2887001038,
            "type": "FP"
        },
        {
            "country_code": "IT",
            "city": "Milan",
            "latitude": 45.6305999756,
            "longitude": 8.7281103134,
            "type": "TP"
        },
        {
            "country_code": "IT",
            "city": "Palermo",
            "latitude": 38.1759986877,
            "longitude": 13.0909996033,
            "type": "FN"
        },
        {
            "country_code": "IT",
            "city": "Rome",
            "latitude": 41.8045005798,
            "longitude": 12.2508001328,
            "type": "TP"
        },
        {
            "country_code": "KS",
            "city": "Prishtina",
            "latitude": 42.5727996826,
            "longitude": 21.0358009338,
            "type": "OF"
        },
        {
            "country_code": "LB",
            "city": "Beirut",
            "latitude": 33.8208999634,
            "longitude": 35.4883995056,
            "type": "OF"
        },
        {
            "country_code": "LT",
            "city": "Kaunas",
            "latitude": 54.9639015198,
            "longitude": 24.0848007202,
            "type": "TP"
        },
        {
            "country_code": "LU",
            "city": "Luxembourg City",
            "latitude": 49.6265983582,
            "longitude": 6.211520195,
            "type": "FN"
        },
        {
            "country_code": "LV",
            "city": "Riga",
            "latitude": 56.9235992432,
            "longitude": 23.9710998535,
            "type": "TP"
        },
        {
            "country_code": "LY",
            "city": "Tripoli",
            "latitude": 32.6635017395,
            "longitude": 13.1590003967,
            "type": "OF"
        },
        {
            "country_code": "MA",
            "city": "Tangier",
            "latitude": 35.7268981934,
            "longitude": -5.9168901444,
            "type": "OF"
        },
        {
            "country_code": "MD",
            "city": "Chi\u0219in\u0103u",
            "latitude": 46.9277000427,
            "longitude": 28.9309997559,
            "type": "FN"
        },
        {
            "country_code": "N/A",
            "city": "N/A",
            "latitude": 46.3085,
            "longitude": 16.3415,
            "type": "OT"
        },
        {
            "country_code": "N/A",
            "city": "N/A",
            "latitude": 46.8505,
            "longitude": 9.5285,
            "type": "OF"
        },
        {
            "country_code": "N/A",
            "city": "N/A",
            "latitude": 54.6615,
            "longitude": 39.6695,
            "type": "OF"
        },
        {
            "country_code": "NL",
            "city": "Amsterdam",
            "latitude": 52.3086013794,
            "longitude": 4.7638897896,
            "type": "TP"
        },
        {
            "country_code": "NO",
            "city": "Oslo",
            "latitude": 60.193901062,
            "longitude": 11.100399971,
            "type": "FN"
        },
        {
            "country_code": "PL",
            "city": "Warsaw",
            "latitude": 52.1656990051,
            "longitude": 20.9671001434,
            "type": "TP"
        },
        {
            "country_code": "PL",
            "city": "Wroc\u0142aw",
            "latitude": 51.1026992798,
            "longitude": 16.885799408,
            "type": "FP"
        },
        {
            "country_code": "PT",
            "city": "Lisbon",
            "latitude": 38.7812995911,
            "longitude": -9.1359195709,
            "type": "FN"
        },
        {
            "country_code": "RO",
            "city": "Bucharest",
            "latitude": 44.5722007751,
            "longitude": 26.1021995544,
            "type": "TP"
        },
        {
            "country_code": "RO",
            "city": "Craiova",
            "latitude": 44.3180999756,
            "longitude": 23.8885993958,
            "type": "FP"
        },
        {
            "country_code": "RS",
            "city": "Belgrade",
            "latitude": 44.8184013367,
            "longitude": 20.3090991974,
            "type": "FN"
        },
        {
            "country_code": "RU",
            "city": "Kaliningrad",
            "latitude": 54.8899993896,
            "longitude": 20.5925998688,
            "type": "FP"
        },
        {
            "country_code": "RU",
            "city": "Moscow",
            "latitude": 55.9725990295,
            "longitude": 37.4146003723,
            "type": "TP"
        },
        {
            "country_code": "RU",
            "city": "St Petersburg",
            "latitude": 59.8003005981,
            "longitude": 30.2625007629,
            "type": "TP"
        },
        {
            "country_code": "RU",
            "city": "Tver",
            "latitude": 56.8246994019,
            "longitude": 35.7577018738,
            "type": "FN"
        },
        {
            "country_code": "RU",
            "city": "Yekaterinburg",
            "latitude": 56.7430992126,
            "longitude": 60.8027000427,
            "type": "FN"
        },
        {
            "country_code": "SE",
            "city": "Gothenburg",
            "latitude": 57.7747001648,
            "longitude": 11.8704004288,
            "type": "TP"
        },
        {
            "country_code": "SE",
            "city": "Link\u00f6ping",
            "latitude": 58.4062004089,
            "longitude": 15.6805000305,
            "type": "FP"
        },
        {
            "country_code": "SE",
            "city": "Stockholm",
            "latitude": 59.6519012451,
            "longitude": 17.9186000824,
            "type": "TP"
        },
        {
            "country_code": "SE",
            "city": "S\u00f6derhamn",
            "latitude": 61.2615013123,
            "longitude": 17.0991001129,
            "type": "FP"
        },
        {
            "country_code": "SE",
            "city": "Ume\u00e5",
            "latitude": 63.7918014526,
            "longitude": 20.2828006744,
            "type": "FP"
        },
        {
            "country_code": "SI",
            "city": "Ljubljana",
            "latitude": 46.2237014771,
            "longitude": 14.4575996399,
            "type": "FP"
        },
        {
            "country_code": "SK",
            "city": "Bratislava",
            "latitude": 48.1702003479,
            "longitude": 17.2126998901,
            "type": "FN"
        },
        {
            "country_code": "TR",
            "city": "Istanbul",
            "latitude": 40.898601532,
            "longitude": 29.3092002869,
            "type": "OT"
        },
        {
            "country_code": "UA",
            "city": "Kharkiv",
            "latitude": 49.9248008728,
            "longitude": 36.2900009155,
            "type": "OF"
        },
        {
            "country_code": "UA",
            "city": "Kiev",
            "latitude": 50.6035003662,
            "longitude": 30.1919002533,
            "type": "OT"
        },
        {
            "country_code": "UA",
            "city": "Odessa",
            "latitude": 46.4267997742,
            "longitude": 30.6765003204,
            "type": "OF"
        }
    ]
}