[
    {
        "IATA_code": "AMS",
        "country_code": "NL",
        "city_name": "Amsterdam",
        "country_name": "Netherlands",
        "latitude": 52.3086013794,
        "longitude": 4.7638897896
    },
    {
        "IATA_code": "ABQ",
        "country_code": "US",
        "city_name": "Albuquerque",
        "country_name": "United States of America",
        "latitude": 35.0401992798,
        "longitude": -106.6090011597
    },
    {
        "IATA_code": "ACC",
        "country_code": "GH",
        "city_name": "Accra",
        "country_name": "Ghana",
        "latitude": 5.6051898003,
        "longitude": -0.1667860001
    },
    {
        "IATA_code": "ADB",
        "country_code": "TR",
        "city_name": "\u0130zmir",
        "country_name": "Turkey",
        "latitude": 38.2924003601,
        "longitude": 27.156999588
    },
    {
        "IATA_code": "ADL",
        "country_code": "AU",
        "city_name": "Adelaide",
        "country_name": "Australia",
        "latitude": -34.9449996948,
        "longitude": 138.5310058594
    },
    {
        "IATA_code": "AKL",
        "country_code": "NZ",
        "city_name": "Auckland",
        "country_name": "New Zealand",
        "latitude": -37.0080986023,
        "longitude": 174.792007446
    },
    {
        "IATA_code": "ALA",
        "country_code": "KZ",
        "city_name": "Almaty",
        "country_name": "Kazakhstan",
        "latitude": 43.3521003723,
        "longitude": 77.0404968262
    },
    {
        "IATA_code": "ALG",
        "country_code": "DZ",
        "city_name": "Algiers",
        "country_name": "Algeria",
        "latitude": 36.6910018921,
        "longitude": 3.2154099941
    },
    {
        "IATA_code": "AMD",
        "country_code": "IN",
        "city_name": "Ahmedabad",
        "country_name": "India",
        "latitude": 23.0771999359,
        "longitude": 72.6346969604
    },
    {
        "IATA_code": "AMM",
        "country_code": "JO",
        "city_name": "Amman",
        "country_name": "Jordan",
        "latitude": 31.7226009369,
        "longitude": 35.9931983948
    },
    {
        "IATA_code": "AMS",
        "country_code": "NL",
        "city_name": "Amsterdam",
        "country_name": "Netherlands",
        "latitude": 52.3086013794,
        "longitude": 4.7638897896
    },
    {
        "IATA_code": "ARI",
        "country_code": "CL",
        "city_name": "Arica",
        "country_name": "Chile",
        "latitude": -18.3484992981,
        "longitude": -70.3386993408
    },
    {
        "IATA_code": "ARN",
        "country_code": "SE",
        "city_name": "Stockholm",
        "country_name": "Sweden",
        "latitude": 59.6519012451,
        "longitude": 17.9186000824
    },
    {
        "IATA_code": "ASU",
        "country_code": "PY",
        "city_name": "Asunci\u00f3n",
        "country_name": "Paraguay",
        "latitude": -25.2399997711,
        "longitude": -57.5200004578
    },
    {
        "IATA_code": "ATH",
        "country_code": "GR",
        "city_name": "Athens",
        "country_name": "Greece",
        "latitude": 37.9364013672,
        "longitude": 23.9444999695
    },
    {
        "IATA_code": "ATL",
        "country_code": "US",
        "city_name": "Atlanta",
        "country_name": "United States of America",
        "latitude": 33.6366996765,
        "longitude": -84.4281005859
    },
    {
        "IATA_code": "AUS",
        "country_code": "US",
        "city_name": "Austin",
        "country_name": "United States of America",
        "latitude": 30.1944999695,
        "longitude": -97.6698989868
    },
    {
        "IATA_code": "BAH",
        "country_code": "BH",
        "city_name": "Manama",
        "country_name": "Bahrain",
        "latitude": 26.2707996368,
        "longitude": 50.6335983276
    },
    {
        "IATA_code": "BBI",
        "country_code": "IN",
        "city_name": "Bhubaneswar",
        "country_name": "India",
        "latitude": 20.2444000244,
        "longitude": 85.8178024292
    },
    {
        "IATA_code": "BCN",
        "country_code": "ES",
        "city_name": "Barcelona",
        "country_name": "Spain",
        "latitude": 41.2971000671,
        "longitude": 2.0784599781
    },
    {
        "IATA_code": "BEG",
        "country_code": "RS",
        "city_name": "Belgrade",
        "country_name": "Serbia",
        "latitude": 44.8184013367,
        "longitude": 20.3090991974
    },
    {
        "IATA_code": "BEL",
        "country_code": "BR",
        "city_name": "Bel\u00e9m",
        "country_name": "Brazil",
        "latitude": -1.3792500496,
        "longitude": -48.4762992859
    },
    {
        "IATA_code": "BEY",
        "country_code": "LB",
        "city_name": "Beirut",
        "country_name": "Lebanon",
        "latitude": 33.8208999634,
        "longitude": 35.4883995056
    },
    {
        "IATA_code": "BGR",
        "country_code": "US",
        "city_name": "Bangor",
        "country_name": "United States of America",
        "latitude": 44.8073997498,
        "longitude": -68.8281021118
    },
    {
        "IATA_code": "BGW",
        "country_code": "IQ",
        "city_name": "Baghdad",
        "country_name": "Iraq",
        "latitude": 33.2625007629,
        "longitude": 44.2346000671
    },
    {
        "IATA_code": "BKK",
        "country_code": "TH",
        "city_name": "Bangkok",
        "country_name": "Thailand",
        "latitude": 13.6810998917,
        "longitude": 100.7470016479
    },
    {
        "IATA_code": "BLR",
        "country_code": "IN",
        "city_name": "Bangalore",
        "country_name": "India",
        "latitude": 13.1978998184,
        "longitude": 77.7062988281
    },
    {
        "IATA_code": "BNA",
        "country_code": "US",
        "city_name": "Nashville",
        "country_name": "United States of America",
        "latitude": 36.1245002747,
        "longitude": -86.6781997681
    },
    {
        "IATA_code": "BNE",
        "country_code": "AU",
        "city_name": "Brisbane",
        "country_name": "Australia",
        "latitude": -27.3841991425,
        "longitude": 153.1170043945
    },
    {
        "IATA_code": "BOG",
        "country_code": "CO",
        "city_name": "Bogota",
        "country_name": "Colombia",
        "latitude": 4.70159,
        "longitude": -74.1469
    },
    {
        "IATA_code": "BOM",
        "country_code": "IN",
        "city_name": "Mumbai",
        "country_name": "India",
        "latitude": 19.0886993408,
        "longitude": 72.8678970337
    },
    {
        "IATA_code": "BOS",
        "country_code": "US",
        "city_name": "Boston",
        "country_name": "United States of America",
        "latitude": 42.36429977,
        "longitude": -71.00520325
    },
    {
        "IATA_code": "BRU",
        "country_code": "BE",
        "city_name": "Brussels",
        "country_name": "Belgium",
        "latitude": 50.9014015198,
        "longitude": 4.4844398499
    },
    {
        "IATA_code": "BSB",
        "country_code": "BR",
        "city_name": "Bras\u00edlia",
        "country_name": "Brazil",
        "latitude": -15.8691673279,
        "longitude": -47.9208335876
    },
    {
        "IATA_code": "BSR",
        "country_code": "IQ",
        "city_name": "Basrah",
        "country_name": "Iraq",
        "latitude": 30.5491008759,
        "longitude": 47.6621017456
    },
    {
        "IATA_code": "BTS",
        "country_code": "SK",
        "city_name": "Bratislava",
        "country_name": "Slovakia",
        "latitude": 48.1702003479,
        "longitude": 17.2126998901
    },
    {
        "IATA_code": "BUD",
        "country_code": "HU",
        "city_name": "Budapest",
        "country_name": "Hungary",
        "latitude": 47.4369010925,
        "longitude": 19.2555999756
    },
    {
        "IATA_code": "BUF",
        "country_code": "US",
        "city_name": "Buffalo",
        "country_name": "United States of America",
        "latitude": 42.94049835,
        "longitude": -78.73220062
    },
    {
        "IATA_code": "BWN",
        "country_code": "BN",
        "city_name": "Bandar Seri Begawan",
        "country_name": "Brunei Darussalam",
        "latitude": 4.9442000389,
        "longitude": 114.9280014038
    },
    {
        "IATA_code": "CAN",
        "country_code": "CN",
        "city_name": "Guangzhou",
        "country_name": "China",
        "latitude": 23.3924007416,
        "longitude": 113.2990036011
    },
    {
        "IATA_code": "CBR",
        "country_code": "AU",
        "city_name": "Canberra",
        "country_name": "Australia",
        "latitude": -35.3069000244,
        "longitude": 149.1950073242
    },
    {
        "IATA_code": "CCP",
        "country_code": "CL",
        "city_name": "Concepcion",
        "country_name": "Chile",
        "latitude": -36.7727012634,
        "longitude": -73.0631027222
    },
    {
        "IATA_code": "CCU",
        "country_code": "IN",
        "city_name": "Kolkata",
        "country_name": "India",
        "latitude": 22.6546993256,
        "longitude": 88.4467010498
    },
    {
        "IATA_code": "CDG",
        "country_code": "FR",
        "city_name": "Paris",
        "country_name": "France",
        "latitude": 49.0127983093,
        "longitude": 2.5499999523
    },
    {
        "IATA_code": "CEB",
        "country_code": "PH",
        "city_name": "Lapu-Lapu City",
        "country_name": "Philippines",
        "latitude": 10.3074998856,
        "longitude": 123.9789962769
    },
    {
        "IATA_code": "CGB",
        "country_code": "BR",
        "city_name": "Cuiab\u00e1",
        "country_name": "Brazil",
        "latitude": -15.6528997421,
        "longitude": -56.1166992188
    },
    {
        "IATA_code": "CGD",
        "country_code": "CN",
        "city_name": "Changde",
        "country_name": "China",
        "latitude": 28.9188995361,
        "longitude": 111.63999939
    },
    {
        "IATA_code": "CGK",
        "country_code": "ID",
        "city_name": "Jakarta",
        "country_name": "Indonesia",
        "latitude": -6.1255698204,
        "longitude": 106.65599823
    },
    {
        "IATA_code": "CGO",
        "country_code": "CN",
        "city_name": "Zhengzhou",
        "country_name": "China",
        "latitude": 34.5196990967,
        "longitude": 113.841003418
    },
    {
        "IATA_code": "CGP",
        "country_code": "BD",
        "city_name": "Chittagong",
        "country_name": "Bangladesh",
        "latitude": 22.2495994568,
        "longitude": 91.8133010864
    },
    {
        "IATA_code": "CGQ",
        "country_code": "CN",
        "city_name": "Changchun",
        "country_name": "China",
        "latitude": 43.9962005615,
        "longitude": 125.684997559
    },
    {
        "IATA_code": "CGY",
        "country_code": "PH",
        "city_name": "Cagayan de Oro City",
        "country_name": "Philippines",
        "latitude": 8.612203,
        "longitude": 124.456496
    },
    {
        "IATA_code": "CHC",
        "country_code": "NZ",
        "city_name": "Christchurch",
        "country_name": "New Zealand",
        "latitude": -43.4893989563,
        "longitude": 172.5319976807
    },
    {
        "IATA_code": "CLT",
        "country_code": "US",
        "city_name": "Charlotte",
        "country_name": "United States of America",
        "latitude": 35.2140007019,
        "longitude": -80.9430999756
    },
    {
        "IATA_code": "CMB",
        "country_code": "LK",
        "city_name": "Colombo",
        "country_name": "Sri Lanka",
        "latitude": 7.1807599068,
        "longitude": 79.8841018677
    },
    {
        "IATA_code": "CMH",
        "country_code": "US",
        "city_name": "Columbus",
        "country_name": "United States of America",
        "latitude": 39.9980010986,
        "longitude": -82.8918991089
    },
    {
        "IATA_code": "CMN",
        "country_code": "MA",
        "city_name": "Casablanca",
        "country_name": "Morocco",
        "latitude": 33.3675003052,
        "longitude": -7.5899701118
    },
    {
        "IATA_code": "CNF",
        "country_code": "BR",
        "city_name": "Belo Horizonte",
        "country_name": "Brazil",
        "latitude": -19.6244430542,
        "longitude": -43.9719429016
    },
    {
        "IATA_code": "CNX",
        "country_code": "TH",
        "city_name": "Chiang Mai",
        "country_name": "Thailand",
        "latitude": 18.7667999268,
        "longitude": 98.962600708
    },
    {
        "IATA_code": "COK",
        "country_code": "IN",
        "city_name": "Cochin",
        "country_name": "India",
        "latitude": 10.1520004272,
        "longitude": 76.4019012451
    },
    {
        "IATA_code": "COR",
        "country_code": "AR",
        "city_name": "Cordoba",
        "country_name": "Argentina",
        "latitude": -31.323600769,
        "longitude": -64.2080001831
    },
    {
        "IATA_code": "CPH",
        "country_code": "DK",
        "city_name": "Copenhagen",
        "country_name": "Denmark",
        "latitude": 55.6179008484,
        "longitude": 12.6560001373
    },
    {
        "IATA_code": "CPT",
        "country_code": "ZA",
        "city_name": "Cape Town",
        "country_name": "South Africa",
        "latitude": -33.9648017883,
        "longitude": 18.6016998291
    },
    {
        "IATA_code": "CSX",
        "country_code": "CN",
        "city_name": "Changsha",
        "country_name": "China",
        "latitude": 28.1891994476,
        "longitude": 113.220001221
    },
    {
        "IATA_code": "CUR",
        "country_code": "CW",
        "city_name": "Willemstad",
        "country_name": "Cura\u00e7ao",
        "latitude": 12.1888999939,
        "longitude": -68.9598007202
    },
    {
        "IATA_code": "CWB",
        "country_code": "BR",
        "city_name": "Curitiba",
        "country_name": "Brazil",
        "latitude": -25.5284996033,
        "longitude": -49.1758003235
    },
    {
        "IATA_code": "DAC",
        "country_code": "BD",
        "city_name": "Dhaka",
        "country_name": "Bangladesh",
        "latitude": 23.843347,
        "longitude": 90.397783
    },
    {
        "IATA_code": "DAR",
        "country_code": "TZ",
        "city_name": "Dar es Salaam",
        "country_name": "Tanzania, United Republic of",
        "latitude": -6.8780555556,
        "longitude": 39.2033333333
    },
    {
        "IATA_code": "DEL",
        "country_code": "IN",
        "city_name": "New Delhi",
        "country_name": "India",
        "latitude": 28.5664997101,
        "longitude": 77.1031036377
    },
    {
        "IATA_code": "DEN",
        "country_code": "US",
        "city_name": "Denver",
        "country_name": "United States of America",
        "latitude": 39.8616981506,
        "longitude": -104.672996521
    },
    {
        "IATA_code": "DFW",
        "country_code": "US",
        "city_name": "Dallas-Fort Worth",
        "country_name": "United States of America",
        "latitude": 32.8968009949,
        "longitude": -97.0380020142
    },
    {
        "IATA_code": "DKR",
        "country_code": "SN",
        "city_name": "Dakar",
        "country_name": "Senegal",
        "latitude": 14.7397003174,
        "longitude": -17.4902000427
    },
    {
        "IATA_code": "DME",
        "country_code": "RU",
        "city_name": "Moscow",
        "country_name": "Russian Federation",
        "latitude": 55.4087982178,
        "longitude": 37.9062995911
    },
    {
        "IATA_code": "DMM",
        "country_code": "SA",
        "city_name": "Ad Dammam",
        "country_name": "Saudi Arabia",
        "latitude": 26.471200943,
        "longitude": 49.7979011536
    },
    {
        "IATA_code": "DOH",
        "country_code": "QA",
        "city_name": "Doha",
        "country_name": "Qatar",
        "latitude": 25.261100769,
        "longitude": 51.5651016235
    },
    {
        "IATA_code": "DPS",
        "country_code": "ID",
        "city_name": "Denpasar Bali",
        "country_name": "Indonesia",
        "latitude": -8.748169899,
        "longitude": 115.1669998169
    },
    {
        "IATA_code": "DTW",
        "country_code": "US",
        "city_name": "Detroit",
        "country_name": "United States of America",
        "latitude": 42.2123985291,
        "longitude": -83.3534011841
    },
    {
        "IATA_code": "DUB",
        "country_code": "IE",
        "city_name": "Dublin",
        "country_name": "Ireland",
        "latitude": 53.4212989807,
        "longitude": -6.270070076
    },
    {
        "IATA_code": "DUR",
        "country_code": "ZA",
        "city_name": "Durban",
        "country_name": "South Africa",
        "latitude": -29.6144444444,
        "longitude": 31.1197222222
    },
    {
        "IATA_code": "DUS",
        "country_code": "DE",
        "city_name": "D\u00fcsseldorf",
        "country_name": "Germany",
        "latitude": 51.2895011902,
        "longitude": 6.7667798996
    },
    {
        "IATA_code": "DXB",
        "country_code": "AE",
        "city_name": "Dubai",
        "country_name": "United Arab Emirates",
        "latitude": 25.2527999878,
        "longitude": 55.3643989563
    },
    {
        "IATA_code": "EBL",
        "country_code": "IQ",
        "city_name": "Arbil",
        "country_name": "Iraq",
        "latitude": 36.2375984192,
        "longitude": 43.9631996155
    },
    {
        "IATA_code": "EDI",
        "country_code": "GB",
        "city_name": "Edinburgh",
        "country_name": "United Kingdom of Great Britain and Northern Ireland",
        "latitude": 55.9500007629,
        "longitude": -3.3724999428
    },
    {
        "IATA_code": "EVN",
        "country_code": "AM",
        "city_name": "Yerevan",
        "country_name": "Armenia",
        "latitude": 40.1473007202,
        "longitude": 44.3959007263
    },
    {
        "IATA_code": "EWR",
        "country_code": "US",
        "city_name": "Newark",
        "country_name": "United States of America",
        "latitude": 40.6925010681,
        "longitude": -74.1687011719
    },
    {
        "IATA_code": "EZE",
        "country_code": "AR",
        "city_name": "Buenos Aires",
        "country_name": "Argentina",
        "latitude": -34.8222,
        "longitude": -58.5358
    },
    {
        "IATA_code": "FCO",
        "country_code": "IT",
        "city_name": "Rome",
        "country_name": "Italy",
        "latitude": 41.8045005798,
        "longitude": 12.2508001328
    },
    {
        "IATA_code": "FIH",
        "country_code": "CD",
        "city_name": "Kinshasa",
        "country_name": "Congo, Democratic Republic of the",
        "latitude": -4.3857498169,
        "longitude": 15.4446001053
    },
    {
        "IATA_code": "FLN",
        "country_code": "BR",
        "city_name": "Florian\u00f3polis",
        "country_name": "Brazil",
        "latitude": -27.6702785492,
        "longitude": -48.5525016785
    },
    {
        "IATA_code": "FOC",
        "country_code": "CN",
        "city_name": "Fuzhou",
        "country_name": "China",
        "latitude": 25.9351005554,
        "longitude": 119.6630020142
    },
    {
        "IATA_code": "FOR",
        "country_code": "BR",
        "city_name": "Fortaleza",
        "country_name": "Brazil",
        "latitude": -3.7762799263,
        "longitude": -38.5326004028
    },
    {
        "IATA_code": "FRA",
        "country_code": "DE",
        "city_name": "Frankfurt-am-Main",
        "country_name": "Germany",
        "latitude": 50.0264015198,
        "longitude": 8.543129921
    },
    {
        "IATA_code": "FSD",
        "country_code": "US",
        "city_name": "Sioux Falls",
        "country_name": "United States of America",
        "latitude": 43.5820007324,
        "longitude": -96.741897583
    },
    {
        "IATA_code": "FUK",
        "country_code": "JP",
        "city_name": "Fukuoka",
        "country_name": "Japan",
        "latitude": 33.585899353,
        "longitude": 130.4510040283
    },
    {
        "IATA_code": "FUO",
        "country_code": "CN",
        "city_name": "Foshan",
        "country_name": "China",
        "latitude": 23.0832996368,
        "longitude": 113.069999695
    },
    {
        "IATA_code": "GBE",
        "country_code": "BW",
        "city_name": "Gaborone",
        "country_name": "Botswana",
        "latitude": -24.5552005768,
        "longitude": 25.9181995392
    },
    {
        "IATA_code": "GDL",
        "country_code": "MX",
        "city_name": "Guadalajara",
        "country_name": "Mexico",
        "latitude": 20.5217990875,
        "longitude": -103.3109970093
    },
    {
        "IATA_code": "GEO",
        "country_code": "GY",
        "city_name": "Georgetown",
        "country_name": "Guyana",
        "latitude": 6.4985499382,
        "longitude": -58.2541007996
    },
    {
        "IATA_code": "GIG",
        "country_code": "BR",
        "city_name": "Rio De Janeiro",
        "country_name": "Brazil",
        "latitude": -22.8099994659,
        "longitude": -43.2505569458
    },
    {
        "IATA_code": "GND",
        "country_code": "GD",
        "city_name": "Saint George's",
        "country_name": "Grenada",
        "latitude": 12.0041999817,
        "longitude": -61.7862014771
    },
    {
        "IATA_code": "GOT",
        "country_code": "SE",
        "city_name": "Gothenburg",
        "country_name": "Sweden",
        "latitude": 57.6627998352,
        "longitude": 12.279800415
    },
    {
        "IATA_code": "GUA",
        "country_code": "GT",
        "city_name": "Guatemala City",
        "country_name": "Guatemala",
        "latitude": 14.5832996368,
        "longitude": -90.5274963379
    },
    {
        "IATA_code": "GUM",
        "country_code": "GU",
        "city_name": "Hag\u00e5t\u00f1a",
        "country_name": "Guam",
        "latitude": 13.4834003448,
        "longitude": 144.796005249
    },
    {
        "IATA_code": "GVA",
        "country_code": "CH",
        "city_name": "Geneva",
        "country_name": "Switzerland",
        "latitude": 46.2380981445,
        "longitude": 6.1089501381
    },
    {
        "IATA_code": "GYD",
        "country_code": "AZ",
        "city_name": "Baku",
        "country_name": "Azerbaijan",
        "latitude": 40.4674987793,
        "longitude": 50.0466995239
    },
    {
        "IATA_code": "GYE",
        "country_code": "EC",
        "city_name": "Guayaquil",
        "country_name": "Ecuador",
        "latitude": -2.15741992,
        "longitude": -79.8835983276
    },
    {
        "IATA_code": "GYN",
        "country_code": "BR",
        "city_name": "Goi\u00e2nia",
        "country_name": "Brazil",
        "latitude": -16.6319999695,
        "longitude": -49.2206993103
    },
    {
        "IATA_code": "HAK",
        "country_code": "CN",
        "city_name": "Haikou",
        "country_name": "China",
        "latitude": 19.9349002838,
        "longitude": 110.4589996338
    },
    {
        "IATA_code": "HAM",
        "country_code": "DE",
        "city_name": "Hamburg",
        "country_name": "Germany",
        "latitude": 53.6304016113,
        "longitude": 9.9882297516
    },
    {
        "IATA_code": "HAN",
        "country_code": "VN",
        "city_name": "Hanoi",
        "country_name": "Viet Nam",
        "latitude": 21.221200943,
        "longitude": 105.8069992065
    },
    {
        "IATA_code": "HBA",
        "country_code": "AU",
        "city_name": "Hobart",
        "country_name": "Australia",
        "latitude": -42.836101532,
        "longitude": 147.509994507
    },
    {
        "IATA_code": "HEL",
        "country_code": "FI",
        "city_name": "Helsinki",
        "country_name": "Finland",
        "latitude": 60.317199707,
        "longitude": 24.963300705
    },
    {
        "IATA_code": "HFA",
        "country_code": "IL",
        "city_name": "Haifa",
        "country_name": "Israel",
        "latitude": 32.8093986511,
        "longitude": 35.0430984497
    },
    {
        "IATA_code": "HKG",
        "country_code": "HK",
        "city_name": "Hong Kong",
        "country_name": "Hong Kong",
        "latitude": 22.308889,
        "longitude": 113.914722
    },
    {
        "IATA_code": "HNL",
        "country_code": "US",
        "city_name": "Honolulu",
        "country_name": "United States of America",
        "latitude": 21.3187007904,
        "longitude": -157.9219970703
    },
    {
        "IATA_code": "HRE",
        "country_code": "ZW",
        "city_name": "Harare",
        "country_name": "Zimbabwe",
        "latitude": -17.9318008423,
        "longitude": 31.0928001404
    },
    {
        "IATA_code": "HYD",
        "country_code": "IN",
        "city_name": "Hyderabad",
        "country_name": "India",
        "latitude": 17.2313175201,
        "longitude": 78.4298553467
    },
    {
        "IATA_code": "HYN",
        "country_code": "CN",
        "city_name": "Huangyan",
        "country_name": "China",
        "latitude": 28.5622005463,
        "longitude": 121.4290008545
    },
    {
        "IATA_code": "IAD",
        "country_code": "US",
        "city_name": "Washington",
        "country_name": "United States of America",
        "latitude": 38.94449997,
        "longitude": -77.45580292
    },
    {
        "IATA_code": "IAH",
        "country_code": "US",
        "city_name": "Houston",
        "country_name": "United States of America",
        "latitude": 29.9843997955,
        "longitude": -95.3414001465
    },
    {
        "IATA_code": "ICN",
        "country_code": "KR",
        "city_name": "Seoul",
        "country_name": "Korea, Republic of",
        "latitude": 37.4691009521,
        "longitude": 126.4509963989
    },
    {
        "IATA_code": "IND",
        "country_code": "US",
        "city_name": "Indianapolis",
        "country_name": "United States of America",
        "latitude": 39.717300415,
        "longitude": -86.2944030762
    },
    {
        "IATA_code": "ISB",
        "country_code": "PK",
        "city_name": "Islamabad",
        "country_name": "Pakistan",
        "latitude": 33.6166992188,
        "longitude": 73.0991973877
    },
    {
        "IATA_code": "IST",
        "country_code": "TR",
        "city_name": "Istanbul",
        "country_name": "Turkey",
        "latitude": 40.9768981934,
        "longitude": 28.8145999908
    },
    {
        "IATA_code": "ISU",
        "country_code": "IQ",
        "city_name": "Sulaymaniyah",
        "country_name": "Iraq",
        "latitude": 35.5617485046,
        "longitude": 45.3167381287
    },
    {
        "IATA_code": "IXC",
        "country_code": "IN",
        "city_name": "Chandigarh",
        "country_name": "India",
        "latitude": 30.673500061,
        "longitude": 76.7884979248
    },
    {
        "IATA_code": "JAX",
        "country_code": "US",
        "city_name": "Jacksonville",
        "country_name": "United States of America",
        "latitude": 30.4941005707,
        "longitude": -81.6878967285
    },
    {
        "IATA_code": "JED",
        "country_code": "SA",
        "city_name": "Jeddah",
        "country_name": "Saudi Arabia",
        "latitude": 21.679599762,
        "longitude": 39.15650177
    },
    {
        "IATA_code": "JHB",
        "country_code": "MY",
        "city_name": "Senai",
        "country_name": "Malaysia",
        "latitude": 1.6413099766,
        "longitude": 103.6699981689
    },
    {
        "IATA_code": "JNB",
        "country_code": "ZA",
        "city_name": "Johannesburg",
        "country_name": "South Africa",
        "latitude": -26.1392002106,
        "longitude": 28.2460002899
    },
    {
        "IATA_code": "JOI",
        "country_code": "BR",
        "city_name": "Joinville",
        "country_name": "Brazil",
        "latitude": -26.2245006561,
        "longitude": -48.7974014282
    },
    {
        "IATA_code": "KBP",
        "country_code": "UA",
        "city_name": "Kiev",
        "country_name": "Ukraine",
        "latitude": 50.3450012207,
        "longitude": 30.8946990967
    },
    {
        "IATA_code": "KEF",
        "country_code": "IS",
        "city_name": "Reykjav\u00edk",
        "country_name": "Iceland",
        "latitude": 63.9850006104,
        "longitude": -22.6056003571
    },
    {
        "IATA_code": "KGL",
        "country_code": "RW",
        "city_name": "Kigali",
        "country_name": "Rwanda",
        "latitude": -1.9686299563,
        "longitude": 30.1394996643
    },
    {
        "IATA_code": "KHH",
        "country_code": "TW",
        "city_name": "Kaohsiung City",
        "country_name": "Taiwan, Province of China",
        "latitude": 22.5771007538,
        "longitude": 120.3499984741
    },
    {
        "IATA_code": "KHI",
        "country_code": "PK",
        "city_name": "Karachi",
        "country_name": "Pakistan",
        "latitude": 24.9064998627,
        "longitude": 67.1607971191
    },
    {
        "IATA_code": "KHN",
        "country_code": "CN",
        "city_name": "Nanchang",
        "country_name": "China",
        "latitude": 28.8649997711,
        "longitude": 115.9000015259
    },
    {
        "IATA_code": "KHV",
        "country_code": "RU",
        "city_name": "Khabarovsk",
        "country_name": "Russian Federation",
        "latitude": 48.5279998779,
        "longitude": 135.18800354
    },
    {
        "IATA_code": "KIN",
        "country_code": "JM",
        "city_name": "Kingston",
        "country_name": "Jamaica",
        "latitude": 17.9356994629,
        "longitude": -76.7874984741
    },
    {
        "IATA_code": "KIV",
        "country_code": "MD",
        "city_name": "Chi\u015fin\u0103u",
        "country_name": "Moldova, Republic of",
        "latitude": 46.9277000427,
        "longitude": 28.9309997559
    },
    {
        "IATA_code": "KIX",
        "country_code": "JP",
        "city_name": "Osaka",
        "country_name": "Japan",
        "latitude": 34.4272994995,
        "longitude": 135.2440032959
    },
    {
        "IATA_code": "KJA",
        "country_code": "RU",
        "city_name": "Krasnoyarsk",
        "country_name": "Russian Federation",
        "latitude": 56.1729011536,
        "longitude": 92.4933013916
    },
    {
        "IATA_code": "KLD",
        "country_code": "RU",
        "city_name": "Tver",
        "country_name": "Russian Federation",
        "latitude": 56.8246994019,
        "longitude": 35.7577018738
    },
    {
        "IATA_code": "KTM",
        "country_code": "NP",
        "city_name": "Kathmandu",
        "country_name": "Nepal",
        "latitude": 27.6965999603,
        "longitude": 85.3591003418
    },
    {
        "IATA_code": "KUL",
        "country_code": "MY",
        "city_name": "Kuala Lumpur",
        "country_name": "Malaysia",
        "latitude": 2.745579958,
        "longitude": 101.7099990845
    },
    {
        "IATA_code": "KWI",
        "country_code": "KW",
        "city_name": "Kuwait City",
        "country_name": "Kuwait",
        "latitude": 29.226600647,
        "longitude": 47.9688987732
    },
    {
        "IATA_code": "LAD",
        "country_code": "AO",
        "city_name": "Luanda",
        "country_name": "Angola",
        "latitude": -8.8583698273,
        "longitude": 13.2312002182
    },
    {
        "IATA_code": "LAS",
        "country_code": "US",
        "city_name": "Las Vegas",
        "country_name": "United States of America",
        "latitude": 36.08010101,
        "longitude": -115.1520004
    },
    {
        "IATA_code": "LAX",
        "country_code": "US",
        "city_name": "Los Angeles",
        "country_name": "United States of America",
        "latitude": 33.94250107,
        "longitude": -118.4079971
    },
    {
        "IATA_code": "LCA",
        "country_code": "CY",
        "city_name": "Larnaca",
        "country_name": "Cyprus",
        "latitude": 34.8750991821,
        "longitude": 33.6249008179
    },
    {
        "IATA_code": "LED",
        "country_code": "RU",
        "city_name": "St Petersburg",
        "country_name": "Russian Federation",
        "latitude": 59.8003005981,
        "longitude": 30.2625007629
    },
    {
        "IATA_code": "LHE",
        "country_code": "PK",
        "city_name": "Lahore",
        "country_name": "Pakistan",
        "latitude": 31.5216007233,
        "longitude": 74.4036026001
    },
    {
        "IATA_code": "LHR",
        "country_code": "GB",
        "city_name": "London",
        "country_name": "United Kingdom of Great Britain and Northern Ireland",
        "latitude": 51.4706001282,
        "longitude": -0.4619410038
    },
    {
        "IATA_code": "LHW",
        "country_code": "CN",
        "city_name": "Lanzhou",
        "country_name": "China",
        "latitude": 36.5152015686,
        "longitude": 103.620002747
    },
    {
        "IATA_code": "LIM",
        "country_code": "PE",
        "city_name": "Lima",
        "country_name": "Peru",
        "latitude": -12.021900177,
        "longitude": -77.1143035889
    },
    {
        "IATA_code": "LIS",
        "country_code": "PT",
        "city_name": "Lisbon",
        "country_name": "Portugal",
        "latitude": 38.7812995911,
        "longitude": -9.1359195709
    },
    {
        "IATA_code": "LOS",
        "country_code": "NG",
        "city_name": "Lagos",
        "country_name": "Nigeria",
        "latitude": 6.5773701668,
        "longitude": 3.321160078
    },
    {
        "IATA_code": "LUX",
        "country_code": "LU",
        "city_name": "Luxembourg",
        "country_name": "Luxembourg",
        "latitude": 49.6265983582,
        "longitude": 6.211520195
    },
    {
        "IATA_code": "LYS",
        "country_code": "FR",
        "city_name": "Lyon",
        "country_name": "France",
        "latitude": 45.726398468,
        "longitude": 5.0908298492
    },
    {
        "IATA_code": "MAA",
        "country_code": "IN",
        "city_name": "Chennai",
        "country_name": "India",
        "latitude": 12.9900054932,
        "longitude": 80.1692962646
    },
    {
        "IATA_code": "MAD",
        "country_code": "ES",
        "city_name": "Madrid",
        "country_name": "Spain",
        "latitude": 40.4936,
        "longitude": -3.56676
    },
    {
        "IATA_code": "MAN",
        "country_code": "GB",
        "city_name": "Manchester",
        "country_name": "United Kingdom of Great Britain and Northern Ireland",
        "latitude": 53.3536987305,
        "longitude": -2.2749500275
    },
    {
        "IATA_code": "MAO",
        "country_code": "BR",
        "city_name": "Manaus",
        "country_name": "Brazil",
        "latitude": -3.0386099815,
        "longitude": -60.0497016907
    },
    {
        "IATA_code": "MBA",
        "country_code": "KE",
        "city_name": "Mombasa",
        "country_name": "Kenya",
        "latitude": -4.0348300934,
        "longitude": 39.5942001343
    },
    {
        "IATA_code": "MCI",
        "country_code": "US",
        "city_name": "Kansas City",
        "country_name": "United States of America",
        "latitude": 39.2975997925,
        "longitude": -94.7138977051
    },
    {
        "IATA_code": "MCT",
        "country_code": "OM",
        "city_name": "Muscat",
        "country_name": "Oman",
        "latitude": 23.5932998657,
        "longitude": 58.2844009399
    },
    {
        "IATA_code": "MDE",
        "country_code": "CO",
        "city_name": "Rionegro",
        "country_name": "Colombia",
        "latitude": 6.16454,
        "longitude": -75.4231
    },
    {
        "IATA_code": "MDL",
        "country_code": "MM",
        "city_name": "Mandalay",
        "country_name": "Myanmar",
        "latitude": 21.7021999359,
        "longitude": 95.977897644
    },
    {
        "IATA_code": "MEL",
        "country_code": "AU",
        "city_name": "Melbourne",
        "country_name": "Australia",
        "latitude": -37.6733016968,
        "longitude": 144.8430023193
    },
    {
        "IATA_code": "MEM",
        "country_code": "US",
        "city_name": "Memphis",
        "country_name": "United States of America",
        "latitude": 35.0424003601,
        "longitude": -89.9766998291
    },
    {
        "IATA_code": "MEX",
        "country_code": "MX",
        "city_name": "Mexico City",
        "country_name": "Mexico",
        "latitude": 19.4363002777,
        "longitude": -99.0720977783
    },
    {
        "IATA_code": "MFM",
        "country_code": "MO",
        "city_name": "Macau",
        "country_name": "Macao",
        "latitude": 22.1495990753,
        "longitude": 113.5920028687
    },
    {
        "IATA_code": "MGM",
        "country_code": "US",
        "city_name": "Montgomery",
        "country_name": "United States of America",
        "latitude": 32.30059814,
        "longitude": -86.39399719
    },
    {
        "IATA_code": "MIA",
        "country_code": "US",
        "city_name": "Miami",
        "country_name": "United States of America",
        "latitude": 25.7931995392,
        "longitude": -80.2906036377
    },
    {
        "IATA_code": "MLE",
        "country_code": "MV",
        "city_name": "Mal\u00e9",
        "country_name": "Maldives",
        "latitude": 4.1918301582,
        "longitude": 73.5290985107
    },
    {
        "IATA_code": "MNL",
        "country_code": "PH",
        "city_name": "Manila",
        "country_name": "Philippines",
        "latitude": 14.508600235,
        "longitude": 121.019996643
    },
    {
        "IATA_code": "MPM",
        "country_code": "MZ",
        "city_name": "Maputo",
        "country_name": "Mozambique",
        "latitude": -25.9207992554,
        "longitude": 32.5726013184
    },
    {
        "IATA_code": "MRS",
        "country_code": "FR",
        "city_name": "Marseille",
        "country_name": "France",
        "latitude": 43.439271922,
        "longitude": 5.2214241028
    },
    {
        "IATA_code": "MRU",
        "country_code": "MU",
        "city_name": "Port Louis",
        "country_name": "Mauritius",
        "latitude": -20.4302005768,
        "longitude": 57.6836013794
    },
    {
        "IATA_code": "MSP",
        "country_code": "US",
        "city_name": "Minneapolis",
        "country_name": "United States of America",
        "latitude": 44.8819999695,
        "longitude": -93.2218017578
    },
    {
        "IATA_code": "MSQ",
        "country_code": "BY",
        "city_name": "Minsk",
        "country_name": "Belarus",
        "latitude": 53.8824996948,
        "longitude": 28.0307006836
    },
    {
        "IATA_code": "MUC",
        "country_code": "DE",
        "city_name": "Munich",
        "country_name": "Germany",
        "latitude": 48.3538017273,
        "longitude": 11.7861003876
    },
    {
        "IATA_code": "MXP",
        "country_code": "IT",
        "city_name": "Milan",
        "country_name": "Italy",
        "latitude": 45.6305999756,
        "longitude": 8.7281103134
    },
    {
        "IATA_code": "NBO",
        "country_code": "KE",
        "city_name": "Nairobi",
        "country_name": "Kenya",
        "latitude": -1.319239974,
        "longitude": 36.9277992249
    },
    {
        "IATA_code": "NOU",
        "country_code": "NC",
        "city_name": "Noum\u00e9a",
        "country_name": "New Caledonia",
        "latitude": -22.0146007538,
        "longitude": 166.2129974365
    },
    {
        "IATA_code": "NQN",
        "country_code": "AR",
        "city_name": "Neuquen",
        "country_name": "Argentina",
        "latitude": -38.9490013123,
        "longitude": -68.1557006836
    },
    {
        "IATA_code": "NRT",
        "country_code": "JP",
        "city_name": "Tokyo",
        "country_name": "Japan",
        "latitude": 35.7647018433,
        "longitude": 140.3860015869
    },
    {
        "IATA_code": "NVT",
        "country_code": "BR",
        "city_name": "Navegantes",
        "country_name": "Brazil",
        "latitude": -26.8799991608,
        "longitude": -48.6514015198
    },
    {
        "IATA_code": "OKA",
        "country_code": "JP",
        "city_name": "Naha",
        "country_name": "Japan",
        "latitude": 26.1958007812,
        "longitude": 127.646003723
    },
    {
        "IATA_code": "OMA",
        "country_code": "US",
        "city_name": "Omaha",
        "country_name": "United States of America",
        "latitude": 41.3031997681,
        "longitude": -95.8940963745
    },
    {
        "IATA_code": "ORD",
        "country_code": "US",
        "city_name": "Chicago",
        "country_name": "United States of America",
        "latitude": 41.97859955,
        "longitude": -87.90480042
    },
    {
        "IATA_code": "ORF",
        "country_code": "US",
        "city_name": "Norfolk",
        "country_name": "United States of America",
        "latitude": 36.8945999146,
        "longitude": -76.2012023926
    },
    {
        "IATA_code": "ORK",
        "country_code": "IE",
        "city_name": "Cork",
        "country_name": "Ireland",
        "latitude": 51.8413009644,
        "longitude": -8.491109848
    },
    {
        "IATA_code": "ORN",
        "country_code": "DZ",
        "city_name": "Oran",
        "country_name": "Algeria",
        "latitude": 35.6239013672,
        "longitude": -0.6211829782
    },
    {
        "IATA_code": "OSL",
        "country_code": "NO",
        "city_name": "Oslo",
        "country_name": "Norway",
        "latitude": 60.193901062,
        "longitude": 11.100399971
    },
    {
        "IATA_code": "OTP",
        "country_code": "RO",
        "city_name": "Bucharest",
        "country_name": "Romania",
        "latitude": 44.5722007751,
        "longitude": 26.1021995544
    },
    {
        "IATA_code": "OUA",
        "country_code": "BF",
        "city_name": "Ouagadougou",
        "country_name": "Burkina Faso",
        "latitude": 12.3531999588,
        "longitude": -1.5124200583
    },
    {
        "IATA_code": "PAP",
        "country_code": "HT",
        "city_name": "Port-au-Prince",
        "country_name": "Haiti",
        "latitude": 18.5799999237,
        "longitude": -72.2925033569
    },
    {
        "IATA_code": "PAT",
        "country_code": "IN",
        "city_name": "Patna",
        "country_name": "India",
        "latitude": 25.591299057,
        "longitude": 85.0879974365
    },
    {
        "IATA_code": "PBH",
        "country_code": "BT",
        "city_name": "Paro",
        "country_name": "Bhutan",
        "latitude": 27.4032001495,
        "longitude": 89.4245986938
    },
    {
        "IATA_code": "PDX",
        "country_code": "US",
        "city_name": "Portland",
        "country_name": "United States of America",
        "latitude": 45.58869934,
        "longitude": -122.5979996
    },
    {
        "IATA_code": "PER",
        "country_code": "AU",
        "city_name": "Perth",
        "country_name": "Australia",
        "latitude": -31.9402999878,
        "longitude": 115.9670028687
    },
    {
        "IATA_code": "PHL",
        "country_code": "US",
        "city_name": "Philadelphia",
        "country_name": "United States of America",
        "latitude": 39.8718986511,
        "longitude": -75.2410964966
    },
    {
        "IATA_code": "PHX",
        "country_code": "US",
        "city_name": "Phoenix",
        "country_name": "United States of America",
        "latitude": 33.434299469,
        "longitude": -112.0120010376
    },
    {
        "IATA_code": "PIT",
        "country_code": "US",
        "city_name": "Pittsburgh",
        "country_name": "United States of America",
        "latitude": 40.49150085,
        "longitude": -80.23290253
    },
    {
        "IATA_code": "PMO",
        "country_code": "IT",
        "city_name": "Palermo",
        "country_name": "Italy",
        "latitude": 38.1759986877,
        "longitude": 13.0909996033
    },
    {
        "IATA_code": "PNH",
        "country_code": "KH",
        "city_name": "Phnom Penh",
        "country_name": "Cambodia",
        "latitude": 11.5466003418,
        "longitude": 104.84400177
    },
    {
        "IATA_code": "POA",
        "country_code": "BR",
        "city_name": "Porto Alegre",
        "country_name": "Brazil",
        "latitude": -29.9944000244,
        "longitude": -51.1713981628
    },
    {
        "IATA_code": "PPT",
        "country_code": "PF",
        "city_name": "Papeete",
        "country_name": "French Polynesia",
        "latitude": -17.5536994934,
        "longitude": -149.606994629
    },
    {
        "IATA_code": "PRG",
        "country_code": "CZ",
        "city_name": "Prague",
        "country_name": "Czechia",
        "latitude": 50.1007995605,
        "longitude": 14.2600002289
    },
    {
        "IATA_code": "PTY",
        "country_code": "PA",
        "city_name": "Tocumen",
        "country_name": "Panama",
        "latitude": 9.0713596344,
        "longitude": -79.3834991455
    },
    {
        "IATA_code": "QRO",
        "country_code": "MX",
        "city_name": "Quer\u00e9taro",
        "country_name": "Mexico",
        "latitude": 20.6173000336,
        "longitude": -100.185997009
    },
    {
        "IATA_code": "RAO",
        "country_code": "BR",
        "city_name": "Ribeir\u00e3o Preto",
        "country_name": "Brazil",
        "latitude": -21.1363887787,
        "longitude": -47.7766685486
    },
    {
        "IATA_code": "REC",
        "country_code": "BR",
        "city_name": "Recife",
        "country_name": "Brazil",
        "latitude": -8.1264896393,
        "longitude": -34.9235992432
    },
    {
        "IATA_code": "RGN",
        "country_code": "MM",
        "city_name": "Yangon",
        "country_name": "Myanmar",
        "latitude": 16.9073009491,
        "longitude": 96.1332015991
    },
    {
        "IATA_code": "RIC",
        "country_code": "US",
        "city_name": "Richmond",
        "country_name": "United States of America",
        "latitude": 37.5051994324,
        "longitude": -77.3197021484
    },
    {
        "IATA_code": "RIX",
        "country_code": "LV",
        "city_name": "Riga",
        "country_name": "Latvia",
        "latitude": 56.9235992432,
        "longitude": 23.9710998535
    },
    {
        "IATA_code": "RUH",
        "country_code": "SA",
        "city_name": "Riyadh",
        "country_name": "Saudi Arabia",
        "latitude": 24.9575996399,
        "longitude": 46.6987991333
    },
    {
        "IATA_code": "RUN",
        "country_code": "RE",
        "city_name": "Saint-Denis",
        "country_name": "R\u00e9union",
        "latitude": -20.8871002197,
        "longitude": 55.5102996826
    },
    {
        "IATA_code": "SCL",
        "country_code": "CL",
        "city_name": "Santiago",
        "country_name": "Chile",
        "latitude": -33.3930015564,
        "longitude": -70.7857971191
    },
    {
        "IATA_code": "SDQ",
        "country_code": "DO",
        "city_name": "Santo Domingo",
        "country_name": "Dominican Republic",
        "latitude": 18.4297008514,
        "longitude": -69.6688995361
    },
    {
        "IATA_code": "SEA",
        "country_code": "US",
        "city_name": "Seattle",
        "country_name": "United States of America",
        "latitude": 47.4490013123,
        "longitude": -122.3089981079
    },
    {
        "IATA_code": "SFO",
        "country_code": "US",
        "city_name": "San Francisco",
        "country_name": "United States of America",
        "latitude": 37.6189994812,
        "longitude": -122.375
    },
    {
        "IATA_code": "SGN",
        "country_code": "VN",
        "city_name": "Ho Chi Minh City",
        "country_name": "Viet Nam",
        "latitude": 10.8187999725,
        "longitude": 106.652000427
    },
    {
        "IATA_code": "SHA",
        "country_code": "CN",
        "city_name": "Shanghai",
        "country_name": "China",
        "latitude": 31.1979007721,
        "longitude": 121.3359985352
    },
    {
        "IATA_code": "SIN",
        "country_code": "SG",
        "city_name": "Singapore",
        "country_name": "Singapore",
        "latitude": 1.3501900434,
        "longitude": 103.9940032959
    },
    {
        "IATA_code": "SJC",
        "country_code": "US",
        "city_name": "San Jose",
        "country_name": "United States of America",
        "latitude": 37.3625984192,
        "longitude": -121.9290008545
    },
    {
        "IATA_code": "SJK",
        "country_code": "BR",
        "city_name": "Sao jose dos Campos",
        "country_name": "Brazil",
        "latitude": -23.2292003632,
        "longitude": -45.8614997864
    },
    {
        "IATA_code": "SJO",
        "country_code": "CR",
        "city_name": "San Jose",
        "country_name": "Costa Rica",
        "latitude": 9.9938602448,
        "longitude": -84.2088012695
    },
    {
        "IATA_code": "SJW",
        "country_code": "CN",
        "city_name": "Shijiazhuang",
        "country_name": "China",
        "latitude": 38.2807006836,
        "longitude": 114.6969985962
    },
    {
        "IATA_code": "SKG",
        "country_code": "GR",
        "city_name": "Thessaloniki",
        "country_name": "Greece",
        "latitude": 40.5196990967,
        "longitude": 22.9708995819
    },
    {
        "IATA_code": "SLC",
        "country_code": "US",
        "city_name": "Salt Lake City",
        "country_name": "United States of America",
        "latitude": 40.7883987427,
        "longitude": -111.9779968262
    },
    {
        "IATA_code": "SMF",
        "country_code": "US",
        "city_name": "Sacramento",
        "country_name": "United States of America",
        "latitude": 38.695400238,
        "longitude": -121.591003418
    },
    {
        "IATA_code": "SNA",
        "country_code": "US",
        "city_name": "Santa Ana",
        "country_name": "United States of America",
        "latitude": 33.67570114,
        "longitude": -117.8679962
    },
    {
        "IATA_code": "SOF",
        "country_code": "BG",
        "city_name": "Sofia",
        "country_name": "Bulgaria",
        "latitude": 42.6966934204,
        "longitude": 23.4114360809
    },
    {
        "IATA_code": "SSA",
        "country_code": "BR",
        "city_name": "Salvador",
        "country_name": "Brazil",
        "latitude": -12.9086112976,
        "longitude": -38.3224983215
    },
    {
        "IATA_code": "STL",
        "country_code": "US",
        "city_name": "St Louis",
        "country_name": "United States of America",
        "latitude": 38.7486991882,
        "longitude": -90.3700027466
    },
    {
        "IATA_code": "STR",
        "country_code": "DE",
        "city_name": "Stuttgart",
        "country_name": "Germany",
        "latitude": 48.6898994446,
        "longitude": 9.2219600677
    },
    {
        "IATA_code": "SVX",
        "country_code": "RU",
        "city_name": "Yekaterinburg",
        "country_name": "Russian Federation",
        "latitude": 56.7430992126,
        "longitude": 60.8027000427
    },
    {
        "IATA_code": "SYD",
        "country_code": "AU",
        "city_name": "Sydney",
        "country_name": "Australia",
        "latitude": -33.9460983276,
        "longitude": 151.1770019531
    },
    {
        "IATA_code": "TAO",
        "country_code": "CN",
        "city_name": "Qingdao",
        "country_name": "China",
        "latitude": 36.2661018372,
        "longitude": 120.374000549
    },
    {
        "IATA_code": "TAS",
        "country_code": "UZ",
        "city_name": "Tashkent",
        "country_name": "Uzbekistan",
        "latitude": 41.257900238,
        "longitude": 69.2811965942
    },
    {
        "IATA_code": "TBS",
        "country_code": "GE",
        "city_name": "Tbilisi",
        "country_name": "Georgia",
        "latitude": 41.6692008972,
        "longitude": 44.95470047
    },
    {
        "IATA_code": "TGU",
        "country_code": "HN",
        "city_name": "Tegucigalpa",
        "country_name": "Honduras",
        "latitude": 14.0608997345,
        "longitude": -87.2172012329
    },
    {
        "IATA_code": "TIA",
        "country_code": "AL",
        "city_name": "Tirana",
        "country_name": "Albania",
        "latitude": 41.4146995544,
        "longitude": 19.7206001282
    },
    {
        "IATA_code": "TLH",
        "country_code": "US",
        "city_name": "Tallahassee",
        "country_name": "United States of America",
        "latitude": 30.3964996338,
        "longitude": -84.3503036499
    },
    {
        "IATA_code": "TLL",
        "country_code": "EE",
        "city_name": "Tallinn",
        "country_name": "Estonia",
        "latitude": 59.4132995605,
        "longitude": 24.8327999115
    },
    {
        "IATA_code": "TLV",
        "country_code": "IL",
        "city_name": "Tel Aviv",
        "country_name": "Israel",
        "latitude": 32.0113983154,
        "longitude": 34.8866996765
    },
    {
        "IATA_code": "TNA",
        "country_code": "CN",
        "city_name": "Jinan",
        "country_name": "China",
        "latitude": 36.8572006226,
        "longitude": 117.216003418
    },
    {
        "IATA_code": "TNR",
        "country_code": "MG",
        "city_name": "Antananarivo",
        "country_name": "Madagascar",
        "latitude": -18.7968997955,
        "longitude": 47.4788017273
    },
    {
        "IATA_code": "TPA",
        "country_code": "US",
        "city_name": "Tampa",
        "country_name": "United States of America",
        "latitude": 27.9755001068,
        "longitude": -82.533203125
    },
    {
        "IATA_code": "TPE",
        "country_code": "TW",
        "city_name": "Taipei",
        "country_name": "Taiwan, Province of China",
        "latitude": 25.0776996613,
        "longitude": 121.233001709
    },
    {
        "IATA_code": "TSN",
        "country_code": "CN",
        "city_name": "Tianjin",
        "country_name": "China",
        "latitude": 39.1244010925,
        "longitude": 117.346000671
    },
    {
        "IATA_code": "TUN",
        "country_code": "TN",
        "city_name": "Tunis",
        "country_name": "Tunisia",
        "latitude": 36.8510017395,
        "longitude": 10.2271995544
    },
    {
        "IATA_code": "TXL",
        "country_code": "DE",
        "city_name": "Berlin",
        "country_name": "Germany",
        "latitude": 52.5597000122,
        "longitude": 13.2876996994
    },
    {
        "IATA_code": "TYN",
        "country_code": "CN",
        "city_name": "Taiyuan",
        "country_name": "China",
        "latitude": 37.7468986511,
        "longitude": 112.6279983521
    },
    {
        "IATA_code": "UDI",
        "country_code": "BR",
        "city_name": "Uberl\u00e2ndia",
        "country_name": "Brazil",
        "latitude": -18.8836116791,
        "longitude": -48.225276947
    },
    {
        "IATA_code": "UIO",
        "country_code": "EC",
        "city_name": "Quito",
        "country_name": "Ecuador",
        "latitude": -0.1291666667,
        "longitude": -78.3575
    },
    {
        "IATA_code": "ULN",
        "country_code": "MN",
        "city_name": "Ulan Bator",
        "country_name": "Mongolia",
        "latitude": 47.8431015015,
        "longitude": 106.766998291
    },
    {
        "IATA_code": "URT",
        "country_code": "TH",
        "city_name": "Surat Thani",
        "country_name": "Thailand",
        "latitude": 9.1325998306,
        "longitude": 99.135597229
    },
    {
        "IATA_code": "VCP",
        "country_code": "BR",
        "city_name": "Campinas",
        "country_name": "Brazil",
        "latitude": -23.0074005127,
        "longitude": -47.1344985962
    },
    {
        "IATA_code": "VIE",
        "country_code": "AT",
        "city_name": "Vienna",
        "country_name": "Austria",
        "latitude": 48.1102981567,
        "longitude": 16.5697002411
    },
    {
        "IATA_code": "VIX",
        "country_code": "BR",
        "city_name": "Vit\u00f3ria",
        "country_name": "Brazil",
        "latitude": -20.2580566406,
        "longitude": -40.2863883972
    },
    {
        "IATA_code": "VNO",
        "country_code": "LT",
        "city_name": "Vilnius",
        "country_name": "Lithuania",
        "latitude": 54.6341018677,
        "longitude": 25.2858009338
    },
    {
        "IATA_code": "VTE",
        "country_code": "LA",
        "city_name": "Vientiane",
        "country_name": "Lao People's Democratic Republic",
        "latitude": 17.9883003235,
        "longitude": 102.56300354
    },
    {
        "IATA_code": "WAW",
        "country_code": "PL",
        "city_name": "Warsaw",
        "country_name": "Poland",
        "latitude": 52.1656990051,
        "longitude": 20.9671001434
    },
    {
        "IATA_code": "WHU",
        "country_code": "CN",
        "city_name": "Wuhu",
        "country_name": "China",
        "latitude": 31.3906002045,
        "longitude": 118.408996582
    },
    {
        "IATA_code": "WUH",
        "country_code": "CN",
        "city_name": "Wuhan",
        "country_name": "China",
        "latitude": 30.7838001251,
        "longitude": 114.2080001831
    },
    {
        "IATA_code": "WUX",
        "country_code": "CN",
        "city_name": "Wuxi",
        "country_name": "China",
        "latitude": 31.4944000244,
        "longitude": 120.429000854
    },
    {
        "IATA_code": "XIY",
        "country_code": "CN",
        "city_name": "Xianyang",
        "country_name": "China",
        "latitude": 34.447101593,
        "longitude": 108.7519989014
    },
    {
        "IATA_code": "XMN",
        "country_code": "CN",
        "city_name": "Xiamen",
        "country_name": "China",
        "latitude": 24.5440006256,
        "longitude": 118.1279983521
    },
    {
        "IATA_code": "YOW",
        "country_code": "CA",
        "city_name": "Ottawa",
        "country_name": "Canada",
        "latitude": 45.3224983215,
        "longitude": -75.6691970825
    },
    {
        "IATA_code": "YUL",
        "country_code": "CA",
        "city_name": "Montr\u00e9al",
        "country_name": "Canada",
        "latitude": 45.4706001282,
        "longitude": -73.7407989502
    },
    {
        "IATA_code": "YVR",
        "country_code": "CA",
        "city_name": "Vancouver",
        "country_name": "Canada",
        "latitude": 49.193901062,
        "longitude": -123.183998108
    },
    {
        "IATA_code": "YWG",
        "country_code": "CA",
        "city_name": "Winnipeg",
        "country_name": "Canada",
        "latitude": 49.9099998474,
        "longitude": -97.2398986816
    },
    {
        "IATA_code": "YXE",
        "country_code": "CA",
        "city_name": "Saskatoon",
        "country_name": "Canada",
        "latitude": 52.1707992554,
        "longitude": -106.6999969482
    },
    {
        "IATA_code": "YYC",
        "country_code": "CA",
        "city_name": "Calgary",
        "country_name": "Canada",
        "latitude": 51.113899231,
        "longitude": -114.019996643
    },
    {
        "IATA_code": "YYZ",
        "country_code": "CA",
        "city_name": "Toronto",
        "country_name": "Canada",
        "latitude": 43.6772003174,
        "longitude": -79.6305999756
    },
    {
        "IATA_code": "ZAG",
        "country_code": "HR",
        "city_name": "Zagreb",
        "country_name": "Croatia",
        "latitude": 45.7429008484,
        "longitude": 16.0687999725
    }
]