[
    {
        "IATA_code": "ARI",
        "country_code": "CL",
        "city_name": "Arica",
        "country_name": "Chile",
        "latitude": -18.3484992981,
        "longitude": -70.3386993408
    },
    {
        "IATA_code": "ASU",
        "country_code": "PY",
        "city_name": "Asunci\u00f3n",
        "country_name": "Paraguay",
        "latitude": -25.2399997711,
        "longitude": -57.5200004578
    },
    {
        "IATA_code": "BEL",
        "country_code": "BR",
        "city_name": "Bel\u00e9m",
        "country_name": "Brazil",
        "latitude": -1.3792500496,
        "longitude": -48.4762992859
    },
    {
        "IATA_code": "BOG",
        "country_code": "CO",
        "city_name": "Bogota",
        "country_name": "Colombia",
        "latitude": 4.70159,
        "longitude": -74.1469
    },
    {
        "IATA_code": "BSB",
        "country_code": "BR",
        "city_name": "Bras\u00edlia",
        "country_name": "Brazil",
        "latitude": -15.8691673279,
        "longitude": -47.9208335876
    },
    {
        "IATA_code": "CCP",
        "country_code": "CL",
        "city_name": "Concepcion",
        "country_name": "Chile",
        "latitude": -36.7727012634,
        "longitude": -73.0631027222
    },
    {
        "IATA_code": "CGB",
        "country_code": "BR",
        "city_name": "Cuiab\u00e1",
        "country_name": "Brazil",
        "latitude": -15.6528997421,
        "longitude": -56.1166992188
    },
    {
        "IATA_code": "CNF",
        "country_code": "BR",
        "city_name": "Belo Horizonte",
        "country_name": "Brazil",
        "latitude": -19.6244430542,
        "longitude": -43.9719429016
    },
    {
        "IATA_code": "COR",
        "country_code": "AR",
        "city_name": "Cordoba",
        "country_name": "Argentina",
        "latitude": -31.323600769,
        "longitude": -64.2080001831
    },
    {
        "IATA_code": "CUR",
        "country_code": "CW",
        "city_name": "Willemstad",
        "country_name": "Cura\u00e7ao",
        "latitude": 12.1888999939,
        "longitude": -68.9598007202
    },
    {
        "IATA_code": "CWB",
        "country_code": "BR",
        "city_name": "Curitiba",
        "country_name": "Brazil",
        "latitude": -25.5284996033,
        "longitude": -49.1758003235
    },
    {
        "IATA_code": "EZE",
        "country_code": "AR",
        "city_name": "Buenos Aires",
        "country_name": "Argentina",
        "latitude": -34.8222,
        "longitude": -58.5358
    },
    {
        "IATA_code": "FLN",
        "country_code": "BR",
        "city_name": "Florian\u00f3polis",
        "country_name": "Brazil",
        "latitude": -27.6702785492,
        "longitude": -48.5525016785
    },
    {
        "IATA_code": "FOR",
        "country_code": "BR",
        "city_name": "Fortaleza",
        "country_name": "Brazil",
        "latitude": -3.7762799263,
        "longitude": -38.5326004028
    },
    {
        "IATA_code": "GEO",
        "country_code": "GY",
        "city_name": "Georgetown",
        "country_name": "Guyana",
        "latitude": 6.4985499382,
        "longitude": -58.2541007996
    },
    {
        "IATA_code": "GIG",
        "country_code": "BR",
        "city_name": "Rio De Janeiro",
        "country_name": "Brazil",
        "latitude": -22.8099994659,
        "longitude": -43.2505569458
    },
    {
        "IATA_code": "GND",
        "country_code": "GD",
        "city_name": "Saint George's",
        "country_name": "Grenada",
        "latitude": 12.0041999817,
        "longitude": -61.7862014771
    },
    {
        "IATA_code": "GUA",
        "country_code": "GT",
        "city_name": "Guatemala City",
        "country_name": "Guatemala",
        "latitude": 14.5832996368,
        "longitude": -90.5274963379
    },
    {
        "IATA_code": "GYE",
        "country_code": "EC",
        "city_name": "Guayaquil",
        "country_name": "Ecuador",
        "latitude": -2.15741992,
        "longitude": -79.8835983276
    },
    {
        "IATA_code": "GYN",
        "country_code": "BR",
        "city_name": "Goi\u00e2nia",
        "country_name": "Brazil",
        "latitude": -16.6319999695,
        "longitude": -49.2206993103
    },
    {
        "IATA_code": "JOI",
        "country_code": "BR",
        "city_name": "Joinville",
        "country_name": "Brazil",
        "latitude": -26.2245006561,
        "longitude": -48.7974014282
    },
    {
        "IATA_code": "LIM",
        "country_code": "PE",
        "city_name": "Lima",
        "country_name": "Peru",
        "latitude": -12.021900177,
        "longitude": -77.1143035889
    },
    {
        "IATA_code": "MAO",
        "country_code": "BR",
        "city_name": "Manaus",
        "country_name": "Brazil",
        "latitude": -3.0386099815,
        "longitude": -60.0497016907
    },
    {
        "IATA_code": "MDE",
        "country_code": "CO",
        "city_name": "Rionegro",
        "country_name": "Colombia",
        "latitude": 6.16454,
        "longitude": -75.4231
    },
    {
        "IATA_code": "NQN",
        "country_code": "AR",
        "city_name": "Neuquen",
        "country_name": "Argentina",
        "latitude": -38.9490013123,
        "longitude": -68.1557006836
    },
    {
        "IATA_code": "NVT",
        "country_code": "BR",
        "city_name": "Navegantes",
        "country_name": "Brazil",
        "latitude": -26.8799991608,
        "longitude": -48.6514015198
    },
    {
        "IATA_code": "PAP",
        "country_code": "HT",
        "city_name": "Port-au-Prince",
        "country_name": "Haiti",
        "latitude": 18.5799999237,
        "longitude": -72.2925033569
    },
    {
        "IATA_code": "POA",
        "country_code": "BR",
        "city_name": "Porto Alegre",
        "country_name": "Brazil",
        "latitude": -29.9944000244,
        "longitude": -51.1713981628
    },
    {
        "IATA_code": "PTY",
        "country_code": "PA",
        "city_name": "Tocumen",
        "country_name": "Panama",
        "latitude": 9.0713596344,
        "longitude": -79.3834991455
    },
    {
        "IATA_code": "RAO",
        "country_code": "BR",
        "city_name": "Ribeir\u00e3o Preto",
        "country_name": "Brazil",
        "latitude": -21.1363887787,
        "longitude": -47.7766685486
    },
    {
        "IATA_code": "REC",
        "country_code": "BR",
        "city_name": "Recife",
        "country_name": "Brazil",
        "latitude": -8.1264896393,
        "longitude": -34.9235992432
    },
    {
        "IATA_code": "SCL",
        "country_code": "CL",
        "city_name": "Santiago",
        "country_name": "Chile",
        "latitude": -33.3930015564,
        "longitude": -70.7857971191
    },
    {
        "IATA_code": "SDQ",
        "country_code": "DO",
        "city_name": "Santo Domingo",
        "country_name": "Dominican Republic",
        "latitude": 18.4297008514,
        "longitude": -69.6688995361
    },
    {
        "IATA_code": "SJK",
        "country_code": "BR",
        "city_name": "Sao jose dos Campos",
        "country_name": "Brazil",
        "latitude": -23.2292003632,
        "longitude": -45.8614997864
    },
    {
        "IATA_code": "SJO",
        "country_code": "CR",
        "city_name": "San Jose",
        "country_name": "Costa Rica",
        "latitude": 9.9938602448,
        "longitude": -84.2088012695
    },
    {
        "IATA_code": "SSA",
        "country_code": "BR",
        "city_name": "Salvador",
        "country_name": "Brazil",
        "latitude": -12.9086112976,
        "longitude": -38.3224983215
    },
    {
        "IATA_code": "TGU",
        "country_code": "HN",
        "city_name": "Tegucigalpa",
        "country_name": "Honduras",
        "latitude": 14.0608997345,
        "longitude": -87.2172012329
    },
    {
        "IATA_code": "UDI",
        "country_code": "BR",
        "city_name": "Uberl\u00e2ndia",
        "country_name": "Brazil",
        "latitude": -18.8836116791,
        "longitude": -48.225276947
    },
    {
        "IATA_code": "UIO",
        "country_code": "EC",
        "city_name": "Quito",
        "country_name": "Ecuador",
        "latitude": -0.1291666667,
        "longitude": -78.3575
    },
    {
        "IATA_code": "VCP",
        "country_code": "BR",
        "city_name": "Campinas",
        "country_name": "Brazil",
        "latitude": -23.0074005127,
        "longitude": -47.1344985962
    },
    {
        "IATA_code": "VIX",
        "country_code": "BR",
        "city_name": "Vit\u00f3ria",
        "country_name": "Brazil",
        "latitude": -20.2580566406,
        "longitude": -40.2863883972
    }
]