[
    {
        "IATA_code": "ABQ",
        "country_code": "US",
        "city_name": "Albuquerque",
        "country_name": "United States of America",
        "latitude": 35.0401992798,
        "longitude": -106.6090011597
    },
    {
        "IATA_code": "ATL",
        "country_code": "US",
        "city_name": "Atlanta",
        "country_name": "United States of America",
        "latitude": 33.6366996765,
        "longitude": -84.4281005859
    },
    {
        "IATA_code": "AUS",
        "country_code": "US",
        "city_name": "Austin",
        "country_name": "United States of America",
        "latitude": 30.1944999695,
        "longitude": -97.6698989868
    },
    {
        "IATA_code": "BGR",
        "country_code": "US",
        "city_name": "Bangor",
        "country_name": "United States of America",
        "latitude": 44.8073997498,
        "longitude": -68.8281021118
    },
    {
        "IATA_code": "BNA",
        "country_code": "US",
        "city_name": "Nashville",
        "country_name": "United States of America",
        "latitude": 36.1245002747,
        "longitude": -86.6781997681
    },
    {
        "IATA_code": "BOS",
        "country_code": "US",
        "city_name": "Boston",
        "country_name": "United States of America",
        "latitude": 42.36429977,
        "longitude": -71.00520325
    },
    {
        "IATA_code": "BUF",
        "country_code": "US",
        "city_name": "Buffalo",
        "country_name": "United States of America",
        "latitude": 42.94049835,
        "longitude": -78.73220062
    },
    {
        "IATA_code": "CLT",
        "country_code": "US",
        "city_name": "Charlotte",
        "country_name": "United States of America",
        "latitude": 35.2140007019,
        "longitude": -80.9430999756
    },
    {
        "IATA_code": "CMH",
        "country_code": "US",
        "city_name": "Columbus",
        "country_name": "United States of America",
        "latitude": 39.9980010986,
        "longitude": -82.8918991089
    },
    {
        "IATA_code": "DEN",
        "country_code": "US",
        "city_name": "Denver",
        "country_name": "United States of America",
        "latitude": 39.8616981506,
        "longitude": -104.672996521
    },
    {
        "IATA_code": "DFW",
        "country_code": "US",
        "city_name": "Dallas-Fort Worth",
        "country_name": "United States of America",
        "latitude": 32.8968009949,
        "longitude": -97.0380020142
    },
    {
        "IATA_code": "DTW",
        "country_code": "US",
        "city_name": "Detroit",
        "country_name": "United States of America",
        "latitude": 42.2123985291,
        "longitude": -83.3534011841
    },
    {
        "IATA_code": "EWR",
        "country_code": "US",
        "city_name": "Newark",
        "country_name": "United States of America",
        "latitude": 40.6925010681,
        "longitude": -74.1687011719
    },
    {
        "IATA_code": "FSD",
        "country_code": "US",
        "city_name": "Sioux Falls",
        "country_name": "United States of America",
        "latitude": 43.5820007324,
        "longitude": -96.741897583
    },
    {
        "IATA_code": "GDL",
        "country_code": "MX",
        "city_name": "Guadalajara",
        "country_name": "Mexico",
        "latitude": 20.5217990875,
        "longitude": -103.3109970093
    },
    {
        "IATA_code": "HNL",
        "country_code": "US",
        "city_name": "Honolulu",
        "country_name": "United States of America",
        "latitude": 21.3187007904,
        "longitude": -157.9219970703
    },
    {
        "IATA_code": "IAD",
        "country_code": "US",
        "city_name": "Washington",
        "country_name": "United States of America",
        "latitude": 38.94449997,
        "longitude": -77.45580292
    },
    {
        "IATA_code": "IAH",
        "country_code": "US",
        "city_name": "Houston",
        "country_name": "United States of America",
        "latitude": 29.9843997955,
        "longitude": -95.3414001465
    },
    {
        "IATA_code": "IND",
        "country_code": "US",
        "city_name": "Indianapolis",
        "country_name": "United States of America",
        "latitude": 39.717300415,
        "longitude": -86.2944030762
    },
    {
        "IATA_code": "JAX",
        "country_code": "US",
        "city_name": "Jacksonville",
        "country_name": "United States of America",
        "latitude": 30.4941005707,
        "longitude": -81.6878967285
    },
    {
        "IATA_code": "KIN",
        "country_code": "JM",
        "city_name": "Kingston",
        "country_name": "Jamaica",
        "latitude": 17.9356994629,
        "longitude": -76.7874984741
    },
    {
        "IATA_code": "LAS",
        "country_code": "US",
        "city_name": "Las Vegas",
        "country_name": "United States of America",
        "latitude": 36.08010101,
        "longitude": -115.1520004
    },
    {
        "IATA_code": "LAX",
        "country_code": "US",
        "city_name": "Los Angeles",
        "country_name": "United States of America",
        "latitude": 33.94250107,
        "longitude": -118.4079971
    },
    {
        "IATA_code": "MCI",
        "country_code": "US",
        "city_name": "Kansas City",
        "country_name": "United States of America",
        "latitude": 39.2975997925,
        "longitude": -94.7138977051
    },
    {
        "IATA_code": "MEM",
        "country_code": "US",
        "city_name": "Memphis",
        "country_name": "United States of America",
        "latitude": 35.0424003601,
        "longitude": -89.9766998291
    },
    {
        "IATA_code": "MEX",
        "country_code": "MX",
        "city_name": "Mexico City",
        "country_name": "Mexico",
        "latitude": 19.4363002777,
        "longitude": -99.0720977783
    },
    {
        "IATA_code": "MGM",
        "country_code": "US",
        "city_name": "Montgomery",
        "country_name": "United States of America",
        "latitude": 32.30059814,
        "longitude": -86.39399719
    },
    {
        "IATA_code": "MIA",
        "country_code": "US",
        "city_name": "Miami",
        "country_name": "United States of America",
        "latitude": 25.7931995392,
        "longitude": -80.2906036377
    },
    {
        "IATA_code": "MSP",
        "country_code": "US",
        "city_name": "Minneapolis",
        "country_name": "United States of America",
        "latitude": 44.8819999695,
        "longitude": -93.2218017578
    },
    {
        "IATA_code": "OMA",
        "country_code": "US",
        "city_name": "Omaha",
        "country_name": "United States of America",
        "latitude": 41.3031997681,
        "longitude": -95.8940963745
    },
    {
        "IATA_code": "ORD",
        "country_code": "US",
        "city_name": "Chicago",
        "country_name": "United States of America",
        "latitude": 41.97859955,
        "longitude": -87.90480042
    },
    {
        "IATA_code": "ORF",
        "country_code": "US",
        "city_name": "Norfolk",
        "country_name": "United States of America",
        "latitude": 36.8945999146,
        "longitude": -76.2012023926
    },
    {
        "IATA_code": "PDX",
        "country_code": "US",
        "city_name": "Portland",
        "country_name": "United States of America",
        "latitude": 45.58869934,
        "longitude": -122.5979996
    },
    {
        "IATA_code": "PHL",
        "country_code": "US",
        "city_name": "Philadelphia",
        "country_name": "United States of America",
        "latitude": 39.8718986511,
        "longitude": -75.2410964966
    },
    {
        "IATA_code": "PHX",
        "country_code": "US",
        "city_name": "Phoenix",
        "country_name": "United States of America",
        "latitude": 33.434299469,
        "longitude": -112.0120010376
    },
    {
        "IATA_code": "PIT",
        "country_code": "US",
        "city_name": "Pittsburgh",
        "country_name": "United States of America",
        "latitude": 40.49150085,
        "longitude": -80.23290253
    },
    {
        "IATA_code": "QRO",
        "country_code": "MX",
        "city_name": "Quer\u00e9taro",
        "country_name": "Mexico",
        "latitude": 20.6173000336,
        "longitude": -100.185997009
    },
    {
        "IATA_code": "RIC",
        "country_code": "US",
        "city_name": "Richmond",
        "country_name": "United States of America",
        "latitude": 37.5051994324,
        "longitude": -77.3197021484
    },
    {
        "IATA_code": "SEA",
        "country_code": "US",
        "city_name": "Seattle",
        "country_name": "United States of America",
        "latitude": 47.4490013123,
        "longitude": -122.3089981079
    },
    {
        "IATA_code": "SFO",
        "country_code": "US",
        "city_name": "San Francisco",
        "country_name": "United States of America",
        "latitude": 37.6189994812,
        "longitude": -122.375
    },
    {
        "IATA_code": "SJC",
        "country_code": "US",
        "city_name": "San Jose",
        "country_name": "United States of America",
        "latitude": 37.3625984192,
        "longitude": -121.9290008545
    },
    {
        "IATA_code": "SLC",
        "country_code": "US",
        "city_name": "Salt Lake City",
        "country_name": "United States of America",
        "latitude": 40.7883987427,
        "longitude": -111.9779968262
    },
    {
        "IATA_code": "SMF",
        "country_code": "US",
        "city_name": "Sacramento",
        "country_name": "United States of America",
        "latitude": 38.695400238,
        "longitude": -121.591003418
    },
    {
        "IATA_code": "SNA",
        "country_code": "US",
        "city_name": "Santa Ana",
        "country_name": "United States of America",
        "latitude": 33.67570114,
        "longitude": -117.8679962
    },
    {
        "IATA_code": "STL",
        "country_code": "US",
        "city_name": "St Louis",
        "country_name": "United States of America",
        "latitude": 38.7486991882,
        "longitude": -90.3700027466
    },
    {
        "IATA_code": "TLH",
        "country_code": "US",
        "city_name": "Tallahassee",
        "country_name": "United States of America",
        "latitude": 30.3964996338,
        "longitude": -84.3503036499
    },
    {
        "IATA_code": "TPA",
        "country_code": "US",
        "city_name": "Tampa",
        "country_name": "United States of America",
        "latitude": 27.9755001068,
        "longitude": -82.533203125
    },
    {
        "IATA_code": "YOW",
        "country_code": "CA",
        "city_name": "Ottawa",
        "country_name": "Canada",
        "latitude": 45.3224983215,
        "longitude": -75.6691970825
    },
    {
        "IATA_code": "YUL",
        "country_code": "CA",
        "city_name": "Montr\u00e9al",
        "country_name": "Canada",
        "latitude": 45.4706001282,
        "longitude": -73.7407989502
    },
    {
        "IATA_code": "YVR",
        "country_code": "CA",
        "city_name": "Vancouver",
        "country_name": "Canada",
        "latitude": 49.193901062,
        "longitude": -123.183998108
    },
    {
        "IATA_code": "YWG",
        "country_code": "CA",
        "city_name": "Winnipeg",
        "country_name": "Canada",
        "latitude": 49.9099998474,
        "longitude": -97.2398986816
    },
    {
        "IATA_code": "YXE",
        "country_code": "CA",
        "city_name": "Saskatoon",
        "country_name": "Canada",
        "latitude": 52.1707992554,
        "longitude": -106.6999969482
    },
    {
        "IATA_code": "YYC",
        "country_code": "CA",
        "city_name": "Calgary",
        "country_name": "Canada",
        "latitude": 51.113899231,
        "longitude": -114.019996643
    },
    {
        "IATA_code": "YYZ",
        "country_code": "CA",
        "city_name": "Toronto",
        "country_name": "Canada",
        "latitude": 43.6772003174,
        "longitude": -79.6305999756
    }
]