{
    "target": "198.41.0.4",
    "probes_filepath": "datasets/probes_sets/North-Central_1000.json",
    "alpha": 0.6,
    "threshold": -1,
    "noise": 0,
    "results_filepath": "datasets/results/campaigns/198.41.0.4_North-Central_20230410_alpha_light-factor_0.30/198.41.0.4_North-Central_1000_52069452_0.6_-1_0.json",
    "gt_filepath": "datasets/ground-truth/root_servers/root_servers_A.json",
    "statistics": {
        "TP": 5,
        "FP": 11,
        "TN": 0,
        "FN": 1,
        "accuracy": 0.29411764705882354,
        "precision": 0.3125,
        "recall": 0.8333333333333334,
        "f1": 0.45454545454545453,
        "OT": 0,
        "OF": 1
    },
    "instances": [
        {
            "country_code": "AT",
            "city": "Vienna",
            "latitude": 48.1102981567,
            "longitude": 16.5697002411,
            "type": "FP"
        },
        {
            "country_code": "BA",
            "city": "Sarajevo",
            "latitude": 43.8246002197,
            "longitude": 18.3314990997,
            "type": "FP"
        },
        {
            "country_code": "DE",
            "city": "Berlin",
            "latitude": 52.5597000122,
            "longitude": 13.2876996994,
            "type": "FP"
        },
        {
            "country_code": "DE",
            "city": "Frankfurt-am-Main",
            "latitude": 50.0264015198,
            "longitude": 8.543129921,
            "type": "TP"
        },
        {
            "country_code": "DE",
            "city": "Munich",
            "latitude": 48.3538017273,
            "longitude": 11.7861003876,
            "type": "FP"
        },
        {
            "country_code": "ES",
            "city": "Barcelona",
            "latitude": 41.2971000671,
            "longitude": 2.0784599781,
            "type": "FP"
        },
        {
            "country_code": "FI",
            "city": "Helsinki",
            "latitude": 60.1733244,
            "longitude": 24.9410248,
            "type": "FP"
        },
        {
            "country_code": "FR",
            "city": "Marseille",
            "latitude": 43.2961743,
            "longitude": 5.3699525,
            "type": "FN"
        },
        {
            "country_code": "FR",
            "city": "Paris",
            "latitude": 49.0127983093,
            "longitude": 2.5499999523,
            "type": "TP"
        },
        {
            "country_code": "GB",
            "city": "Glasgow",
            "latitude": 55.8718986511,
            "longitude": -4.4330601692,
            "type": "FP"
        },
        {
            "country_code": "GB",
            "city": "London",
            "latitude": 51.5530014038,
            "longitude": -0.418166995,
            "type": "TP"
        },
        {
            "country_code": "IT",
            "city": "Milan",
            "latitude": 45.6305999756,
            "longitude": 8.7281103134,
            "type": "FP"
        },
        {
            "country_code": "NL",
            "city": "Amsterdam",
            "latitude": 52.3086013794,
            "longitude": 4.7638897896,
            "type": "FP"
        },
        {
            "country_code": "NL",
            "city": "Rotterdam",
            "latitude": 51.9569015503,
            "longitude": 4.4372200966,
            "type": "TP"
        },
        {
            "country_code": "RU",
            "city": "St Petersburg",
            "latitude": 59.8003005981,
            "longitude": 30.2625007629,
            "type": "FP"
        },
        {
            "country_code": "SE",
            "city": "Gothenburg",
            "latitude": 57.6627998352,
            "longitude": 12.279800415,
            "type": "FP"
        },
        {
            "country_code": "SE",
            "city": "Stockholm",
            "latitude": 59.3544006348,
            "longitude": 17.9416999817,
            "type": "TP"
        },
        {
            "country_code": "UA",
            "city": "Kiev",
            "latitude": 50.4016990662,
            "longitude": 30.4496994019,
            "type": "OF"
        }
    ]
}