{
    "target": "198.41.0.4",
    "probes_filepath": "datasets/probes_sets/North-Central_100.json",
    "alpha": 0.0,
    "threshold": -1,
    "noise": 0,
    "results_filepath": "datasets/results/campaigns/198.41.0.4_North-Central_20230410_alpha_light-factor_0.30/198.41.0.4_North-Central_100_52069359_0.0_-1_0.json",
    "gt_filepath": "datasets/ground-truth/root_servers/root_servers_A.json",
    "statistics": {
        "TP": 2,
        "FP": 7,
        "TN": 0,
        "FN": 4,
        "accuracy": 0.15384615384615385,
        "precision": 0.2222222222222222,
        "recall": 0.3333333333333333,
        "f1": 0.26666666666666666,
        "OT": 0,
        "OF": 0
    },
    "instances": [
        {
            "country_code": "DE",
            "city": "Berlin",
            "latitude": 52.3800010681,
            "longitude": 13.5225000381,
            "type": "FP"
        },
        {
            "country_code": "DE",
            "city": "Frankfurt",
            "latitude": 50.1109221,
            "longitude": 8.6821267,
            "type": "FN"
        },
        {
            "country_code": "DE",
            "city": "Stuttgart",
            "latitude": 48.6898994446,
            "longitude": 9.2219600677,
            "type": "FP"
        },
        {
            "country_code": "FR",
            "city": "Creil",
            "latitude": 49.2535018921,
            "longitude": 2.5191400051,
            "type": "TP"
        },
        {
            "country_code": "FR",
            "city": "Marseille",
            "latitude": 43.2961743,
            "longitude": 5.3699525,
            "type": "FN"
        },
        {
            "country_code": "FR",
            "city": "Strasbourg",
            "latitude": 48.5382995605,
            "longitude": 7.6282300949,
            "type": "FP"
        },
        {
            "country_code": "GB",
            "city": "Glasgow",
            "latitude": 55.5093994141,
            "longitude": -4.5866699219,
            "type": "FP"
        },
        {
            "country_code": "GB",
            "city": "St. Ives",
            "latitude": 52.3572006226,
            "longitude": -0.107832998,
            "type": "TP"
        },
        {
            "country_code": "GB",
            "city": "Waddington",
            "latitude": 53.1661987305,
            "longitude": -0.5238109827,
            "type": "FP"
        },
        {
            "country_code": "IT",
            "city": "Alghero",
            "latitude": 40.6320991516,
            "longitude": 8.290769577,
            "type": "FP"
        },
        {
            "country_code": "NL",
            "city": "Amsterdam",
            "latitude": 52.3702157,
            "longitude": 4.8951679,
            "type": "FN"
        },
        {
            "country_code": "SE",
            "city": "Stockholm",
            "latitude": 59.3293235,
            "longitude": 18.0685808,
            "type": "FN"
        },
        {
            "country_code": "SE",
            "city": "Visby",
            "latitude": 57.6627998352,
            "longitude": 18.346200943,
            "type": "FP"
        }
    ]
}