{
    "target": "198.97.190.53",
    "probes_filepath": "datasets/probes_section/North-Central-section_1.5.json",
    "alpha": 0.0,
    "threshold": -1,
    "noise": 0,
    "results_filepath": "datasets/results/campaigns/198.97.190.53_North-Central-section_20230425_alpha_light-factor_0.30/198.97.190.53_North-Central-section_1.5_52652246_0.0_-1_0.json",
    "gt_filepath": "datasets/ground-truth/root_servers/root_servers_H.json",
    "statistics": {
        "TP": 0,
        "FP": 17,
        "TN": 0,
        "FN": 2,
        "accuracy": 0.0,
        "precision": 0.0,
        "recall": 0.0,
        "f1": 0,
        "OT": 0,
        "OF": 0
    },
    "instances": [
        {
            "country_code": "BA",
            "city": "Tuzla",
            "latitude": 44.4586982727,
            "longitude": 18.7248001099,
            "type": "FP"
        },
        {
            "country_code": "BY",
            "city": "Gomel",
            "latitude": 52.5270004272,
            "longitude": 31.0167007446,
            "type": "FP"
        },
        {
            "country_code": "DE",
            "city": "Bremen",
            "latitude": 53.0475006104,
            "longitude": 8.7866697311,
            "type": "FP"
        },
        {
            "country_code": "DE",
            "city": "Frankfurt",
            "latitude": 50.11944,
            "longitude": 8.735556,
            "type": "FN"
        },
        {
            "country_code": "DE",
            "city": "Manching",
            "latitude": 48.7156982422,
            "longitude": 11.5340003967,
            "type": "FP"
        },
        {
            "country_code": "DE",
            "city": "Memmingen",
            "latitude": 47.9888000488,
            "longitude": 10.2395000458,
            "type": "FP"
        },
        {
            "country_code": "DE",
            "city": "Munich",
            "latitude": 48.3538017273,
            "longitude": 11.7861003876,
            "type": "FP"
        },
        {
            "country_code": "FR",
            "city": "Angers/Marc\u00e9",
            "latitude": 47.5602989197,
            "longitude": -0.3122220039,
            "type": "FP"
        },
        {
            "country_code": "FR",
            "city": "Beauvais/Till\u00e9",
            "latitude": 49.4543991089,
            "longitude": 2.1127800941,
            "type": "FP"
        },
        {
            "country_code": "FR",
            "city": "Calais/Dunkerque",
            "latitude": 50.9621009827,
            "longitude": 1.9547599554,
            "type": "FP"
        },
        {
            "country_code": "FR",
            "city": "Le Havre/Octeville",
            "latitude": 49.5339012146,
            "longitude": 0.0880559981,
            "type": "FP"
        },
        {
            "country_code": "FR",
            "city": "Paris",
            "latitude": 49.0127983093,
            "longitude": 2.5499999523,
            "type": "FP"
        },
        {
            "country_code": "FR",
            "city": "Vesoul/Frotey",
            "latitude": 47.6375999451,
            "longitude": 6.2039198875,
            "type": "FP"
        },
        {
            "country_code": "GB",
            "city": "Doncaster",
            "latitude": 53.4805378105,
            "longitude": -1.0106563568,
            "type": "FP"
        },
        {
            "country_code": "GB",
            "city": "London",
            "latitude": 51.523551,
            "longitude": -0.100785,
            "type": "FN"
        },
        {
            "country_code": "IM",
            "city": "Castletown",
            "latitude": 54.0833015442,
            "longitude": -4.6238899231,
            "type": "FP"
        },
        {
            "country_code": "NL",
            "city": "Leeuwarden",
            "latitude": 53.2285995483,
            "longitude": 5.7605600357,
            "type": "FP"
        },
        {
            "country_code": "RU",
            "city": "Kostroma",
            "latitude": 57.7969017029,
            "longitude": 41.0194015503,
            "type": "FP"
        },
        {
            "country_code": "SE",
            "city": "V\u00e4xj\u00f6",
            "latitude": 56.9291000366,
            "longitude": 14.7279996872,
            "type": "FP"
        }
    ]
}