{
    "target": "198.41.0.4",
    "probes_filepath": "datasets/probes_section/North-Central-section_2.json",
    "alpha": 0.0,
    "threshold": -1,
    "noise": 0,
    "results_filepath": "datasets/results/campaigns/198.41.0.4_North-Central-section_20230425_alpha_light-factor_0.35/198.41.0.4_North-Central-section_2_52639249_0.0_-1_0.json",
    "gt_filepath": "datasets/ground-truth/root_servers/root_servers_A.json",
    "statistics": {
        "TP": 1,
        "FP": 10,
        "TN": 0,
        "FN": 5,
        "accuracy": 0.0625,
        "precision": 0.09090909090909091,
        "recall": 0.16666666666666666,
        "f1": 0.11764705882352942,
        "OT": 0,
        "OF": 0
    },
    "instances": [
        {
            "country_code": "BE",
            "city": "Brussels",
            "latitude": 50.4592018127,
            "longitude": 4.4538202286,
            "type": "FP"
        },
        {
            "country_code": "CZ",
            "city": "Karlovy Vary",
            "latitude": 50.202999115,
            "longitude": 12.9149999619,
            "type": "FP"
        },
        {
            "country_code": "DE",
            "city": "Frankfurt",
            "latitude": 50.1109221,
            "longitude": 8.6821267,
            "type": "FN"
        },
        {
            "country_code": "ES",
            "city": "Barcelona",
            "latitude": 41.2971000671,
            "longitude": 2.0784599781,
            "type": "FP"
        },
        {
            "country_code": "ES",
            "city": "Zaragoza",
            "latitude": 41.6661987305,
            "longitude": -1.0415500402,
            "type": "FP"
        },
        {
            "country_code": "FI",
            "city": "Kauhava",
            "latitude": 63.1271018982,
            "longitude": 23.051399231,
            "type": "FP"
        },
        {
            "country_code": "FR",
            "city": "Marseille",
            "latitude": 43.2961743,
            "longitude": 5.3699525,
            "type": "FN"
        },
        {
            "country_code": "FR",
            "city": "Paris",
            "latitude": 48.856614,
            "longitude": 2.3522219,
            "type": "FN"
        },
        {
            "country_code": "FR",
            "city": "Royan/M\u00e9dis",
            "latitude": 45.6281013489,
            "longitude": -0.9725000262,
            "type": "FP"
        },
        {
            "country_code": "GB",
            "city": "London",
            "latitude": 51.5073509,
            "longitude": -0.1277583,
            "type": "FN"
        },
        {
            "country_code": "GB",
            "city": "Swansea",
            "latitude": 51.6053009033,
            "longitude": -4.0678300858,
            "type": "FP"
        },
        {
            "country_code": "IT",
            "city": "Venice",
            "latitude": 45.5052986145,
            "longitude": 12.3519001007,
            "type": "FP"
        },
        {
            "country_code": "NL",
            "city": "Amsterdam",
            "latitude": 52.3702157,
            "longitude": 4.8951679,
            "type": "FN"
        },
        {
            "country_code": "RU",
            "city": "Kaliningrad",
            "latitude": 54.8899993896,
            "longitude": 20.5925998688,
            "type": "FP"
        },
        {
            "country_code": "SE",
            "city": "Stockholm",
            "latitude": 59.6519012451,
            "longitude": 17.9186000824,
            "type": "TP"
        },
        {
            "country_code": "SE",
            "city": "S\u00f6derhamn",
            "latitude": 61.2615013123,
            "longitude": 17.0991001129,
            "type": "FP"
        }
    ]
}