{
    "target": "198.41.0.4",
    "measurement_filepath": "datasets/measurements/campaigns/198.41.0.4_North-Central-section_20230425/198.41.0.4_North-Central-section_1_52638506.json",
    "probes_filepath": "datasets/probes_section/North-Central-section_1.json",
    "alpha": 1.0,
    "threshold": -1,
    "noise": 0,
    "num_anycast_instances": 13,
    "anycast_instances": [
        {
            "marker": {
                "id": "ARN",
                "latitude": 59.6519012451,
                "longitude": 17.9186000824,
                "city": "Stockholm",
                "country_code": "SE"
            },
            "circle": {
                "id": "52699",
                "latitude": 59.5415,
                "longitude": 17.9415,
                "radius": 78.59811765539581
            }
        },
        {
            "marker": {
                "id": "BQH",
                "latitude": 51.3307991028,
                "longitude": 0.0324999988,
                "city": "London",
                "country_code": "GB"
            },
            "circle": {
                "id": "20706",
                "latitude": 51.3905,
                "longitude": 0.1075,
                "radius": 128.3301788658372
            }
        },
        {
            "marker": {
                "id": "AMX",
                "latitude": 52.3086013794,
                "longitude": 4.7638897896,
                "city": "Amsterdam",
                "country_code": "NL"
            },
            "circle": {
                "id": "11698",
                "latitude": 52.0915,
                "longitude": 5.1815,
                "radius": 130.4729454593922
            }
        },
        {
            "marker": {
                "id": "GLA",
                "latitude": 55.8718986511,
                "longitude": -4.4330601692,
                "city": "Glasgow",
                "country_code": "GB"
            },
            "circle": {
                "id": "24889",
                "latitude": 55.5415,
                "longitude": -4.6585,
                "radius": 244.93063305109771
            }
        },
        {
            "marker": {
                "id": "TRN",
                "latitude": 45.2008018494,
                "longitude": 7.6496300697,
                "city": "Torino",
                "country_code": "IT"
            },
            "circle": {
                "id": "6495",
                "latitude": 45.7795,
                "longitude": 4.8715,
                "radius": 251.4039916382001
            }
        },
        {
            "marker": {
                "id": "PAR",
                "latitude": 49.0127983093,
                "longitude": 2.5499999523,
                "city": "Paris",
                "country_code": "FR"
            },
            "circle": {
                "id": "19856",
                "latitude": 47.0605,
                "longitude": 2.4095,
                "radius": 307.503419812218
            }
        },
        {
            "marker": {
                "id": "LED",
                "latitude": 59.8003005981,
                "longitude": 30.2625007629,
                "city": "St Petersburg",
                "country_code": "RU"
            },
            "circle": {
                "id": "6707",
                "latitude": 60.5705,
                "longitude": 27.1875,
                "radius": 349.7987093925282
            }
        },
        {
            "marker": {
                "id": "NIX",
                "latitude": 60.193901062,
                "longitude": 11.100399971,
                "city": "Oslo",
                "country_code": "NO"
            },
            "circle": {
                "id": "19479",
                "latitude": 59.9415,
                "longitude": 10.8005,
                "radius": 380.03361820071063
            }
        },
        {
            "marker": {
                "id": "SXF",
                "latitude": 52.3800010681,
                "longitude": 13.5225000381,
                "city": "Berlin",
                "country_code": "DE"
            },
            "circle": {
                "id": "6880",
                "latitude": 53.6075,
                "longitude": 10.0315,
                "radius": 356.8028805057654
            }
        },
        {
            "marker": {
                "id": "FICIX",
                "latitude": 60.1733244,
                "longitude": 24.9410248,
                "city": "Helsinki",
                "country_code": "FI"
            },
            "circle": {
                "id": "12063",
                "latitude": 65.7385,
                "longitude": 24.5705,
                "radius": 708.0399641325318
            }
        },
        {
            "marker": {
                "id": "CIA",
                "latitude": 41.7994003296,
                "longitude": 12.5949001312,
                "city": "Rome",
                "country_code": "IT"
            },
            "circle": {
                "id": "567",
                "latitude": 36.8205,
                "longitude": 10.1805,
                "radius": 763.3858939426124
            }
        },
        {
            "marker": {
                "id": "ECV",
                "latitude": 40.3707008362,
                "longitude": -3.7851400375,
                "city": "Madrid",
                "country_code": "ES"
            },
            "circle": {
                "id": "30145",
                "latitude": 33.9695,
                "longitude": -6.9005,
                "radius": 1595.3168001606548
            }
        },
        {
            "marker": {
                "id": "IST",
                "latitude": 40.9768981934,
                "longitude": 28.8145999908,
                "city": "Istanbul",
                "country_code": "TR"
            },
            "circle": {
                "id": "60548",
                "latitude": 33.8915,
                "longitude": 35.4995,
                "radius": 1727.5673649997584
            }
        }
    ]
}