{
    "target": "202.12.27.33",
    "measurement_filepath": "datasets/measurements/campaigns/202.12.27.33_North-Central_20230410/202.12.27.33_North-Central_300_52101188.json",
    "probes_filepath": "datasets/probes_sets/North-Central_300.json",
    "alpha": 0.0,
    "threshold": -1,
    "noise": 0,
    "num_anycast_instances": 12,
    "anycast_instances": [
        {
            "marker": {
                "id": "LBG",
                "latitude": 48.9693984985,
                "longitude": 2.4413900375,
                "city": "Paris",
                "country_code": "FR"
            },
            "circle": {
                "id": "1000724",
                "latitude": 48.7695,
                "longitude": 2.3785,
                "radius": 29.634784265757997
            }
        },
        {
            "marker": {
                "id": "CBG",
                "latitude": 52.2050018311,
                "longitude": 0.174999997,
                "city": "Cambridge",
                "country_code": "GB"
            },
            "circle": {
                "id": "1004867",
                "latitude": 51.0205,
                "longitude": 2.1605,
                "radius": 192.49924804363573
            }
        },
        {
            "marker": {
                "id": "BSL",
                "latitude": 47.5895996094,
                "longitude": 7.5299100876,
                "city": "B\u00e2le/Mulhouse",
                "country_code": "FR"
            },
            "circle": {
                "id": "19671",
                "latitude": 45.7775,
                "longitude": 4.9205,
                "radius": 287.99577467392896
            }
        },
        {
            "marker": {
                "id": "LUG",
                "latitude": 46.0042991638,
                "longitude": 8.9105796814,
                "city": "Lugano",
                "country_code": "CH"
            },
            "circle": {
                "id": "23224",
                "latitude": 43.9395,
                "longitude": 4.8985,
                "radius": 391.6474805910817
            }
        },
        {
            "marker": {
                "id": "WIC",
                "latitude": 58.4589004517,
                "longitude": -3.0930600166,
                "city": "Wick",
                "country_code": "GB"
            },
            "circle": {
                "id": "14699",
                "latitude": 60.6215,
                "longitude": 16.7815,
                "radius": 1146.2810086704987
            }
        },
        {
            "marker": {
                "id": "QMZ",
                "latitude": 49.9674987793,
                "longitude": 8.1472215652,
                "city": "Mainz",
                "country_code": "DE"
            },
            "circle": {
                "id": "32130",
                "latitude": 55.7175,
                "longitude": 12.4385,
                "radius": 709.0261389179342
            }
        },
        {
            "marker": {
                "id": "ILZ",
                "latitude": 49.2314987183,
                "longitude": 18.6135005951,
                "city": "\u017dilina",
                "country_code": "SK"
            },
            "circle": {
                "id": "19469",
                "latitude": 59.6615,
                "longitude": 18.2805,
                "radius": 1162.1018061603038
            }
        },
        {
            "marker": {
                "id": "NKC",
                "latitude": 18.0981998444,
                "longitude": -15.9484996796,
                "city": "Nouakchott",
                "country_code": "MR"
            },
            "circle": {
                "id": "1004118",
                "latitude": 32.6515,
                "longitude": -16.9325,
                "radius": 1655.5255285253475
            }
        },
        {
            "marker": {
                "id": "LAI",
                "latitude": 48.7543983459,
                "longitude": -3.4716598988,
                "city": "Lannion",
                "country_code": "FR"
            },
            "circle": {
                "id": "1004691",
                "latitude": 45.6675,
                "longitude": -0.9385,
                "radius": 398.72119605976354
            }
        },
        {
            "marker": {
                "id": "LRT",
                "latitude": 47.7606010437,
                "longitude": -3.4400000572,
                "city": "Lorient/Lann/Bihou\u00e9",
                "country_code": "FR"
            },
            "circle": {
                "id": "33971",
                "latitude": 39.4575,
                "longitude": -0.3795,
                "radius": 960.5991160698975
            }
        },
        {
            "marker": {
                "id": "PEV",
                "latitude": 45.9908981323,
                "longitude": 18.2409992218,
                "city": "P\u00e9cs-Pog\u00e1ny",
                "country_code": "HU"
            },
            "circle": {
                "id": "13084",
                "latitude": 35.1595,
                "longitude": 33.3715,
                "radius": 1753.6447894744538
            }
        },
        {
            "marker": {
                "id": "URS",
                "latitude": 51.7505989075,
                "longitude": 36.2956008911,
                "city": "Kursk",
                "country_code": "RU"
            },
            "circle": {
                "id": "22863",
                "latitude": 61.4985,
                "longitude": 23.7605,
                "radius": 1352.8232849279996
            }
        }
    ]
}