{
    "target": "202.12.27.33",
    "measurement_filepath": "datasets/measurements/campaigns/202.12.27.33_North-Central_20230410/202.12.27.33_North-Central_100_52101175.json",
    "probes_filepath": "datasets/probes_sets/North-Central_100.json",
    "alpha": 0.0,
    "threshold": -1,
    "noise": 0,
    "num_anycast_instances": 6,
    "anycast_instances": [
        {
            "marker": {
                "id": "XBQ",
                "latitude": 47.6785011292,
                "longitude": 1.2088400126,
                "city": "Blois/Le Breuil",
                "country_code": "FR"
            },
            "circle": {
                "id": "27289",
                "latitude": 48.8115,
                "longitude": 2.3115,
                "radius": 163.87592605711248
            }
        },
        {
            "marker": {
                "id": "XBV",
                "latitude": 47.0059013367,
                "longitude": 4.8934202194,
                "city": "Beaune/Challanges",
                "country_code": "FR"
            },
            "circle": {
                "id": "24385",
                "latitude": 41.3895,
                "longitude": 2.1715,
                "radius": 669.2060557878552
            }
        },
        {
            "marker": {
                "id": "XCZ",
                "latitude": 49.7839012146,
                "longitude": 4.6470799446,
                "city": "Charleville-M\u00e9zi\u00e8res",
                "country_code": "FR"
            },
            "circle": {
                "id": "61183",
                "latitude": 56.2185,
                "longitude": 15.4215,
                "radius": 1020.2213904282504
            }
        },
        {
            "marker": {
                "id": "CBG",
                "latitude": 52.2050018311,
                "longitude": 0.174999997,
                "city": "Cambridge",
                "country_code": "GB"
            },
            "circle": {
                "id": "1004867",
                "latitude": 51.0205,
                "longitude": 2.1605,
                "radius": 193.26529272194023
            }
        },
        {
            "marker": {
                "id": "LJU",
                "latitude": 46.2237014771,
                "longitude": 14.4575996399,
                "city": "Ljubljana",
                "country_code": "SI"
            },
            "circle": {
                "id": "61481",
                "latitude": 56.9575,
                "longitude": 24.2415,
                "radius": 1370.7558204919567
            }
        },
        {
            "marker": {
                "id": "UUA",
                "latitude": 54.6399993896,
                "longitude": 52.801700592,
                "city": "Bugulma",
                "country_code": "RU"
            },
            "circle": {
                "id": "10234",
                "latitude": 60.0195,
                "longitude": 30.2485,
                "radius": 1474.952249305295
            }
        }
    ]
}