{
    "target": "192.203.230.10",
    "measurement_filepath": "datasets/measurements/campaigns/192.203.230.10_North-Central_20230410/192.203.230.10_North-Central_100_52070327.json",
    "probes_filepath": "datasets/probes_sets/North-Central_100.json",
    "alpha": 0.0,
    "threshold": -1,
    "noise": 0,
    "num_anycast_instances": 22,
    "anycast_instances": [
        {
            "marker": {
                "id": "CSF",
                "latitude": 49.2535018921,
                "longitude": 2.5191400051,
                "city": "Creil",
                "country_code": "FR"
            },
            "circle": {
                "id": "1003845",
                "latitude": 48.8995,
                "longitude": 2.2995,
                "radius": 48.145919273655004
            }
        },
        {
            "marker": {
                "id": "PRG",
                "latitude": 50.1007995605,
                "longitude": 14.2600002289,
                "city": "Prague",
                "country_code": "CZ"
            },
            "circle": {
                "id": "1004003",
                "latitude": 50.1285,
                "longitude": 14.4975,
                "radius": 57.7428154806594
            }
        },
        {
            "marker": {
                "id": "STR",
                "latitude": 48.6898994446,
                "longitude": 9.2219600677,
                "city": "Stuttgart",
                "country_code": "DE"
            },
            "circle": {
                "id": "22152",
                "latitude": 48.7785,
                "longitude": 9.1795,
                "radius": 66.35044154513251
            }
        },
        {
            "marker": {
                "id": "QAR",
                "latitude": 52.0606002808,
                "longitude": 5.8730602264,
                "city": "Arnhem",
                "country_code": "NL"
            },
            "circle": {
                "id": "32321",
                "latitude": 52.3975,
                "longitude": 4.8385,
                "radius": 81.3177448966344
            }
        },
        {
            "marker": {
                "id": "NQT",
                "latitude": 52.9199981689,
                "longitude": -1.0791699886,
                "city": "Nottingham",
                "country_code": "GB"
            },
            "circle": {
                "id": "61364",
                "latitude": 53.6595,
                "longitude": -1.8095,
                "radius": 97.2282702691188
            }
        },
        {
            "marker": {
                "id": "KEF",
                "latitude": 63.9850006104,
                "longitude": -22.6056003571,
                "city": "Reykjav\u00edk",
                "country_code": "IS"
            },
            "circle": {
                "id": "54607",
                "latitude": 64.0505,
                "longitude": -21.9925,
                "radius": 105.3658367490708
            }
        },
        {
            "marker": {
                "id": "TOJ",
                "latitude": 40.4967002869,
                "longitude": -3.4458699226,
                "city": "Madrid",
                "country_code": "ES"
            },
            "circle": {
                "id": "33818",
                "latitude": 40.2915,
                "longitude": -3.8325,
                "radius": 141.2201003588739
            }
        },
        {
            "marker": {
                "id": "QUY",
                "latitude": 52.3572006226,
                "longitude": -0.107832998,
                "city": "St. Ives",
                "country_code": "GB"
            },
            "circle": {
                "id": "11461",
                "latitude": 51.1375,
                "longitude": -0.4795,
                "radius": 150.24094535783132
            }
        },
        {
            "marker": {
                "id": "ZIA",
                "latitude": 46.0214004517,
                "longitude": 11.1241998672,
                "city": "Trento",
                "country_code": "IT"
            },
            "circle": {
                "id": "32124",
                "latitude": 45.4895,
                "longitude": 9.2385,
                "radius": 159.0260185781946
            }
        },
        {
            "marker": {
                "id": "BSL",
                "latitude": 47.5895996094,
                "longitude": 7.5299100876,
                "city": "B\u00e2le/Mulhouse",
                "country_code": "FR"
            },
            "circle": {
                "id": "61988",
                "latitude": 47.4915,
                "longitude": 8.7215,
                "radius": 109.01533025728801
            }
        },
        {
            "marker": {
                "id": "BXP",
                "latitude": 52.0057983398,
                "longitude": 23.1436004639,
                "city": "Bia\u0142a Podlaska",
                "country_code": "PL"
            },
            "circle": {
                "id": "50831",
                "latitude": 53.1275,
                "longitude": 23.1685,
                "radius": 173.2744046257896
            }
        },
        {
            "marker": {
                "id": "VOL",
                "latitude": 39.2196006775,
                "longitude": 22.7943000793,
                "city": "Nea Anchialos",
                "country_code": "GR"
            },
            "circle": {
                "id": "62748",
                "latitude": 37.9815,
                "longitude": 23.7595,
                "radius": 177.27748834859491
            }
        },
        {
            "marker": {
                "id": "EPU",
                "latitude": 58.4189987183,
                "longitude": 24.4727993011,
                "city": "P\u00e4rnu",
                "country_code": "EE"
            },
            "circle": {
                "id": "54507",
                "latitude": 60.1305,
                "longitude": 24.4675,
                "radius": 190.89284763150002
            }
        },
        {
            "marker": {
                "id": "LTN",
                "latitude": 51.8746986389,
                "longitude": -0.3683330119,
                "city": "London",
                "country_code": "GB"
            },
            "circle": {
                "id": "1004370",
                "latitude": 51.5175,
                "longitude": -3.1995,
                "radius": 199.70836477597322
            }
        },
        {
            "marker": {
                "id": "KLF",
                "latitude": 54.5499992371,
                "longitude": 36.3666687012,
                "city": "Kaluga",
                "country_code": "RU"
            },
            "circle": {
                "id": "55348",
                "latitude": 54.6615,
                "longitude": 39.6695,
                "radius": 215.14977491017922
            }
        },
        {
            "marker": {
                "id": "SKG",
                "latitude": 40.5196990967,
                "longitude": 22.9708995819,
                "city": "Thessaloniki",
                "country_code": "GR"
            },
            "circle": {
                "id": "28731",
                "latitude": 41.9875,
                "longitude": 21.4485,
                "radius": 223.05206426909277
            }
        },
        {
            "marker": {
                "id": "NVS",
                "latitude": 47.0026016235,
                "longitude": 3.1133298874,
                "city": "Nevers/Fourchambault",
                "country_code": "FR"
            },
            "circle": {
                "id": "24221",
                "latitude": 45.1675,
                "longitude": 5.6885,
                "radius": 299.4569152913835
            }
        },
        {
            "marker": {
                "id": "BOU",
                "latitude": 47.0581016541,
                "longitude": 2.3702800274,
                "city": "Bourges",
                "country_code": "FR"
            },
            "circle": {
                "id": "28185",
                "latitude": 47.2395,
                "longitude": -1.5585,
                "radius": 301.7564883300954
            }
        },
        {
            "marker": {
                "id": "OPO",
                "latitude": 41.2481002808,
                "longitude": -8.6813898087,
                "city": "Porto",
                "country_code": "PT"
            },
            "circle": {
                "id": "1001333",
                "latitude": 38.6885,
                "longitude": -9.3615,
                "radius": 318.6394205193486
            }
        },
        {
            "marker": {
                "id": "OZH",
                "latitude": 47.8670005798,
                "longitude": 35.315700531,
                "city": "Zaporizhia",
                "country_code": "UA"
            },
            "circle": {
                "id": "22642",
                "latitude": 46.4685,
                "longitude": 30.6995,
                "radius": 387.9208429886097
            }
        },
        {
            "marker": {
                "id": "VNT",
                "latitude": 57.35779953,
                "longitude": 21.5442008972,
                "city": "Ventspils",
                "country_code": "LV"
            },
            "circle": {
                "id": "30481",
                "latitude": 57.6875,
                "longitude": 11.9915,
                "radius": 571.8505760839956
            }
        },
        {
            "marker": {
                "id": "SIP",
                "latitude": 45.0522003174,
                "longitude": 33.9751014709,
                "city": "Simferopol",
                "country_code": "UA"
            },
            "circle": {
                "id": "62733",
                "latitude": 39.8985,
                "longitude": 32.7785,
                "radius": 587.1410257259757
            }
        }
    ]
}