{
    "target": "192.33.4.12",
    "measurement_filepath": "datasets/measurements/campaigns/192.33.4.12_North-Central-section_20230425/192.33.4.12_North-Central-section_1_52641149.json",
    "probes_filepath": "datasets/probes_section/North-Central-section_1.json",
    "alpha": 0.6,
    "threshold": -1,
    "noise": 0,
    "num_anycast_instances": 36,
    "anycast_instances": [
        {
            "marker": {
                "id": "FRA",
                "latitude": 50.0264015198,
                "longitude": 8.543129921,
                "city": "Frankfurt-am-Main",
                "country_code": "DE"
            },
            "circle": {
                "id": "6413",
                "latitude": 50.1385,
                "longitude": 8.7375,
                "radius": 20.125934105743617
            }
        },
        {
            "marker": {
                "id": "WIE",
                "latitude": 48.1102981567,
                "longitude": 16.5697002411,
                "city": "Vienna",
                "country_code": "AT"
            },
            "circle": {
                "id": "6886",
                "latitude": 48.1905,
                "longitude": 16.3515,
                "radius": 59.3919588024945
            }
        },
        {
            "marker": {
                "id": "STR",
                "latitude": 48.6898994446,
                "longitude": 9.2219600677,
                "city": "Stuttgart",
                "country_code": "DE"
            },
            "circle": {
                "id": "6683",
                "latitude": 48.7485,
                "longitude": 9.1115,
                "radius": 100.67111383811202
            }
        },
        {
            "marker": {
                "id": "ORY",
                "latitude": 48.7252998352,
                "longitude": 2.3594400883,
                "city": "Paris",
                "country_code": "FR"
            },
            "circle": {
                "id": "1005603",
                "latitude": 49.2285,
                "longitude": 1.3375,
                "radius": 110.42666920766376
            }
        },
        {
            "marker": {
                "id": "TOJ",
                "latitude": 40.4967002869,
                "longitude": -3.4458699226,
                "city": "Madrid",
                "country_code": "ES"
            },
            "circle": {
                "id": "60374",
                "latitude": 40.0995,
                "longitude": -4.0495,
                "radius": 115.40871620829432
            }
        },
        {
            "marker": {
                "id": "LYS",
                "latitude": 45.726398468,
                "longitude": 5.0908298492,
                "city": "Lyon",
                "country_code": "FR"
            },
            "circle": {
                "id": "12015",
                "latitude": 45.7195,
                "longitude": 4.8575,
                "radius": 178.4730756607218
            }
        },
        {
            "marker": {
                "id": "TUF",
                "latitude": 47.4322013855,
                "longitude": 0.7276059985,
                "city": "Tours/Val de Loire (Loire Valley)",
                "country_code": "FR"
            },
            "circle": {
                "id": "19856",
                "latitude": 47.0605,
                "longitude": 2.4095,
                "radius": 151.5018994175005
            }
        },
        {
            "marker": {
                "id": "BIX",
                "latitude": 47.4812134,
                "longitude": 19.1303031,
                "city": "Budapest",
                "country_code": "HU"
            },
            "circle": {
                "id": "1002776",
                "latitude": 48.7405,
                "longitude": 21.2805,
                "radius": 217.07182530238086
            }
        },
        {
            "marker": {
                "id": "TNG",
                "latitude": 35.7268981934,
                "longitude": -5.9168901444,
                "city": "Tangier",
                "country_code": "MA"
            },
            "circle": {
                "id": "29491",
                "latitude": 36.7775,
                "longitude": -4.1085,
                "radius": 225.76855268329615
            }
        },
        {
            "marker": {
                "id": "CGN",
                "latitude": 50.8658981323,
                "longitude": 7.1427397728,
                "city": "Cologne",
                "country_code": "DE"
            },
            "circle": {
                "id": "6514",
                "latitude": 51.9195,
                "longitude": 4.4675,
                "radius": 234.63809542662548
            }
        },
        {
            "marker": {
                "id": "SXB",
                "latitude": 48.5382995605,
                "longitude": 7.6282300949,
                "city": "Strasbourg",
                "country_code": "FR"
            },
            "circle": {
                "id": "6443",
                "latitude": 48.6985,
                "longitude": 6.1395,
                "radius": 159.67149272574065
            }
        },
        {
            "marker": {
                "id": "BRU",
                "latitude": 50.9014015198,
                "longitude": 4.4844398499,
                "city": "Brussels",
                "country_code": "BE"
            },
            "circle": {
                "id": "13471",
                "latitude": 50.6275,
                "longitude": 3.0605,
                "radius": 160.26664670921144
            }
        },
        {
            "marker": {
                "id": "BIO",
                "latitude": 43.3011016846,
                "longitude": -2.9106099606,
                "city": "Bilbao",
                "country_code": "ES"
            },
            "circle": {
                "id": "1004918",
                "latitude": 44.8215,
                "longitude": -0.5525,
                "radius": 265.18305559072064
            }
        },
        {
            "marker": {
                "id": "STN",
                "latitude": 51.8849983215,
                "longitude": 0.2349999994,
                "city": "London",
                "country_code": "GB"
            },
            "circle": {
                "id": "1004370",
                "latitude": 51.5175,
                "longitude": -3.1995,
                "radius": 270.3524339045817
            }
        },
        {
            "marker": {
                "id": "SEN",
                "latitude": 51.5713996887,
                "longitude": 0.695555985,
                "city": "Southend",
                "country_code": "GB"
            },
            "circle": {
                "id": "6696",
                "latitude": 51.0205,
                "longitude": 2.1615,
                "radius": 140.78982922937854
            }
        },
        {
            "marker": {
                "id": "NTE",
                "latitude": 47.1531982422,
                "longitude": -1.610730052,
                "city": "Nantes",
                "country_code": "FR"
            },
            "circle": {
                "id": "31863",
                "latitude": 48.5285,
                "longitude": -2.7695,
                "radius": 248.15279639383255
            }
        },
        {
            "marker": {
                "id": "TXL",
                "latitude": 52.5597000122,
                "longitude": 13.2876996994,
                "city": "Berlin",
                "country_code": "DE"
            },
            "circle": {
                "id": "52222",
                "latitude": 51.0385,
                "longitude": 13.7885,
                "radius": 276.4247691143912
            }
        },
        {
            "marker": {
                "id": "ZAG",
                "latitude": 45.7429008484,
                "longitude": 16.0687999725,
                "city": "Zagreb",
                "country_code": "HR"
            },
            "circle": {
                "id": "52794",
                "latitude": 46.5895,
                "longitude": 14.2715,
                "radius": 231.73919529342746
            }
        },
        {
            "marker": {
                "id": "MUC",
                "latitude": 48.3538017273,
                "longitude": 11.7861003876,
                "city": "Munich",
                "country_code": "DE"
            },
            "circle": {
                "id": "18682",
                "latitude": 49.7585,
                "longitude": 13.3515,
                "radius": 237.13880522125876
            }
        },
        {
            "marker": {
                "id": "BCN",
                "latitude": 41.2971000671,
                "longitude": 2.0784599781,
                "city": "Barcelona",
                "country_code": "ES"
            },
            "circle": {
                "id": "20136",
                "latitude": 39.6005,
                "longitude": 2.6785,
                "radius": 306.1959049858968
            }
        },
        {
            "marker": {
                "id": "VLC",
                "latitude": 39.4892997742,
                "longitude": -0.4816249907,
                "city": "Valencia",
                "country_code": "ES"
            },
            "circle": {
                "id": "62255",
                "latitude": 37.9795,
                "longitude": -1.1105,
                "radius": 254.20365447195095
            }
        },
        {
            "marker": {
                "id": "SOF",
                "latitude": 42.6966934204,
                "longitude": 23.4114360809,
                "city": "Sofia",
                "country_code": "BG"
            },
            "circle": {
                "id": "52040",
                "latitude": 43.8875,
                "longitude": 20.3495,
                "radius": 311.4622541682225
            }
        },
        {
            "marker": {
                "id": "BEG",
                "latitude": 44.8184013367,
                "longitude": 20.3090991974,
                "city": "Belgrade",
                "country_code": "RS"
            },
            "circle": {
                "id": "61257",
                "latitude": 44.8105,
                "longitude": 20.3895,
                "radius": 247.05533115320904
            }
        },
        {
            "marker": {
                "id": "SLM",
                "latitude": 40.9520988464,
                "longitude": -5.5019898415,
                "city": "Salamanca",
                "country_code": "ES"
            },
            "circle": {
                "id": "60741",
                "latitude": 42.2375,
                "longitude": -8.7205,
                "radius": 312.67649456708614
            }
        },
        {
            "marker": {
                "id": "ROM",
                "latitude": 41.799444,
                "longitude": 12.597222,
                "city": "Rome",
                "country_code": "IT"
            },
            "circle": {
                "id": "53207",
                "latitude": 41.9305,
                "longitude": 8.7875,
                "radius": 435.2008327328037
            }
        },
        {
            "marker": {
                "id": "GML",
                "latitude": 50.6035003662,
                "longitude": 30.1919002533,
                "city": "Kiev",
                "country_code": "UA"
            },
            "circle": {
                "id": "4133",
                "latitude": 49.4185,
                "longitude": 32.0585,
                "radius": 570.7988082077451
            }
        },
        {
            "marker": {
                "id": "BBU",
                "latitude": 44.503200531,
                "longitude": 26.1021003723,
                "city": "Bucharest",
                "country_code": "RO"
            },
            "circle": {
                "id": "51867",
                "latitude": 46.1805,
                "longitude": 25.2205,
                "radius": 384.28931904032504
            }
        },
        {
            "marker": {
                "id": "RKE",
                "latitude": 55.5856018066,
                "longitude": 12.1314001083,
                "city": "Copenhagen",
                "country_code": "DK"
            },
            "circle": {
                "id": "20721",
                "latitude": 59.2575,
                "longitude": 18.0985,
                "radius": 600.2038884942589
            }
        },
        {
            "marker": {
                "id": "MSQ",
                "latitude": 53.8824996948,
                "longitude": 28.0307006836,
                "city": "Minsk",
                "country_code": "BY"
            },
            "circle": {
                "id": "32773",
                "latitude": 53.1685,
                "longitude": 22.0705,
                "radius": 457.316477390595
            }
        },
        {
            "marker": {
                "id": "LED",
                "latitude": 59.8003005981,
                "longitude": 30.2625007629,
                "city": "St Petersburg",
                "country_code": "RU"
            },
            "circle": {
                "id": "34182",
                "latitude": 60.0585,
                "longitude": 24.4415,
                "radius": 601.8748417174135
            }
        },
        {
            "marker": {
                "id": "CMN",
                "latitude": 33.3675003052,
                "longitude": -7.5899701118,
                "city": "Casablanca",
                "country_code": "MA"
            },
            "circle": {
                "id": "1004118",
                "latitude": 32.6515,
                "longitude": -16.9325,
                "radius": 939.1519876079742
            }
        },
        {
            "marker": {
                "id": "KEF",
                "latitude": 63.9850006104,
                "longitude": -22.6056003571,
                "city": "Reykjav\u00edk",
                "country_code": "IS"
            },
            "circle": {
                "id": "1000959",
                "latitude": 64.0715,
                "longitude": -22.0205,
                "radius": 1119.5731956047434
            }
        },
        {
            "marker": {
                "id": "BHX",
                "latitude": 52.4538993835,
                "longitude": -1.7480299473,
                "city": "Birmingham",
                "country_code": "GB"
            },
            "circle": {
                "id": "1005649",
                "latitude": 56.3515,
                "longitude": -4.3805,
                "radius": 506.96701903585705
            }
        },
        {
            "marker": {
                "id": "IST",
                "latitude": 40.9768981934,
                "longitude": 28.8145999908,
                "city": "Istanbul",
                "country_code": "TR"
            },
            "circle": {
                "id": "54976",
                "latitude": 31.5305,
                "longitude": 35.0905,
                "radius": 1416.781325697725
            }
        },
        {
            "marker": {
                "id": "IKA",
                "latitude": 35.4160995483,
                "longitude": 51.1521987915,
                "city": "Tehran",
                "country_code": "IR"
            },
            "circle": {
                "id": "33775",
                "latitude": 42.1095,
                "longitude": 42.9205,
                "radius": 1082.0053482842584
            }
        },
        {
            "marker": {
                "id": "MMK",
                "latitude": 68.7817001343,
                "longitude": 32.7508010864,
                "city": "Murmansk",
                "country_code": "RU"
            },
            "circle": {
                "id": "4842",
                "latitude": 78.2085,
                "longitude": 15.6195,
                "radius": 1578.306597079207
            }
        }
    ]
}