{
    "target": "192.36.148.17",
    "measurement_filepath": "datasets/measurements/campaigns/192.36.148.17_North-Central_20230410/192.36.148.17_North-Central_100_52072179.json",
    "probes_filepath": "datasets/probes_sets/North-Central_100.json",
    "alpha": 1,
    "threshold": 5.0,
    "noise": 0,
    "num_anycast_instances": 9,
    "anycast_instances": [
        {
            "marker": {
                "id": "LCY",
                "latitude": 51.5052986145,
                "longitude": 0.0552779995,
                "city": "London",
                "country_code": "GB"
            },
            "circle": {
                "id": "15634",
                "latitude": 51.5095,
                "longitude": -0.0015,
                "radius": 18.18724673108525
            }
        },
        {
            "marker": {
                "id": "DEX",
                "latitude": 50.121212,
                "longitude": 8.6365638,
                "city": "Frankfurt-am-Main",
                "country_code": "DE"
            },
            "circle": {
                "id": "1004810",
                "latitude": 50.0975,
                "longitude": 8.6275,
                "radius": 31.03020573557625
            }
        },
        {
            "marker": {
                "id": "FICIX",
                "latitude": 60.1733244,
                "longitude": 24.9410248,
                "city": "Helsinki",
                "country_code": "FI"
            },
            "circle": {
                "id": "28294",
                "latitude": 60.1595,
                "longitude": 24.9315,
                "radius": 41.124854855409495
            }
        },
        {
            "marker": {
                "id": "ARN",
                "latitude": 59.6519012451,
                "longitude": 17.9186000824,
                "city": "Stockholm",
                "country_code": "SE"
            },
            "circle": {
                "id": "60336",
                "latitude": 59.3405,
                "longitude": 18.0885,
                "radius": 68.3179794469865
            }
        },
        {
            "marker": {
                "id": "LIN",
                "latitude": 45.445098877,
                "longitude": 9.2767400742,
                "city": "Milan",
                "country_code": "IT"
            },
            "circle": {
                "id": "51769",
                "latitude": 45.6015,
                "longitude": 9.8905,
                "radius": 91.50070537978301
            }
        },
        {
            "marker": {
                "id": "CPH",
                "latitude": 55.6179008484,
                "longitude": 12.6560001373,
                "city": "Copenhagen",
                "country_code": "DK"
            },
            "circle": {
                "id": "62426",
                "latitude": 55.6705,
                "longitude": 12.5685,
                "radius": 107.9177151204355
            }
        },
        {
            "marker": {
                "id": "RIX",
                "latitude": 56.9235992432,
                "longitude": 23.9710998535,
                "city": "Riga",
                "country_code": "LV"
            },
            "circle": {
                "id": "53256",
                "latitude": 56.6505,
                "longitude": 23.7195,
                "radius": 113.0608046336545
            }
        },
        {
            "marker": {
                "id": "BRU",
                "latitude": 50.9014015198,
                "longitude": 4.4844398499,
                "city": "Brussels",
                "country_code": "BE"
            },
            "circle": {
                "id": "61935",
                "latitude": 52.0495,
                "longitude": 5.2385,
                "radius": 145.25656597187748
            }
        },
        {
            "marker": {
                "id": "BEG",
                "latitude": 44.8184013367,
                "longitude": 20.3090991974,
                "city": "Belgrade",
                "country_code": "RS"
            },
            "circle": {
                "id": "60065",
                "latitude": 44.7595,
                "longitude": 20.4905,
                "radius": 146.04794311288302
            }
        }
    ]
}