{
    "target": "192.33.4.12",
    "probes_filepath": "datasets/probes_section/North-Central-section_2.json",
    "alpha": 1,
    "threshold": 10.0,
    "noise": 0,
    "results_filepath": "datasets/results/campaigns/192.33.4.12_North-Central-section_20230425_threshold_light-factor_0.18/192.33.4.12_North-Central-section_2_52641718_1_10.0_0.json",
    "gt_filepath": "datasets/ground-truth/root_servers/root_servers_C.json",
    "statistics": {
        "TP": 2,
        "FP": 9,
        "TN": 0,
        "FN": 2,
        "accuracy": 0.15384615384615385,
        "precision": 0.18181818181818182,
        "recall": 0.5,
        "f1": 0.26666666666666666,
        "OT": 0,
        "OF": 0
    },
    "instances": [
        {
            "country_code": "AT",
            "city": "Vienna",
            "latitude": 48.1102981567,
            "longitude": 16.5697002411,
            "type": "TP"
        },
        {
            "country_code": "DE",
            "city": "Frankfurt",
            "latitude": 50.1109221,
            "longitude": 8.6821267,
            "type": "FN"
        },
        {
            "country_code": "DE",
            "city": "Hamburg",
            "latitude": 53.6304016113,
            "longitude": 9.9882297516,
            "type": "FP"
        },
        {
            "country_code": "DE",
            "city": "Munich",
            "latitude": 48.3538017273,
            "longitude": 11.7861003876,
            "type": "FP"
        },
        {
            "country_code": "ES",
            "city": "Madrid",
            "latitude": 40.3707008362,
            "longitude": -3.7851400375,
            "type": "TP"
        },
        {
            "country_code": "ES",
            "city": "Valencia",
            "latitude": 39.4892997742,
            "longitude": -0.4816249907,
            "type": "FP"
        },
        {
            "country_code": "ES",
            "city": "Zaragoza",
            "latitude": 41.6661987305,
            "longitude": -1.0415500402,
            "type": "FP"
        },
        {
            "country_code": "FR",
            "city": "Lyon",
            "latitude": 45.726398468,
            "longitude": 5.0908298492,
            "type": "FP"
        },
        {
            "country_code": "FR",
            "city": "Paris",
            "latitude": 48.856614,
            "longitude": 2.3522219,
            "type": "FN"
        },
        {
            "country_code": "FR",
            "city": "Rouen/Vall\u00e9e de Seine",
            "latitude": 49.3842010498,
            "longitude": 1.1748000383,
            "type": "FP"
        },
        {
            "country_code": "GB",
            "city": "London",
            "latitude": 51.3307991028,
            "longitude": 0.0324999988,
            "type": "FP"
        },
        {
            "country_code": "HR",
            "city": "Zagreb",
            "latitude": 45.7429008484,
            "longitude": 16.0687999725,
            "type": "FP"
        },
        {
            "country_code": "LU",
            "city": "Luxembourg",
            "latitude": 49.6265983582,
            "longitude": 6.211520195,
            "type": "FP"
        }
    ]
}