{
    "target": "198.41.0.4",
    "measurement_filepath": "datasets/measurements/campaigns/198.41.0.4_North-Central_20230410/198.41.0.4_North-Central_1000_52069452.json",
    "probes_filepath": "datasets/probes_sets/North-Central_1000.json",
    "alpha": 0.1,
    "threshold": -1,
    "noise": 0,
    "num_anycast_instances": 13,
    "anycast_instances": [
        {
            "marker": {
                "id": "NHT",
                "latitude": 51.5530014038,
                "longitude": -0.418166995,
                "city": "London",
                "country_code": "GB"
            },
            "circle": {
                "id": "13526",
                "latitude": 51.5305,
                "longitude": -0.6415,
                "radius": 24.131718958595496
            }
        },
        {
            "marker": {
                "id": "QEF",
                "latitude": 49.9599990845,
                "longitude": 8.6458330154,
                "city": "Egelsbach",
                "country_code": "DE"
            },
            "circle": {
                "id": "32663",
                "latitude": 50.1185,
                "longitude": 8.7405,
                "radius": 36.782023834764246
            }
        },
        {
            "marker": {
                "id": "PAR",
                "latitude": 49.0127983093,
                "longitude": 2.5499999523,
                "city": "Paris",
                "country_code": "FR"
            },
            "circle": {
                "id": "1005546",
                "latitude": 48.8305,
                "longitude": 2.4095,
                "radius": 38.09141236394794
            }
        },
        {
            "marker": {
                "id": "DHR",
                "latitude": 52.9234008789,
                "longitude": 4.7806200981,
                "city": "Den Helder",
                "country_code": "NL"
            },
            "circle": {
                "id": "1005453",
                "latitude": 52.3885,
                "longitude": 4.6595,
                "radius": 67.31814162031068
            }
        },
        {
            "marker": {
                "id": "EKT",
                "latitude": 59.3511009216,
                "longitude": 16.7084007263,
                "city": "Eskilstuna",
                "country_code": "SE"
            },
            "circle": {
                "id": "52699",
                "latitude": 59.5415,
                "longitude": 17.9415,
                "radius": 83.44789022770759
            }
        },
        {
            "marker": {
                "id": "OSR",
                "latitude": 49.6963005066,
                "longitude": 18.1110992432,
                "city": "Ostrava",
                "country_code": "CZ"
            },
            "circle": {
                "id": "1004575",
                "latitude": 48.1995,
                "longitude": 16.3805,
                "radius": 212.6341414469867
            }
        },
        {
            "marker": {
                "id": "MAN",
                "latitude": 53.3536987305,
                "longitude": -2.2749500275,
                "city": "Manchester",
                "country_code": "GB"
            },
            "circle": {
                "id": "1002711",
                "latitude": 55.3775,
                "longitude": -3.4425,
                "radius": 239.46968108947272
            }
        },
        {
            "marker": {
                "id": "BCN",
                "latitude": 41.2971000671,
                "longitude": 2.0784599781,
                "city": "Barcelona",
                "country_code": "ES"
            },
            "circle": {
                "id": "30910",
                "latitude": 43.6175,
                "longitude": 1.4175,
                "radius": 362.0415738338406
            }
        },
        {
            "marker": {
                "id": "STR",
                "latitude": 48.6898994446,
                "longitude": 9.2219600677,
                "city": "Stuttgart",
                "country_code": "DE"
            },
            "circle": {
                "id": "6763",
                "latitude": 45.4785,
                "longitude": 9.1005,
                "radius": 369.44283504732164
            }
        },
        {
            "marker": {
                "id": "LED",
                "latitude": 59.8003005981,
                "longitude": 30.2625007629,
                "city": "St Petersburg",
                "country_code": "RU"
            },
            "circle": {
                "id": "6330",
                "latitude": 60.2075,
                "longitude": 24.8985,
                "radius": 373.4801775532649
            }
        },
        {
            "marker": {
                "id": "LIN",
                "latitude": 45.445098877,
                "longitude": 9.2767400742,
                "city": "Milan",
                "country_code": "IT"
            },
            "circle": {
                "id": "1003068",
                "latitude": 45.7815,
                "longitude": 4.7805,
                "radius": 374.5293462289046
            }
        },
        {
            "marker": {
                "id": "SKP",
                "latitude": 41.9616012573,
                "longitude": 21.6214008331,
                "city": "Skopje",
                "country_code": "MK"
            },
            "circle": {
                "id": "6621",
                "latitude": 40.9475,
                "longitude": 17.2785,
                "radius": 395.50311888823114
            }
        },
        {
            "marker": {
                "id": "MSQ",
                "latitude": 53.8824996948,
                "longitude": 28.0307006836,
                "city": "Minsk",
                "country_code": "BY"
            },
            "circle": {
                "id": "1005505",
                "latitude": 56.9495,
                "longitude": 24.0975,
                "radius": 427.78223751940106
            }
        }
    ]
}