{
    "target": "193.0.14.129",
    "measurement_filepath": "datasets/measurements/campaigns/193.0.14.129_North-Central-section_20230425/193.0.14.129_North-Central-section_1_52654511.json",
    "probes_filepath": "datasets/probes_section/North-Central-section_1.json",
    "alpha": 0.0,
    "threshold": -1,
    "noise": 0,
    "num_anycast_instances": 26,
    "anycast_instances": [
        {
            "marker": {
                "id": "SKP",
                "latitude": 41.9616012573,
                "longitude": 21.6214008331,
                "city": "Skopje",
                "country_code": "MK"
            },
            "circle": {
                "id": "6276",
                "latitude": 42.0005,
                "longitude": 21.4105,
                "radius": 43.7840289474924
            }
        },
        {
            "marker": {
                "id": "LED",
                "latitude": 59.8003005981,
                "longitude": 30.2625007629,
                "city": "St Petersburg",
                "country_code": "RU"
            },
            "circle": {
                "id": "17704",
                "latitude": 59.9795,
                "longitude": 30.3275,
                "radius": 51.009686728700004
            }
        },
        {
            "marker": {
                "id": "TBS",
                "latitude": 41.6692008972,
                "longitude": 44.95470047,
                "city": "Tbilisi",
                "country_code": "GE"
            },
            "circle": {
                "id": "11265",
                "latitude": 41.7195,
                "longitude": 44.7105,
                "radius": 52.45078907430601
            }
        },
        {
            "marker": {
                "id": "DEB",
                "latitude": 47.488899231,
                "longitude": 21.6152992249,
                "city": "Debrecen",
                "country_code": "HU"
            },
            "circle": {
                "id": "12454",
                "latitude": 47.5495,
                "longitude": 21.5995,
                "radius": 55.166369117361604
            }
        },
        {
            "marker": {
                "id": "JAM",
                "latitude": 42.4548988342,
                "longitude": 26.3521995544,
                "city": "Yambol",
                "country_code": "BG"
            },
            "circle": {
                "id": "11518",
                "latitude": 42.1715,
                "longitude": 26.5675,
                "radius": 73.0971359058164
            }
        },
        {
            "marker": {
                "id": "MUC",
                "latitude": 48.3538017273,
                "longitude": 11.7861003876,
                "city": "Munich",
                "country_code": "DE"
            },
            "circle": {
                "id": "1002071",
                "latitude": 48.3675,
                "longitude": 10.9005,
                "radius": 79.70390213672881
            }
        },
        {
            "marker": {
                "id": "WMI",
                "latitude": 52.4510993958,
                "longitude": 20.6518001556,
                "city": "Warsaw",
                "country_code": "PL"
            },
            "circle": {
                "id": "17510",
                "latitude": 52.1875,
                "longitude": 20.9075,
                "radius": 81.72756118672041
            }
        },
        {
            "marker": {
                "id": "LWN",
                "latitude": 40.7504005432,
                "longitude": 43.8592987061,
                "city": "Gyumri",
                "country_code": "AM"
            },
            "circle": {
                "id": "10717",
                "latitude": 40.5505,
                "longitude": 44.7675,
                "radius": 92.755486712742
            }
        },
        {
            "marker": {
                "id": "RMS",
                "latitude": 49.4369010925,
                "longitude": 7.600279808,
                "city": "Ramstein",
                "country_code": "DE"
            },
            "circle": {
                "id": "15710",
                "latitude": 49.8775,
                "longitude": 8.6575,
                "radius": 93.6589412641708
            }
        },
        {
            "marker": {
                "id": "RIX",
                "latitude": 56.9235992432,
                "longitude": 23.9710998535,
                "city": "Riga",
                "country_code": "LV"
            },
            "circle": {
                "id": "4016",
                "latitude": 56.9605,
                "longitude": 24.4275,
                "radius": 106.8317019517076
            }
        },
        {
            "marker": {
                "id": "VEY",
                "latitude": 63.4243011475,
                "longitude": -20.2789001465,
                "city": "Vestmannaeyjar",
                "country_code": "IS"
            },
            "circle": {
                "id": "1000959",
                "latitude": 64.0715,
                "longitude": -22.0205,
                "radius": 119.228659716432
            }
        },
        {
            "marker": {
                "id": "ZQL",
                "latitude": 47.9733314514,
                "longitude": 8.5222215653,
                "city": "Donaueschingen",
                "country_code": "DE"
            },
            "circle": {
                "id": "30129",
                "latitude": 47.2115,
                "longitude": 7.5285,
                "radius": 137.788510998754
            }
        },
        {
            "marker": {
                "id": "OSI",
                "latitude": 45.4626998901,
                "longitude": 18.8101997375,
                "city": "Osijek",
                "country_code": "HR"
            },
            "circle": {
                "id": "51382",
                "latitude": 44.7385,
                "longitude": 19.7115,
                "radius": 147.43043603295
            }
        },
        {
            "marker": {
                "id": "DOL",
                "latitude": 49.3652992249,
                "longitude": 0.1543059945,
                "city": "Deauville",
                "country_code": "FR"
            },
            "circle": {
                "id": "31833",
                "latitude": 48.7885,
                "longitude": 1.9785,
                "radius": 150.8060391515384
            }
        },
        {
            "marker": {
                "id": "TZR",
                "latitude": 46.3931007385,
                "longitude": 17.9174995422,
                "city": "Tasz\u00e1r",
                "country_code": "HU"
            },
            "circle": {
                "id": "11590",
                "latitude": 47.4575,
                "longitude": 19.0415,
                "radius": 156.4063421424532
            }
        },
        {
            "marker": {
                "id": "EPL",
                "latitude": 48.3250007629,
                "longitude": 6.0699801445,
                "city": "\u00c9pinal/Mirecourt",
                "country_code": "FR"
            },
            "circle": {
                "id": "7071",
                "latitude": 49.2275,
                "longitude": 4.0305,
                "radius": 184.8392584440892
            }
        },
        {
            "marker": {
                "id": "MIK",
                "latitude": 61.6865997314,
                "longitude": 27.2017993927,
                "city": "Mikkeli",
                "country_code": "FI"
            },
            "circle": {
                "id": "51090",
                "latitude": 60.7975,
                "longitude": 23.6415,
                "radius": 216.56257684775
            }
        },
        {
            "marker": {
                "id": "TLL",
                "latitude": 59.4132995605,
                "longitude": 24.8327999115,
                "city": "Tallinn",
                "country_code": "EE"
            },
            "circle": {
                "id": "1002376",
                "latitude": 60.4005,
                "longitude": 22.2705,
                "radius": 217.01844125938482
            }
        },
        {
            "marker": {
                "id": "GWT",
                "latitude": 54.9132003784,
                "longitude": 8.340470314,
                "city": "Westerland",
                "country_code": "DE"
            },
            "circle": {
                "id": "6267",
                "latitude": 53.1105,
                "longitude": 6.8805,
                "radius": 228.5825156172936
            }
        },
        {
            "marker": {
                "id": "SKG",
                "latitude": 40.5196990967,
                "longitude": 22.9708995819,
                "city": "Thessaloniki",
                "country_code": "GR"
            },
            "circle": {
                "id": "27903",
                "latitude": 38.2785,
                "longitude": 21.8275,
                "radius": 273.6246535940288
            }
        },
        {
            "marker": {
                "id": "BJZ",
                "latitude": 38.8913002014,
                "longitude": -6.8213300705,
                "city": "Badajoz",
                "country_code": "ES"
            },
            "circle": {
                "id": "60374",
                "latitude": 40.0995,
                "longitude": -4.0495,
                "radius": 280.03703439517403
            }
        },
        {
            "marker": {
                "id": "HAW",
                "latitude": 51.8330993652,
                "longitude": -4.9611101151,
                "city": "Haverfordwest",
                "country_code": "GB"
            },
            "circle": {
                "id": "6499",
                "latitude": 52.2815,
                "longitude": -0.8685,
                "radius": 301.184094590036
            }
        },
        {
            "marker": {
                "id": "PUF",
                "latitude": 43.3800010681,
                "longitude": -0.41861099,
                "city": "Pau/Pyr\u00e9n\u00e9es (Uzein)",
                "country_code": "FR"
            },
            "circle": {
                "id": "34664",
                "latitude": 42.2495,
                "longitude": 3.1205,
                "radius": 326.6600979199264
            }
        },
        {
            "marker": {
                "id": "TLN",
                "latitude": 43.0973014832,
                "longitude": 6.1460299492,
                "city": "Toulon/Hy\u00e8res/Le Palyvestre",
                "country_code": "FR"
            },
            "circle": {
                "id": "23303",
                "latitude": 43.8085,
                "longitude": 11.1775,
                "radius": 421.7304620763612
            }
        },
        {
            "marker": {
                "id": "BAY",
                "latitude": 47.6584014893,
                "longitude": 23.4699993134,
                "city": "Baia Mare",
                "country_code": "RO"
            },
            "circle": {
                "id": "17286",
                "latitude": 46.8205,
                "longitude": 29.4815,
                "radius": 481.3226672511768
            }
        },
        {
            "marker": {
                "id": "IGT",
                "latitude": 43.3222999573,
                "longitude": 45.0125999451,
                "city": "Magas",
                "country_code": "RU"
            },
            "circle": {
                "id": "11088",
                "latitude": 51.6815,
                "longitude": 39.2115,
                "radius": 1036.8604564425436
            }
        }
    ]
}