{
    "target": "199.9.14.201",
    "measurement_filepath": "datasets/measurements/campaigns/199.9.14.201_North-Central_20230410/199.9.14.201_North-Central_300_52069565.json",
    "probes_filepath": "datasets/probes_sets/North-Central_300.json",
    "alpha": 0.0,
    "threshold": -1,
    "noise": 0,
    "num_anycast_instances": 6,
    "anycast_instances": [
        {
            "marker": {
                "id": "AMS-IX",
                "latitude": 52.3747158,
                "longitude": 4.8986167,
                "city": "Amsterdam",
                "country_code": "NL"
            },
            "circle": {
                "id": "1005453",
                "latitude": 52.3885,
                "longitude": 4.6595,
                "radius": 47.29621750994559
            }
        },
        {
            "marker": {
                "id": "XCB",
                "latitude": 50.2218017578,
                "longitude": 3.154239893,
                "city": "Cambrai/\u00c9pinoy",
                "country_code": "FR"
            },
            "circle": {
                "id": "1003587",
                "latitude": 51.5105,
                "longitude": -0.0185,
                "radius": 272.4942036882139
            }
        },
        {
            "marker": {
                "id": "XMF",
                "latitude": 47.4869995117,
                "longitude": 6.7905402184,
                "city": "Montb\u00e9liard/Courcelles",
                "country_code": "FR"
            },
            "circle": {
                "id": "1004538",
                "latitude": 50.1015,
                "longitude": 8.6285,
                "radius": 323.91952268068496
            }
        },
        {
            "marker": {
                "id": "FAB",
                "latitude": 51.2757987976,
                "longitude": -0.7763329744,
                "city": "Farnborough",
                "country_code": "GB"
            },
            "circle": {
                "id": "1000959",
                "latitude": 64.0715,
                "longitude": -22.0205,
                "radius": 1884.6381971253682
            }
        },
        {
            "marker": {
                "id": "FMO",
                "latitude": 52.134601593,
                "longitude": 7.6848301888,
                "city": "M\u00fcnster",
                "country_code": "DE"
            },
            "circle": {
                "id": "53121",
                "latitude": 59.2975,
                "longitude": 17.9985,
                "radius": 1023.522697480935
            }
        },
        {
            "marker": {
                "id": "SKS",
                "latitude": 55.2256011963,
                "longitude": 9.2639303207,
                "city": "Vojens",
                "country_code": "DK"
            },
            "circle": {
                "id": "1002236",
                "latitude": 40.1705,
                "longitude": 44.4885,
                "radius": 3073.6136615391924
            }
        }
    ]
}