{
    "target": "198.97.190.53",
    "measurement_filepath": "datasets/measurements/campaigns/198.97.190.53_North-Central-section_20230425/198.97.190.53_North-Central-section_1_52651836.json",
    "probes_filepath": "datasets/probes_section/North-Central-section_1.json",
    "alpha": 0.0,
    "threshold": -1,
    "noise": 0,
    "num_anycast_instances": 5,
    "anycast_instances": [
        {
            "marker": {
                "id": "QEF",
                "latitude": 49.9599990845,
                "longitude": 8.6458330154,
                "city": "Egelsbach",
                "country_code": "DE"
            },
            "circle": {
                "id": "6940",
                "latitude": 50.0975,
                "longitude": 8.6395,
                "radius": 37.501563208021494
            }
        },
        {
            "marker": {
                "id": "FFD",
                "latitude": 51.6822013855,
                "longitude": -1.7900300026,
                "city": "Fairford",
                "country_code": "GB"
            },
            "circle": {
                "id": "1002787",
                "latitude": 51.7705,
                "longitude": 0.1315,
                "radius": 137.24225916103217
            }
        },
        {
            "marker": {
                "id": "INI",
                "latitude": 43.337299,
                "longitude": 21.853701,
                "city": "Nis",
                "country_code": "RS"
            },
            "circle": {
                "id": "6621",
                "latitude": 40.9475,
                "longitude": 17.2785,
                "radius": 470.4618610308673
            }
        },
        {
            "marker": {
                "id": "AMS-IX",
                "latitude": 52.3747158,
                "longitude": 4.8986167,
                "city": "Amsterdam",
                "country_code": "NL"
            },
            "circle": {
                "id": "1003415",
                "latitude": 56.0195,
                "longitude": 12.1975,
                "radius": 624.8797847267667
            }
        },
        {
            "marker": {
                "id": "LLA",
                "latitude": 65.543800354,
                "longitude": 22.1219997406,
                "city": "Lule\u00e5",
                "country_code": "SE"
            },
            "circle": {
                "id": "32702",
                "latitude": 54.7285,
                "longitude": 25.2775,
                "radius": 1217.9517320611508
            }
        }
    ]
}