{
    "target": "199.9.14.201",
    "measurement_filepath": "datasets/measurements/campaigns/199.9.14.201_North-Central_20230410/199.9.14.201_North-Central_500_52069589.json",
    "probes_filepath": "datasets/probes_sets/North-Central_500.json",
    "alpha": 1.0,
    "threshold": -1,
    "noise": 0,
    "num_anycast_instances": 10,
    "anycast_instances": [
        {
            "marker": {
                "id": "AMX",
                "latitude": 52.3086013794,
                "longitude": 4.7638897896,
                "city": "Amsterdam",
                "country_code": "NL"
            },
            "circle": {
                "id": "1002178",
                "latitude": 52.3715,
                "longitude": 4.9005,
                "radius": 16.491133425893
            }
        },
        {
            "marker": {
                "id": "BQH",
                "latitude": 51.3307991028,
                "longitude": 0.0324999988,
                "city": "London",
                "country_code": "GB"
            },
            "circle": {
                "id": "1003587",
                "latitude": 51.5105,
                "longitude": -0.0185,
                "radius": 195.32985095801448
            }
        },
        {
            "marker": {
                "id": "CGN",
                "latitude": 50.8658981323,
                "longitude": 7.1427397728,
                "city": "Cologne",
                "country_code": "DE"
            },
            "circle": {
                "id": "1003331",
                "latitude": 50.1075,
                "longitude": 8.6785,
                "radius": 233.0242556646445
            }
        },
        {
            "marker": {
                "id": "SXF",
                "latitude": 52.3800010681,
                "longitude": 13.5225000381,
                "city": "Berlin",
                "country_code": "DE"
            },
            "circle": {
                "id": "1000727",
                "latitude": 57.6505,
                "longitude": 11.9285,
                "radius": 605.6334911585507
            }
        },
        {
            "marker": {
                "id": "HAM",
                "latitude": 53.6304016113,
                "longitude": 9.9882297516,
                "city": "Hamburg",
                "country_code": "DE"
            },
            "circle": {
                "id": "53843",
                "latitude": 59.7585,
                "longitude": 10.4595,
                "radius": 807.6830401664063
            }
        },
        {
            "marker": {
                "id": "ARN",
                "latitude": 59.6519012451,
                "longitude": 17.9186000824,
                "city": "Stockholm",
                "country_code": "SE"
            },
            "circle": {
                "id": "60917",
                "latitude": 63.4205,
                "longitude": 10.8075,
                "radius": 1075.3063059347735
            }
        },
        {
            "marker": {
                "id": "ECV",
                "latitude": 40.3707008362,
                "longitude": -3.7851400375,
                "city": "Madrid",
                "country_code": "ES"
            },
            "circle": {
                "id": "32589",
                "latitude": 38.6615,
                "longitude": -9.0685,
                "radius": 1261.8217714648438
            }
        },
        {
            "marker": {
                "id": "GLA",
                "latitude": 55.8718986511,
                "longitude": -4.4330601692,
                "city": "Glasgow",
                "country_code": "GB"
            },
            "circle": {
                "id": "1000959",
                "latitude": 64.0715,
                "longitude": -22.0205,
                "radius": 1356.7647313214402
            }
        },
        {
            "marker": {
                "id": "IST",
                "latitude": 40.9768981934,
                "longitude": 28.8145999908,
                "city": "Istanbul",
                "country_code": "TR"
            },
            "circle": {
                "id": "1002236",
                "latitude": 40.1705,
                "longitude": 44.4885,
                "radius": 2197.669872306032
            }
        },
        {
            "marker": {
                "id": "CIA",
                "latitude": 41.7994003296,
                "longitude": 12.5949001312,
                "city": "Rome",
                "country_code": "IT"
            },
            "circle": {
                "id": "55183",
                "latitude": 41.8485,
                "longitude": 12.4815,
                "radius": 1053.5284449342223
            }
        }
    ]
}