{
    "target": "199.9.14.201",
    "measurement_filepath": "datasets/measurements/campaigns/199.9.14.201_North-Central_20230410/199.9.14.201_North-Central_100_52069552.json",
    "probes_filepath": "datasets/probes_sets/North-Central_100.json",
    "alpha": 0.0,
    "threshold": -1,
    "noise": 0,
    "num_anycast_instances": 8,
    "anycast_instances": [
        {
            "marker": {
                "id": "LEY",
                "latitude": 52.4603004456,
                "longitude": 5.5272197723,
                "city": "Lelystad",
                "country_code": "NL"
            },
            "circle": {
                "id": "54521",
                "latitude": 52.0075,
                "longitude": 4.3585,
                "radius": 99.91988939996874
            }
        },
        {
            "marker": {
                "id": "IGS",
                "latitude": 48.7156982422,
                "longitude": 11.5340003967,
                "city": "Manching",
                "country_code": "DE"
            },
            "circle": {
                "id": "1002824",
                "latitude": 50.1195,
                "longitude": 8.6785,
                "radius": 261.92855813242824
            }
        },
        {
            "marker": {
                "id": "MSE",
                "latitude": 51.3422012329,
                "longitude": 1.3461099863,
                "city": "Manston",
                "country_code": "GB"
            },
            "circle": {
                "id": "61020",
                "latitude": 54.5975,
                "longitude": -5.9315,
                "radius": 614.2451794108297
            }
        },
        {
            "marker": {
                "id": "SCQ",
                "latitude": 42.8963012695,
                "longitude": -8.415140152,
                "city": "Santiago de Compostela",
                "country_code": "ES"
            },
            "circle": {
                "id": "60624",
                "latitude": 43.4995,
                "longitude": 2.1885,
                "radius": 862.0618694862247
            }
        },
        {
            "marker": {
                "id": "KSC",
                "latitude": 48.6631011963,
                "longitude": 21.2411003113,
                "city": "Ko\u0161ice",
                "country_code": "SK"
            },
            "circle": {
                "id": "17658",
                "latitude": 55.6115,
                "longitude": 38.2095,
                "radius": 1386.87288787838
            }
        },
        {
            "marker": {
                "id": "AOC",
                "latitude": 50.9819450378,
                "longitude": 12.5063886642,
                "city": "Altenburg",
                "country_code": "DE"
            },
            "circle": {
                "id": "62426",
                "latitude": 55.6705,
                "longitude": 12.5685,
                "radius": 523.9474287428291
            }
        },
        {
            "marker": {
                "id": "LEJ",
                "latitude": 51.4323997498,
                "longitude": 12.2416000366,
                "city": "Leipzig",
                "country_code": "DE"
            },
            "circle": {
                "id": "1003738",
                "latitude": 59.2615,
                "longitude": 18.0985,
                "radius": 964.6289262903335
            }
        },
        {
            "marker": {
                "id": "BQT",
                "latitude": 52.1082992554,
                "longitude": 23.8980998993,
                "city": "Brest",
                "country_code": "BY"
            },
            "circle": {
                "id": "55039",
                "latitude": 66.5315,
                "longitude": 25.6485,
                "radius": 1607.9087429400624
            }
        }
    ]
}