{
    "target": "199.7.83.42",
    "measurement_filepath": "datasets/measurements/campaigns/199.7.83.42_North-Central_20230410/199.7.83.42_North-Central_100_52100083.json",
    "probes_filepath": "datasets/probes_sets/North-Central_100.json",
    "alpha": 0.0,
    "threshold": -1,
    "noise": 0,
    "num_anycast_instances": 15,
    "anycast_instances": [
        {
            "marker": {
                "id": "CKL",
                "latitude": 55.8782997131,
                "longitude": 38.0616989136,
                "city": "Moscow",
                "country_code": "RU"
            },
            "circle": {
                "id": "55228",
                "latitude": 55.7915,
                "longitude": 37.4685,
                "radius": 45.9712997314375
            }
        },
        {
            "marker": {
                "id": "PED",
                "latitude": 50.0134010315,
                "longitude": 15.7385997772,
                "city": "Pardubice",
                "country_code": "CZ"
            },
            "circle": {
                "id": "33280",
                "latitude": 50.0275,
                "longitude": 15.7815,
                "radius": 74.48062563580625
            }
        },
        {
            "marker": {
                "id": "BBU",
                "latitude": 44.503200531,
                "longitude": 26.1021003723,
                "city": "Bucharest",
                "country_code": "RO"
            },
            "circle": {
                "id": "61674",
                "latitude": 44.8495,
                "longitude": 24.8705,
                "radius": 112.81190194540001
            }
        },
        {
            "marker": {
                "id": "EBL",
                "latitude": 36.2375984192,
                "longitude": 43.9631996155,
                "city": "Arbil",
                "country_code": "IQ"
            },
            "circle": {
                "id": "60131",
                "latitude": 36.8575,
                "longitude": 42.9885,
                "radius": 138.4665665906355
            }
        },
        {
            "marker": {
                "id": "QYR",
                "latitude": 48.322101593,
                "longitude": 4.016699791,
                "city": "Troyes/Barberey",
                "country_code": "FR"
            },
            "circle": {
                "id": "54074",
                "latitude": 48.5095,
                "longitude": 2.2705,
                "radius": 147.20746539231249
            }
        },
        {
            "marker": {
                "id": "LDK",
                "latitude": 58.4654998779,
                "longitude": 13.1744003296,
                "city": "Lidk\u00f6ping",
                "country_code": "SE"
            },
            "circle": {
                "id": "50989",
                "latitude": 58.4215,
                "longitude": 15.6215,
                "radius": 150.31470179731076
            }
        },
        {
            "marker": {
                "id": "BMA",
                "latitude": 59.3544006348,
                "longitude": 17.9416999817,
                "city": "Stockholm",
                "country_code": "SE"
            },
            "circle": {
                "id": "60517",
                "latitude": 58.5905,
                "longitude": 16.1875,
                "radius": 153.6227242010545
            }
        },
        {
            "marker": {
                "id": "NCY",
                "latitude": 45.9291992188,
                "longitude": 6.098760128,
                "city": "Annecy/Meythet",
                "country_code": "FR"
            },
            "circle": {
                "id": "1001132",
                "latitude": 47.4185,
                "longitude": 8.5785,
                "radius": 251.975560949
            }
        },
        {
            "marker": {
                "id": "MSQ",
                "latitude": 53.8824996948,
                "longitude": 28.0307006836,
                "city": "Minsk",
                "country_code": "BY"
            },
            "circle": {
                "id": "1003500",
                "latitude": 53.6975,
                "longitude": 23.8475,
                "radius": 280.2446031982817
            }
        },
        {
            "marker": {
                "id": "EVX",
                "latitude": 49.0287017822,
                "longitude": 1.2198599577,
                "city": "\u00c9vreux/Fauville",
                "country_code": "FR"
            },
            "circle": {
                "id": "15634",
                "latitude": 51.5095,
                "longitude": -0.0015,
                "radius": 289.34532789767326
            }
        },
        {
            "marker": {
                "id": "SCN",
                "latitude": 49.2145996094,
                "longitude": 7.1095099449,
                "city": "Saarbr\u00fccken",
                "country_code": "DE"
            },
            "circle": {
                "id": "17079",
                "latitude": 50.8215,
                "longitude": 4.4105,
                "radius": 269.2190984963585
            }
        },
        {
            "marker": {
                "id": "TZL",
                "latitude": 44.4586982727,
                "longitude": 18.7248001099,
                "city": "Tuzla",
                "country_code": "BA"
            },
            "circle": {
                "id": "54249",
                "latitude": 47.5015,
                "longitude": 19.0395,
                "radius": 356.9450795634062
            }
        },
        {
            "marker": {
                "id": "FMM",
                "latitude": 47.9888000488,
                "longitude": 10.2395000458,
                "city": "Memmingen",
                "country_code": "DE"
            },
            "circle": {
                "id": "50542",
                "latitude": 44.4885,
                "longitude": 11.3395,
                "radius": 398.7895487401875
            }
        },
        {
            "marker": {
                "id": "AXD",
                "latitude": 40.8558998108,
                "longitude": 25.9563007355,
                "city": "Alexandroupolis",
                "country_code": "GR"
            },
            "circle": {
                "id": "62748",
                "latitude": 37.9815,
                "longitude": 23.7595,
                "radius": 416.5501533294815
            }
        },
        {
            "marker": {
                "id": "NUE",
                "latitude": 49.4986991882,
                "longitude": 11.0669002533,
                "city": "Nuremberg",
                "country_code": "DE"
            },
            "circle": {
                "id": "22055",
                "latitude": 52.9995,
                "longitude": 9.0695,
                "radius": 416.70102388397
            }
        }
    ]
}