{
    "target": "192.58.128.30",
    "probes_filepath": "datasets/probes_sets/North-Central_1000.json",
    "alpha": 0.3,
    "threshold": -1,
    "noise": 0,
    "results_filepath": "datasets/results/campaigns/192.58.128.30_North-Central_20230410_alpha_light-factor_0.30/192.58.128.30_North-Central_1000_52097178_0.3_-1_0.json",
    "gt_filepath": "datasets/ground-truth/root_servers/root_servers_J.json",
    "statistics": {
        "TP": 26,
        "FP": 10,
        "TN": 0,
        "FN": 9,
        "accuracy": 0.5777777777777777,
        "precision": 0.7222222222222222,
        "recall": 0.7428571428571429,
        "f1": 0.732394366197183,
        "OT": 3,
        "OF": 3
    },
    "instances": [
        {
            "country_code": "AT",
            "city": "Klagenfurt am W\u00f6rthersee",
            "latitude": 46.6425018311,
            "longitude": 14.3376998901,
            "type": "TP"
        },
        {
            "country_code": "AT",
            "city": "Vienna",
            "latitude": 48.1102981567,
            "longitude": 16.5697002411,
            "type": "TP"
        },
        {
            "country_code": "BG",
            "city": "Sofia",
            "latitude": 42.6966934204,
            "longitude": 23.4114360809,
            "type": "TP"
        },
        {
            "country_code": "CH",
            "city": "Geneva",
            "latitude": 46.2043907,
            "longitude": 6.1431577,
            "type": "FN"
        },
        {
            "country_code": "CH",
            "city": "Zurich",
            "latitude": 47.4646987915,
            "longitude": 8.5491695404,
            "type": "TP"
        },
        {
            "country_code": "CZ",
            "city": "Prague",
            "latitude": 50.1007995605,
            "longitude": 14.2600002289,
            "type": "TP"
        },
        {
            "country_code": "DE",
            "city": "Berlin",
            "latitude": 52.5597000122,
            "longitude": 13.2876996994,
            "type": "TP"
        },
        {
            "country_code": "DE",
            "city": "Egelsbach",
            "latitude": 49.9599990845,
            "longitude": 8.6458330154,
            "type": "TP"
        },
        {
            "country_code": "DE",
            "city": "Saarbr\u00fccken",
            "latitude": 49.2145996094,
            "longitude": 7.1095099449,
            "type": "TP"
        },
        {
            "country_code": "DK",
            "city": "Aarhus",
            "latitude": 56.2999992371,
            "longitude": 10.6190004349,
            "type": "FP"
        },
        {
            "country_code": "EE",
            "city": "Tallinn",
            "latitude": 59.4369608,
            "longitude": 24.7535746,
            "type": "FN"
        },
        {
            "country_code": "ES",
            "city": "Reus",
            "latitude": 41.1473999023,
            "longitude": 1.1671700478,
            "type": "TP"
        },
        {
            "country_code": "FI",
            "city": "Helsinki",
            "latitude": 60.317199707,
            "longitude": 24.963300705,
            "type": "TP"
        },
        {
            "country_code": "FI",
            "city": "Kuusamo",
            "latitude": 65.9876022339,
            "longitude": 29.2394008636,
            "type": "FP"
        },
        {
            "country_code": "FI",
            "city": "Oulu",
            "latitude": 65.0120888,
            "longitude": 25.4650773,
            "type": "FN"
        },
        {
            "country_code": "FI",
            "city": "Turku",
            "latitude": 60.5140991211,
            "longitude": 22.2628002167,
            "type": "FP"
        },
        {
            "country_code": "FR",
            "city": "Marseille",
            "latitude": 43.2961743,
            "longitude": 5.3699525,
            "type": "FN"
        },
        {
            "country_code": "FR",
            "city": "Metz/Frescaty",
            "latitude": 49.0717010498,
            "longitude": 6.1316699982,
            "type": "FP"
        },
        {
            "country_code": "FR",
            "city": "Paris",
            "latitude": 48.9693984985,
            "longitude": 2.4413900375,
            "type": "TP"
        },
        {
            "country_code": "GB",
            "city": "Birmingham",
            "latitude": 52.4538993835,
            "longitude": -1.7480299473,
            "type": "FP"
        },
        {
            "country_code": "GB",
            "city": "Edinburgh",
            "latitude": 55.953252,
            "longitude": -3.188267,
            "type": "FN"
        },
        {
            "country_code": "GB",
            "city": "Leeds",
            "latitude": 53.8007554,
            "longitude": -1.5490774,
            "type": "FN"
        },
        {
            "country_code": "GB",
            "city": "London",
            "latitude": 51.8746986389,
            "longitude": -0.3683330119,
            "type": "TP"
        },
        {
            "country_code": "GR",
            "city": "Athens",
            "latitude": 37.9908372,
            "longitude": 23.7383394,
            "type": "TP"
        },
        {
            "country_code": "HR",
            "city": "Zagreb",
            "latitude": 45.7429008484,
            "longitude": 16.0687999725,
            "type": "TP"
        },
        {
            "country_code": "IE",
            "city": "Dublin",
            "latitude": 53.4212989807,
            "longitude": -6.270070076,
            "type": "TP"
        },
        {
            "country_code": "IL",
            "city": "Tel Aviv",
            "latitude": 32.1147003174,
            "longitude": 34.7821998596,
            "type": "OT"
        },
        {
            "country_code": "IS",
            "city": "Reykjavik",
            "latitude": 64.1299972534,
            "longitude": -21.9405994415,
            "type": "TP"
        },
        {
            "country_code": "IT",
            "city": "Milan",
            "latitude": 45.445098877,
            "longitude": 9.2767400742,
            "type": "TP"
        },
        {
            "country_code": "IT",
            "city": "Rome",
            "latitude": 41.9027835,
            "longitude": 12.4963655,
            "type": "FN"
        },
        {
            "country_code": "IT",
            "city": "Torino",
            "latitude": 45.2008018494,
            "longitude": 7.6496300697,
            "type": "TP"
        },
        {
            "country_code": "IT",
            "city": "Verona",
            "latitude": 45.3956985474,
            "longitude": 10.8885002136,
            "type": "FP"
        },
        {
            "country_code": "LT",
            "city": "Vilnius",
            "latitude": 54.6341018677,
            "longitude": 25.2858009338,
            "type": "TP"
        },
        {
            "country_code": "LV",
            "city": "Riga",
            "latitude": 56.9235992432,
            "longitude": 23.9710998535,
            "type": "TP"
        },
        {
            "country_code": "N/A",
            "city": "N/A",
            "latitude": 59.9415,
            "longitude": 10.8295,
            "type": "OT"
        },
        {
            "country_code": "N/A",
            "city": "N/A",
            "latitude": 40.9475,
            "longitude": 17.2785,
            "type": "OF"
        },
        {
            "country_code": "NL",
            "city": "Lelystad",
            "latitude": 52.4603004456,
            "longitude": 5.5272197723,
            "type": "TP"
        },
        {
            "country_code": "NL",
            "city": "Rotterdam",
            "latitude": 51.9569015503,
            "longitude": 4.4372200966,
            "type": "FP"
        },
        {
            "country_code": "PL",
            "city": "Krak\u00f3w",
            "latitude": 50.0777015686,
            "longitude": 19.7847995758,
            "type": "FP"
        },
        {
            "country_code": "PL",
            "city": "Warsaw",
            "latitude": 52.1656990051,
            "longitude": 20.9671001434,
            "type": "TP"
        },
        {
            "country_code": "PT",
            "city": "Beja",
            "latitude": 38.0788993835,
            "longitude": -7.9324002266,
            "type": "FP"
        },
        {
            "country_code": "PT",
            "city": "Lisbon",
            "latitude": 38.7222524,
            "longitude": -9.1393366,
            "type": "FN"
        },
        {
            "country_code": "RS",
            "city": "Belgrade",
            "latitude": 44.8184013367,
            "longitude": 20.3090991974,
            "type": "TP"
        },
        {
            "country_code": "RU",
            "city": "Moscow",
            "latitude": 55.9725990295,
            "longitude": 37.4146003723,
            "type": "TP"
        },
        {
            "country_code": "RU",
            "city": "Moscow",
            "latitude": 55.5914993286,
            "longitude": 37.2615013123,
            "type": "FP"
        },
        {
            "country_code": "RU",
            "city": "St Petersburg",
            "latitude": 59.8003005981,
            "longitude": 30.2625007629,
            "type": "TP"
        },
        {
            "country_code": "SE",
            "city": "Eskilstuna",
            "latitude": 59.3511009216,
            "longitude": 16.7084007263,
            "type": "TP"
        },
        {
            "country_code": "SK",
            "city": "Bratislava",
            "latitude": 48.1458923,
            "longitude": 17.1071373,
            "type": "FN"
        },
        {
            "country_code": "UA",
            "city": "Donetsk",
            "latitude": 48.073600769,
            "longitude": 37.7397003174,
            "type": "OF"
        },
        {
            "country_code": "UA",
            "city": "Kiev",
            "latitude": 50.6035003662,
            "longitude": 30.1919002533,
            "type": "OT"
        },
        {
            "country_code": "UA",
            "city": "Kryvyi Rih",
            "latitude": 48.0433006287,
            "longitude": 33.2099990845,
            "type": "OF"
        }
    ]
}