{
    "target": "199.7.83.42",
    "measurement_filepath": "datasets/measurements/campaigns/199.7.83.42_North-Central_20230410/199.7.83.42_North-Central_300_52100151.json",
    "probes_filepath": "datasets/probes_sets/North-Central_300.json",
    "alpha": 1.0,
    "threshold": -1,
    "noise": 0,
    "num_anycast_instances": 31,
    "anycast_instances": [
        {
            "marker": {
                "id": "MAD",
                "latitude": 40.4936,
                "longitude": -3.56676,
                "city": "Madrid",
                "country_code": "ES"
            },
            "circle": {
                "id": "1005357",
                "latitude": 40.4905,
                "longitude": -3.6905,
                "radius": 15.310874502143639
            }
        },
        {
            "marker": {
                "id": "PRG",
                "latitude": 50.1007995605,
                "longitude": 14.2600002289,
                "city": "Prague",
                "country_code": "CZ"
            },
            "circle": {
                "id": "1004988",
                "latitude": 50.0915,
                "longitude": 14.4115,
                "radius": 18.476350088995257
            }
        },
        {
            "marker": {
                "id": "MHP",
                "latitude": 53.8644981384,
                "longitude": 27.5396995544,
                "city": "Minsk",
                "country_code": "BY"
            },
            "circle": {
                "id": "1000444",
                "latitude": 53.9595,
                "longitude": 27.7795,
                "radius": 27.01771902232578
            }
        },
        {
            "marker": {
                "id": "TMP",
                "latitude": 61.414100647,
                "longitude": 23.6044006348,
                "city": "Tampere/Pirkkala",
                "country_code": "FI"
            },
            "circle": {
                "id": "14572",
                "latitude": 61.4685,
                "longitude": 23.4605,
                "radius": 28.738075044634197
            }
        },
        {
            "marker": {
                "id": "SOF",
                "latitude": 42.6966934204,
                "longitude": 23.4114360809,
                "city": "Sofia",
                "country_code": "BG"
            },
            "circle": {
                "id": "27804",
                "latitude": 42.6595,
                "longitude": 23.3875,
                "radius": 34.82746244945478
            }
        },
        {
            "marker": {
                "id": "LED",
                "latitude": 59.8003005981,
                "longitude": 30.2625007629,
                "city": "St Petersburg",
                "country_code": "RU"
            },
            "circle": {
                "id": "11072",
                "latitude": 59.9985,
                "longitude": 30.2405,
                "radius": 34.95527296807392
            }
        },
        {
            "marker": {
                "id": "PAR",
                "latitude": 49.0127983093,
                "longitude": 2.5499999523,
                "city": "Paris",
                "country_code": "FR"
            },
            "circle": {
                "id": "52786",
                "latitude": 48.9305,
                "longitude": 2.3615,
                "radius": 38.27637681572249
            }
        },
        {
            "marker": {
                "id": "BEG",
                "latitude": 44.8184013367,
                "longitude": 20.3090991974,
                "city": "Belgrade",
                "country_code": "RS"
            },
            "circle": {
                "id": "53530",
                "latitude": 44.8175,
                "longitude": 20.4485,
                "radius": 44.30443567741002
            }
        },
        {
            "marker": {
                "id": "CKL",
                "latitude": 55.8782997131,
                "longitude": 38.0616989136,
                "city": "Moscow",
                "country_code": "RU"
            },
            "circle": {
                "id": "20904",
                "latitude": 55.9995,
                "longitude": 37.8675,
                "radius": 56.08844677628135
            }
        },
        {
            "marker": {
                "id": "BRU",
                "latitude": 50.9014015198,
                "longitude": 4.4844398499,
                "city": "Brussels",
                "country_code": "BE"
            },
            "circle": {
                "id": "11833",
                "latitude": 51.1985,
                "longitude": 4.3985,
                "radius": 67.0902693729849
            }
        },
        {
            "marker": {
                "id": "BBU",
                "latitude": 44.503200531,
                "longitude": 26.1021003723,
                "city": "Bucharest",
                "country_code": "RO"
            },
            "circle": {
                "id": "61012",
                "latitude": 44.3785,
                "longitude": 26.1275,
                "radius": 76.83263087646006
            }
        },
        {
            "marker": {
                "id": "ILD",
                "latitude": 41.728185,
                "longitude": 0.535023,
                "city": "Lleida",
                "country_code": "ES"
            },
            "circle": {
                "id": "1005149",
                "latitude": 41.6115,
                "longitude": 0.6295,
                "radius": 109.540116955017
            }
        },
        {
            "marker": {
                "id": "WIE",
                "latitude": 48.1102981567,
                "longitude": 16.5697002411,
                "city": "Vienna",
                "country_code": "AT"
            },
            "circle": {
                "id": "31908",
                "latitude": 49.2115,
                "longitude": 16.6375,
                "radius": 123.79923257468381
            }
        },
        {
            "marker": {
                "id": "ZRH",
                "latitude": 47.4646987915,
                "longitude": 8.5491695404,
                "city": "Zurich",
                "country_code": "CH"
            },
            "circle": {
                "id": "62166",
                "latitude": 46.7705,
                "longitude": 7.2405,
                "radius": 135.59295694919436
            }
        },
        {
            "marker": {
                "id": "BRI",
                "latitude": 41.1389007568,
                "longitude": 16.7605991364,
                "city": "Bari",
                "country_code": "IT"
            },
            "circle": {
                "id": "6961",
                "latitude": 40.5875,
                "longitude": 14.9805,
                "radius": 168.38351851578767
            }
        },
        {
            "marker": {
                "id": "VLC",
                "latitude": 39.4892997742,
                "longitude": -0.4816249907,
                "city": "Valencia",
                "country_code": "ES"
            },
            "circle": {
                "id": "33948",
                "latitude": 39.9915,
                "longitude": -0.0505,
                "radius": 171.42809080225246
            }
        },
        {
            "marker": {
                "id": "LYS",
                "latitude": 45.726398468,
                "longitude": 5.0908298492,
                "city": "Lyon",
                "country_code": "FR"
            },
            "circle": {
                "id": "17128",
                "latitude": 45.7615,
                "longitude": 4.8385,
                "radius": 182.80066373384003
            }
        },
        {
            "marker": {
                "id": "SXF",
                "latitude": 52.3800010681,
                "longitude": 13.5225000381,
                "city": "Berlin",
                "country_code": "DE"
            },
            "circle": {
                "id": "1003342",
                "latitude": 52.5185,
                "longitude": 13.3995,
                "radius": 193.25392908881975
            }
        },
        {
            "marker": {
                "id": "SKP",
                "latitude": 41.9616012573,
                "longitude": 21.6214008331,
                "city": "Skopje",
                "country_code": "MK"
            },
            "circle": {
                "id": "20600",
                "latitude": 40.5875,
                "longitude": 22.9775,
                "radius": 215.56111414595185
            }
        },
        {
            "marker": {
                "id": "GOT",
                "latitude": 57.6627998352,
                "longitude": 12.279800415,
                "city": "Gothenburg",
                "country_code": "SE"
            },
            "circle": {
                "id": "51263",
                "latitude": 57.6785,
                "longitude": 12.0005,
                "radius": 217.9180134984825
            }
        },
        {
            "marker": {
                "id": "IWA",
                "latitude": 56.9393997192,
                "longitude": 40.9407997131,
                "city": "Ivanovo",
                "country_code": "RU"
            },
            "circle": {
                "id": "26458",
                "latitude": 57.7015,
                "longitude": 39.7695,
                "radius": 221.86632513921123
            }
        },
        {
            "marker": {
                "id": "CGN",
                "latitude": 50.8658981323,
                "longitude": 7.1427397728,
                "city": "Cologne",
                "country_code": "DE"
            },
            "circle": {
                "id": "20202",
                "latitude": 49.8785,
                "longitude": 8.6375,
                "radius": 223.8895195108929
            }
        },
        {
            "marker": {
                "id": "NTE",
                "latitude": 47.1531982422,
                "longitude": -1.610730052,
                "city": "Nantes",
                "country_code": "FR"
            },
            "circle": {
                "id": "1003114",
                "latitude": 47.1995,
                "longitude": -1.5425,
                "radius": 225.7622660354519
            }
        },
        {
            "marker": {
                "id": "LWO",
                "latitude": 49.8125,
                "longitude": 23.9561004639,
                "city": "Lviv",
                "country_code": "UA"
            },
            "circle": {
                "id": "53752",
                "latitude": 49.8085,
                "longitude": 24.0195,
                "radius": 232.76221906880505
            }
        },
        {
            "marker": {
                "id": "PNA",
                "latitude": 42.7700004578,
                "longitude": -1.646329999,
                "city": "Pamplona",
                "country_code": "ES"
            },
            "circle": {
                "id": "62085",
                "latitude": 44.7995,
                "longitude": -0.5985,
                "radius": 244.43320541308574
            }
        },
        {
            "marker": {
                "id": "IST",
                "latitude": 40.9768981934,
                "longitude": 28.8145999908,
                "city": "Istanbul",
                "country_code": "TR"
            },
            "circle": {
                "id": "50282",
                "latitude": 40.1985,
                "longitude": 28.9915,
                "radius": 262.00211970681
            }
        },
        {
            "marker": {
                "id": "LIN",
                "latitude": 45.445098877,
                "longitude": 9.2767400742,
                "city": "Milan",
                "country_code": "IT"
            },
            "circle": {
                "id": "50542",
                "latitude": 44.4885,
                "longitude": 11.3395,
                "radius": 294.59555574057
            }
        },
        {
            "marker": {
                "id": "CIA",
                "latitude": 41.7994003296,
                "longitude": 12.5949001312,
                "city": "Rome",
                "country_code": "IT"
            },
            "circle": {
                "id": "55183",
                "latitude": 41.8485,
                "longitude": 12.4815,
                "radius": 185.1964161889275
            }
        },
        {
            "marker": {
                "id": "GML",
                "latitude": 50.6035003662,
                "longitude": 30.1919002533,
                "city": "Kiev",
                "country_code": "UA"
            },
            "circle": {
                "id": "21724",
                "latitude": 50.0395,
                "longitude": 36.2185,
                "radius": 436.57558501160514
            }
        },
        {
            "marker": {
                "id": "ADB",
                "latitude": 38.2924003601,
                "longitude": 27.156999588,
                "city": "\u0130zmir",
                "country_code": "TR"
            },
            "circle": {
                "id": "51718",
                "latitude": 38.0415,
                "longitude": 23.7475,
                "radius": 439.5133652286812
            }
        },
        {
            "marker": {
                "id": "ANK",
                "latitude": 39.949798584,
                "longitude": 32.6885986328,
                "city": "Ankara",
                "country_code": "TR"
            },
            "circle": {
                "id": "53825",
                "latitude": 45.0795,
                "longitude": 40.4585,
                "radius": 882.6725814872148
            }
        }
    ]
}