{
    "target": "202.12.27.33",
    "measurement_filepath": "datasets/measurements/campaigns/202.12.27.33_North-Central-section_20230425/202.12.27.33_North-Central-section_2_52655917.json",
    "probes_filepath": "datasets/probes_section/North-Central-section_2.json",
    "alpha": 0.7,
    "threshold": -1,
    "noise": 0,
    "num_anycast_instances": 6,
    "anycast_instances": [
        {
            "marker": {
                "id": "ORY",
                "latitude": 48.7252998352,
                "longitude": 2.3594400883,
                "city": "Paris",
                "country_code": "FR"
            },
            "circle": {
                "id": "31466",
                "latitude": 47.4405,
                "longitude": 0.7005,
                "radius": 212.35388046762537
            }
        },
        {
            "marker": {
                "id": "ZAZ",
                "latitude": 41.6661987305,
                "longitude": -1.0415500402,
                "city": "Zaragoza",
                "country_code": "ES"
            },
            "circle": {
                "id": "54423",
                "latitude": 44.8285,
                "longitude": -0.6015,
                "radius": 417.9481754988729
            }
        },
        {
            "marker": {
                "id": "STN",
                "latitude": 51.8849983215,
                "longitude": 0.2349999994,
                "city": "London",
                "country_code": "GB"
            },
            "circle": {
                "id": "6880",
                "latitude": 53.6075,
                "longitude": 10.0315,
                "radius": 695.2492439638473
            }
        },
        {
            "marker": {
                "id": "TRN",
                "latitude": 45.2008018494,
                "longitude": 7.6496300697,
                "city": "Torino",
                "country_code": "IT"
            },
            "circle": {
                "id": "12015",
                "latitude": 45.7195,
                "longitude": 4.8575,
                "radius": 284.9519368789863
            }
        },
        {
            "marker": {
                "id": "IST",
                "latitude": 40.9768981934,
                "longitude": 28.8145999908,
                "city": "Istanbul",
                "country_code": "TR"
            },
            "circle": {
                "id": "1003334",
                "latitude": 31.7695,
                "longitude": 35.2085,
                "radius": 2411.5023966298168
            }
        },
        {
            "marker": {
                "id": "VKO",
                "latitude": 55.5914993286,
                "longitude": 37.2615013123,
                "city": "Moscow",
                "country_code": "RU"
            },
            "circle": {
                "id": "20290",
                "latitude": 60.1275,
                "longitude": 18.6415,
                "radius": 1216.9039948944985
            }
        }
    ]
}