{
    "target": "192.33.4.12",
    "measurement_filepath": "datasets/measurements/campaigns/192.33.4.12_North-Central-section_20230425/192.33.4.12_North-Central-section_1.5_52641500.json",
    "probes_filepath": "datasets/probes_section/North-Central-section_1.5.json",
    "alpha": 1,
    "threshold": 10.0,
    "noise": 0,
    "num_anycast_instances": 8,
    "anycast_instances": [
        {
            "marker": {
                "id": "ECV",
                "latitude": 40.3707008362,
                "longitude": -3.7851400375,
                "city": "Madrid",
                "country_code": "ES"
            },
            "circle": {
                "id": "7017",
                "latitude": 40.4405,
                "longitude": -3.6225,
                "radius": 26.3885565824195
            }
        },
        {
            "marker": {
                "id": "WIE",
                "latitude": 48.1102981567,
                "longitude": 16.5697002411,
                "city": "Vienna",
                "country_code": "AT"
            },
            "circle": {
                "id": "16135",
                "latitude": 48.2295,
                "longitude": 16.4085,
                "radius": 86.80190828932
            }
        },
        {
            "marker": {
                "id": "STR",
                "latitude": 48.6898994446,
                "longitude": 9.2219600677,
                "city": "Stuttgart",
                "country_code": "DE"
            },
            "circle": {
                "id": "19810",
                "latitude": 48.7375,
                "longitude": 9.0975,
                "radius": 148.20723576568525
            }
        },
        {
            "marker": {
                "id": "ORY",
                "latitude": 48.7252998352,
                "longitude": 2.3594400883,
                "city": "Paris",
                "country_code": "FR"
            },
            "circle": {
                "id": "19856",
                "latitude": 47.0605,
                "longitude": 2.4095,
                "radius": 207.34901776197873
            }
        },
        {
            "marker": {
                "id": "BNX",
                "latitude": 50.4592018127,
                "longitude": 4.4538202286,
                "city": "Brussels",
                "country_code": "BE"
            },
            "circle": {
                "id": "13430",
                "latitude": 51.1275,
                "longitude": 6.9585,
                "radius": 217.32318778775326
            }
        },
        {
            "marker": {
                "id": "BIX",
                "latitude": 47.4812134,
                "longitude": 19.1303031,
                "city": "Budapest",
                "country_code": "HU"
            },
            "circle": {
                "id": "3213",
                "latitude": 48.0985,
                "longitude": 20.7475,
                "radius": 303.2844780248413
            }
        },
        {
            "marker": {
                "id": "SVQ",
                "latitude": 37.4179992676,
                "longitude": -5.8931097984,
                "city": "Sevilla",
                "country_code": "ES"
            },
            "circle": {
                "id": "23581",
                "latitude": 37.5375,
                "longitude": -6.0585,
                "radius": 318.59997532668723
            }
        },
        {
            "marker": {
                "id": "NTE",
                "latitude": 47.1531982422,
                "longitude": -1.610730052,
                "city": "Nantes",
                "country_code": "FR"
            },
            "circle": {
                "id": "31533",
                "latitude": 46.6885,
                "longitude": -1.4515,
                "radius": 344.02893372510596
            }
        }
    ]
}