{
    "target": "198.97.190.53",
    "probes_filepath": "datasets/probes_section/North-Central-section_2.json",
    "alpha": 0.3,
    "threshold": -1,
    "noise": 0,
    "results_filepath": "datasets/results/campaigns/198.97.190.53_North-Central-section_20230425_alpha_light-factor_0.18/198.97.190.53_North-Central-section_2_52652506_0.3_-1_0.json",
    "gt_filepath": "datasets/ground-truth/root_servers/root_servers_H.json",
    "statistics": {
        "TP": 1,
        "FP": 20,
        "TN": 0,
        "FN": 1,
        "accuracy": 0.045454545454545456,
        "precision": 0.047619047619047616,
        "recall": 0.5,
        "f1": 0.08695652173913042,
        "OT": 0,
        "OF": 0
    },
    "instances": [
        {
            "country_code": "BE",
            "city": "Brussels",
            "latitude": 50.4592018127,
            "longitude": 4.4538202286,
            "type": "FP"
        },
        {
            "country_code": "CH",
            "city": "Zurich",
            "latitude": 47.4646987915,
            "longitude": 8.5491695404,
            "type": "FP"
        },
        {
            "country_code": "DE",
            "city": "Frankfurt",
            "latitude": 50.11944,
            "longitude": 8.735556,
            "type": "FN"
        },
        {
            "country_code": "DE",
            "city": "Hamburg",
            "latitude": 53.5352783203,
            "longitude": 9.8355560303,
            "type": "FP"
        },
        {
            "country_code": "DE",
            "city": "Munich",
            "latitude": 48.3538017273,
            "longitude": 11.7861003876,
            "type": "FP"
        },
        {
            "country_code": "ES",
            "city": "Madrid",
            "latitude": 40.4967002869,
            "longitude": -3.4458699226,
            "type": "FP"
        },
        {
            "country_code": "ES",
            "city": "Zaragoza",
            "latitude": 41.6661987305,
            "longitude": -1.0415500402,
            "type": "FP"
        },
        {
            "country_code": "GB",
            "city": "Birmingham",
            "latitude": 52.4538993835,
            "longitude": -1.7480299473,
            "type": "FP"
        },
        {
            "country_code": "GB",
            "city": "Leeds",
            "latitude": 53.8658981323,
            "longitude": -1.6605700254,
            "type": "FP"
        },
        {
            "country_code": "GB",
            "city": "London",
            "latitude": 51.4706001282,
            "longitude": -0.4619410038,
            "type": "TP"
        },
        {
            "country_code": "GB",
            "city": "London",
            "latitude": 51.3307991028,
            "longitude": 0.0324999988,
            "type": "FP"
        },
        {
            "country_code": "HU",
            "city": "Budapest",
            "latitude": 47.4812134,
            "longitude": 19.1303031,
            "type": "FP"
        },
        {
            "country_code": "IE",
            "city": "Dublin",
            "latitude": 53.4212989807,
            "longitude": -6.270070076,
            "type": "FP"
        },
        {
            "country_code": "IS",
            "city": "Egilssta\u00f0ir",
            "latitude": 65.2833023071,
            "longitude": -14.4013996124,
            "type": "FP"
        },
        {
            "country_code": "IT",
            "city": "Rome",
            "latitude": 41.799444,
            "longitude": 12.597222,
            "type": "FP"
        },
        {
            "country_code": "PL",
            "city": "Warsaw",
            "latitude": 52.4510993958,
            "longitude": 20.6518001556,
            "type": "FP"
        },
        {
            "country_code": "PL",
            "city": "Wroc\u0142aw",
            "latitude": 51.1026992798,
            "longitude": 16.885799408,
            "type": "FP"
        },
        {
            "country_code": "RU",
            "city": "Moscow",
            "latitude": 55.8782997131,
            "longitude": 38.0616989136,
            "type": "FP"
        },
        {
            "country_code": "RU",
            "city": "Murmansk",
            "latitude": 68.7817001343,
            "longitude": 32.7508010864,
            "type": "FP"
        },
        {
            "country_code": "RU",
            "city": "St Petersburg",
            "latitude": 59.8003005981,
            "longitude": 30.2625007629,
            "type": "FP"
        },
        {
            "country_code": "SE",
            "city": "Stockholm",
            "latitude": 59.6519012451,
            "longitude": 17.9186000824,
            "type": "FP"
        },
        {
            "country_code": "TR",
            "city": "Istanbul",
            "latitude": 40.898601532,
            "longitude": 29.3092002869,
            "type": "FP"
        }
    ]
}