{
    "target": "199.9.14.201",
    "measurement_filepath": "datasets/measurements/campaigns/199.9.14.201_North-Central_20230410/199.9.14.201_North-Central_100_52069552.json",
    "probes_filepath": "datasets/probes_sets/North-Central_100.json",
    "alpha": 0.0,
    "threshold": -1,
    "noise": 0,
    "num_anycast_instances": 11,
    "anycast_instances": [
        {
            "marker": {
                "id": "GLZ",
                "latitude": 51.567401886,
                "longitude": 4.9318299294,
                "city": "Breda",
                "country_code": "NL"
            },
            "circle": {
                "id": "54521",
                "latitude": 52.0075,
                "longitude": 4.3585,
                "radius": 71.94232036797749
            }
        },
        {
            "marker": {
                "id": "FZO",
                "latitude": 51.5194015503,
                "longitude": -2.5908300877,
                "city": "Bristol",
                "country_code": "GB"
            },
            "circle": {
                "id": "54438",
                "latitude": 51.5115,
                "longitude": -0.1315,
                "radius": 173.72147612463127
            }
        },
        {
            "marker": {
                "id": "ERF",
                "latitude": 50.979801178,
                "longitude": 10.9581003189,
                "city": "Erfurt",
                "country_code": "DE"
            },
            "circle": {
                "id": "1002824",
                "latitude": 50.1195,
                "longitude": 8.6785,
                "radius": 188.58856185534833
            }
        },
        {
            "marker": {
                "id": "SXF",
                "latitude": 52.3800010681,
                "longitude": 13.5225000381,
                "city": "Berlin",
                "country_code": "DE"
            },
            "circle": {
                "id": "62426",
                "latitude": 55.6705,
                "longitude": 12.5685,
                "radius": 377.2421486948369
            }
        },
        {
            "marker": {
                "id": "QPZ",
                "latitude": 44.9131011963,
                "longitude": 9.7233295441,
                "city": "Piacenza",
                "country_code": "IT"
            },
            "circle": {
                "id": "60624",
                "latitude": 43.4995,
                "longitude": 2.1885,
                "radius": 620.6845460300817
            }
        },
        {
            "marker": {
                "id": "BNX",
                "latitude": 50.4592018127,
                "longitude": 4.4538202286,
                "city": "Brussels",
                "country_code": "BE"
            },
            "circle": {
                "id": "31879",
                "latitude": 48.8615,
                "longitude": 2.3905,
                "radius": 234.579896716754
            }
        },
        {
            "marker": {
                "id": "FNB",
                "latitude": 53.6021995544,
                "longitude": 13.3059997559,
                "city": "Neubrandenburg",
                "country_code": "DE"
            },
            "circle": {
                "id": "1003738",
                "latitude": 59.2615,
                "longitude": 18.0985,
                "radius": 694.5328269290401
            }
        },
        {
            "marker": {
                "id": "FRL",
                "latitude": 44.1948013306,
                "longitude": 12.0700998306,
                "city": "Forl\u00ec",
                "country_code": "IT"
            },
            "circle": {
                "id": "16245",
                "latitude": 42.6895,
                "longitude": 23.3195,
                "radius": 923.1932915833384
            }
        },
        {
            "marker": {
                "id": "RDZ",
                "latitude": 44.4079017639,
                "longitude": 2.4826700687,
                "city": "Rodez/Marcillac",
                "country_code": "FR"
            },
            "circle": {
                "id": "1001278",
                "latitude": 38.9015,
                "longitude": -9.0395,
                "radius": 1138.1709616392288
            }
        },
        {
            "marker": {
                "id": "RYB",
                "latitude": 58.1041984558,
                "longitude": 38.9294013977,
                "city": "Rybinsk",
                "country_code": "RU"
            },
            "circle": {
                "id": "55039",
                "latitude": 66.5315,
                "longitude": 25.6485,
                "radius": 1157.694294916845
            }
        },
        {
            "marker": {
                "id": "PVN",
                "latitude": 43.4514007568,
                "longitude": 24.5027999878,
                "city": "Dolna Mitropoliya",
                "country_code": "BG"
            },
            "circle": {
                "id": "33630",
                "latitude": 40.1775,
                "longitude": 44.4985,
                "radius": 1692.6251599849284
            }
        }
    ]
}