{
    "target": "198.97.190.53",
    "measurement_filepath": "datasets/measurements/campaigns/198.97.190.53_North-Central-section_20230425/198.97.190.53_North-Central-section_1_52651836.json",
    "probes_filepath": "datasets/probes_section/North-Central-section_1.json",
    "alpha": 1.0,
    "threshold": -1,
    "noise": 0,
    "num_anycast_instances": 7,
    "anycast_instances": [
        {
            "marker": {
                "id": "DEX",
                "latitude": 50.121212,
                "longitude": 8.6365638,
                "city": "Frankfurt-am-Main",
                "country_code": "DE"
            },
            "circle": {
                "id": "6940",
                "latitude": 50.0975,
                "longitude": 8.6395,
                "radius": 37.501563208021494
            }
        },
        {
            "marker": {
                "id": "BQH",
                "latitude": 51.3307991028,
                "longitude": 0.0324999988,
                "city": "London",
                "country_code": "GB"
            },
            "circle": {
                "id": "1002787",
                "latitude": 51.7705,
                "longitude": 0.1315,
                "radius": 137.24225916103217
            }
        },
        {
            "marker": {
                "id": "CIA",
                "latitude": 41.7994003296,
                "longitude": 12.5949001312,
                "city": "Rome",
                "country_code": "IT"
            },
            "circle": {
                "id": "6621",
                "latitude": 40.9475,
                "longitude": 17.2785,
                "radius": 470.4618610308673
            }
        },
        {
            "marker": {
                "id": "SXF",
                "latitude": 52.3800010681,
                "longitude": 13.5225000381,
                "city": "Berlin",
                "country_code": "DE"
            },
            "circle": {
                "id": "1003415",
                "latitude": 56.0195,
                "longitude": 12.1975,
                "radius": 624.8797847267667
            }
        },
        {
            "marker": {
                "id": "IST",
                "latitude": 40.9768981934,
                "longitude": 28.8145999908,
                "city": "Istanbul",
                "country_code": "TR"
            },
            "circle": {
                "id": "10972",
                "latitude": 48.3785,
                "longitude": 31.1705,
                "radius": 1229.6405350712107
            }
        },
        {
            "marker": {
                "id": "ECV",
                "latitude": 40.3707008362,
                "longitude": -3.7851400375,
                "city": "Madrid",
                "country_code": "ES"
            },
            "circle": {
                "id": "6667",
                "latitude": 38.7205,
                "longitude": -9.1395,
                "radius": 1548.2939633931592
            }
        },
        {
            "marker": {
                "id": "CKL",
                "latitude": 55.8782997131,
                "longitude": 38.0616989136,
                "city": "Moscow",
                "country_code": "RU"
            },
            "circle": {
                "id": "4842",
                "latitude": 78.2085,
                "longitude": 15.6195,
                "radius": 2803.1224162317453
            }
        }
    ]
}