{
    "target": "192.33.4.12",
    "measurement_filepath": "datasets/measurements/campaigns/192.33.4.12_North-Central_20230410/192.33.4.12_North-Central_500_52069932.json",
    "probes_filepath": "datasets/probes_sets/North-Central_500.json",
    "alpha": 1.0,
    "threshold": -1,
    "noise": 0,
    "num_anycast_instances": 6,
    "anycast_instances": [
        {
            "marker": {
                "id": "PAR",
                "latitude": 49.0127983093,
                "longitude": 2.5499999523,
                "city": "Paris",
                "country_code": "FR"
            },
            "circle": {
                "id": "6363",
                "latitude": 48.9285,
                "longitude": 2.3505,
                "radius": 31.3775977410952
            }
        },
        {
            "marker": {
                "id": "WIE",
                "latitude": 48.1102981567,
                "longitude": 16.5697002411,
                "city": "Vienna",
                "country_code": "AT"
            },
            "circle": {
                "id": "24449",
                "latitude": 48.1615,
                "longitude": 17.1495,
                "radius": 44.7993060857552
            }
        },
        {
            "marker": {
                "id": "DEX",
                "latitude": 50.121212,
                "longitude": 8.6365638,
                "city": "Frankfurt-am-Main",
                "country_code": "DE"
            },
            "circle": {
                "id": "7097",
                "latitude": 50.1405,
                "longitude": 8.7415,
                "radius": 53.8240783659124
            }
        },
        {
            "marker": {
                "id": "ECV",
                "latitude": 40.3707008362,
                "longitude": -3.7851400375,
                "city": "Madrid",
                "country_code": "ES"
            },
            "circle": {
                "id": "22338",
                "latitude": 40.4815,
                "longitude": -3.6315,
                "radius": 166.640836949132
            }
        },
        {
            "marker": {
                "id": "LYS",
                "latitude": 45.726398468,
                "longitude": 5.0908298492,
                "city": "Lyon",
                "country_code": "FR"
            },
            "circle": {
                "id": "24596",
                "latitude": 47.2405,
                "longitude": 5.9815,
                "radius": 214.2282728527788
            }
        },
        {
            "marker": {
                "id": "CKL",
                "latitude": 55.8782997131,
                "longitude": 38.0616989136,
                "city": "Moscow",
                "country_code": "RU"
            },
            "circle": {
                "id": "34438",
                "latitude": 60.2915,
                "longitude": 24.7285,
                "radius": 1378.6985068845856
            }
        }
    ]
}