{
    "target": "192.33.4.12",
    "measurement_filepath": "datasets/measurements/campaigns/192.33.4.12_North-Central_20230410/192.33.4.12_North-Central_100_52069786.json",
    "probes_filepath": "datasets/probes_sets/North-Central_100.json",
    "alpha": 0.0,
    "threshold": -1,
    "noise": 0,
    "num_anycast_instances": 6,
    "anycast_instances": [
        {
            "marker": {
                "id": "QEF",
                "latitude": 49.9599990845,
                "longitude": 8.6458330154,
                "city": "Egelsbach",
                "country_code": "DE"
            },
            "circle": {
                "id": "1004809",
                "latitude": 50.1015,
                "longitude": 8.6275,
                "radius": 33.5177561402656
            }
        },
        {
            "marker": {
                "id": "CQF",
                "latitude": 50.9621009827,
                "longitude": 1.9547599554,
                "city": "Calais/Dunkerque",
                "country_code": "FR"
            },
            "circle": {
                "id": "12392",
                "latitude": 48.8485,
                "longitude": 2.6415,
                "radius": 248.60037753985281
            }
        },
        {
            "marker": {
                "id": "BYU",
                "latitude": 49.9850006104,
                "longitude": 11.6400003433,
                "city": "Bayreuth",
                "country_code": "DE"
            },
            "circle": {
                "id": "62877",
                "latitude": 48.0505,
                "longitude": 14.5105,
                "radius": 302.64120585289925
            }
        },
        {
            "marker": {
                "id": "DCM",
                "latitude": 43.5563011169,
                "longitude": 2.2891800404,
                "city": "Castres/Mazamet",
                "country_code": "FR"
            },
            "circle": {
                "id": "23268",
                "latitude": 41.6515,
                "longitude": -0.8895,
                "radius": 338.45651143278525
            }
        },
        {
            "marker": {
                "id": "CBU",
                "latitude": 51.8894424438,
                "longitude": 14.5319442749,
                "city": "Cottbus",
                "country_code": "DE"
            },
            "circle": {
                "id": "1005121",
                "latitude": 50.5075,
                "longitude": 30.4985,
                "radius": 1121.0129788635345
            }
        },
        {
            "marker": {
                "id": "AOI",
                "latitude": 43.6162986755,
                "longitude": 13.3622999191,
                "city": "Ancona",
                "country_code": "IT"
            },
            "circle": {
                "id": "19423",
                "latitude": 45.4485,
                "longitude": 28.0485,
                "radius": 1187.967787014372
            }
        }
    ]
}